~Version Information Section
VERS.          2.0                                     : CWLS LOG ASCII Standard
WRAP.          NO                                      : One line per depth step
CREA.          27/11/15                                : LAS Creation Date
~Well Information Section
STRT.ft        2700.0000                               : Start Depth
STOP.ft        3300.0000                               : Stop Depth
STEP.ft        0.5000                                  : Step
NULL.          -999.2500                               : Null Value
COMP.          TEXACO                                  : Company
WELL.          13/22a-3                                : Well
FLD .          CAPTAIN                                 : Field
LOC .          MORAY FIRTH                             : Location
LOC1.          X= 575615.47 Y= 6462274.775             : Location (UTM)
CTRY.          UK                                      : Country
PROV.          UKCS                                    : Province
UWI .          10446                                   : UWI Number
API .                                                  : API Number
SECT.                                                  : Section
TOWN.                                                  : Township
RNGE.                                                  : Range
PDAT.          MSL                                     : Perm Datum
EPD .ft        0.00                                    : Elevation
LMF .          RKB                                     : Log Measured From
DMF .          RKB                                     : Drill Measured From
APD .ft        83.00                                   : Above Perm Datum
EKB .ft        83.00                                   : Elev-Kelly Bushing
EDF .          -                                       : Elev-Drill Floor
EGL .ft        -367.00                                 : Elev-Ground Level (Water Depth)
TDD .ft        3400.00                                 : Total Depth (Driller)
SRVC.          ATLAS WIRELINE                          : Service Company
LATI.          58 17 37.11 N                           : Latitude
LONG.          01 42 36.68 W                           : Longitude
DATE.          09-27-DEC-1989                          : Logging Date
PROJ.          UKCS                                    : Project
SET .          COMP WIRE                               : Set
~Curve Information Section
DEPTH.ft                                               : Depth Curve
AC.us/ft                                               : Acoustic Travel Time
CAL.in                                                 : DLL Caliper
CALI.in                                                : ZDL Caliper
CNC.%                                                  : Compensated Neutron Porosity
GR.gAPI                                                : DLL Gamma Ray
GRS.gAPI                                               : ZDL Gamma Ray
K.                                                     : Potassium
KTH.gAPI                                               : Uranium Stripped Gamma Ray
PE.B/e                                                 : Photo-electric
RD.ohmm                                                : Deep Laterolog Resistivity
RMLL.ohmm                                              : Microlaterolog Resistivity
RS.ohmm                                                : Shallow Laterolog Resistivity
SP.mV                                                  : Spontaneous Potential
TH.ppm                                                 : Thorium
U.ppm                                                  : Uranium
ZCOR.g/cc                                              : ZDL Density Correction
ZDEN.g/cc                                              : ZDL Bulk Density
~ASCII Log Data Section
# ...
 3240.0000        69.8231        11.4452        12.6753        16.5602       103.6358       103.6358         1.8358        78.9864         3.6840        28.5410        36.0828        35.1193        67.7755         4.1827         3.9780         0.0238         2.6124     
 3240.5000        69.6230        11.4481        12.6771        17.0026        92.3087        92.3087         1.9465        75.1373         3.6597        26.3293        32.5952        32.4883        67.3193         4.1910         3.0673         0.0164         2.6101     
 3241.0000        70.7959        11.4466        12.7279        18.0754        86.9949        86.9949         2.1232        73.7648         3.7032        24.1514        29.0300        29.8201        67.1130         3.7564         2.5691         0.0137         2.6069     
 3241.5000        72.4757        11.4455        12.7416        19.1564        85.8195        85.8195         2.3186        76.0634         3.6796        22.7807        28.3359        28.0810        67.2640         3.9284         1.9978         0.0167         2.6050     
 3242.0000        73.7715        11.4471        12.7650        19.7226        86.5423        86.5423         2.4566        78.8490         3.4870        22.0956        29.9040        27.1321        67.6426         4.6576         1.6288         0.0177         2.6023     
 3242.5000        74.3635        11.4482        12.7654        19.9234        86.7183        86.7183         2.5295        78.3758         3.2904        21.6487        30.7118        26.5031        67.8876         4.4001         1.8134         0.0175         2.5987     
 3243.0000        74.5813        11.4466        12.7394        20.2903        85.7610        85.7618         2.5361        76.1686         3.2693        21.1342        29.9186        25.8865        67.7558         3.2678         2.0956         0.0192         2.5969     
 3243.5000        74.7864        11.4445        12.7636        20.6908        84.4343        84.4353         2.4030        74.5062         3.3337        20.5623        29.2221        25.2850        67.3650         2.7184         2.0816         0.0211         2.5985     
 3244.0000        75.0452        11.4448        12.7763        20.7663        83.3214        83.3223         2.1734        73.8665         3.3283        20.0428        27.9892        24.7773        66.9499         3.0075         1.8356         0.0211         2.6015     
 3244.5000        75.2614        11.4476        12.7744        20.7750        82.4728        82.4728         2.0611        73.6140         3.3148        19.5166        25.7315        24.2017        66.6708         3.0588         1.6461         0.0216         2.6029     
 3245.0000        75.5354        11.4501        12.7744        20.9243        82.2934        82.2934         2.1716        74.3398         3.3152        18.7782        24.9430        23.2876        66.6299         2.9842         1.5321         0.0227         2.6023     
 3245.5000        76.0711        11.4498        12.7744        21.1191        82.7896        82.7896         2.3416        75.9315         3.3219        17.7546        25.5690        22.0075        66.7723         3.5654         1.4067         0.0232         2.6016     
 3246.0000        76.8865        11.4483        12.7744        21.4268        83.4666        83.4666         2.3648        77.1980         3.3148        16.6792        24.4568        20.6378        66.8643         4.4499         1.3039         0.0234         2.6015     
 3246.5000        77.9232        11.4472        12.7744        21.9925        84.0629        84.0629         2.2732        76.6186         3.3068        15.8968        21.2778        19.5582        66.7526         4.2779         1.4997         0.0241         2.6019     
 3247.0000        78.9965        11.4469        12.7741        22.4270        84.9432        84.9432         2.2593        76.9596         3.3073        15.5154        18.9919        18.8994        66.4555         3.7605         1.5718         0.0265         2.6027     
 3247.5000        79.6482        11.4494        12.7752        22.2767        85.8974        85.8974         2.3169        79.4486         3.3123        15.3992        18.9980        18.5234        66.0577         4.2586         1.2738         0.0314         2.6028     
 3248.0000        79.6851        11.4550        12.7474        21.7572        86.1379        86.1379         2.3594        80.0078         3.3117        15.4217        20.5029        18.3449        65.6418         5.0170         1.2446         0.0332         2.6018     
 3248.5000        79.3066        11.4587        12.7489        21.3500        86.1024        86.1024         2.4622        78.6994         3.3065        15.5662        20.7566        18.4005        65.3234         4.9462         1.5841         0.0280         2.5996     
 3249.0000        78.5695        11.4588        12.7651        20.9471        86.4285        86.4285         2.5760        77.3807         3.3069        15.8597        19.6637        18.7023        65.1466         4.4001         2.0250         0.0214         2.5956     
 3249.5000        77.4147        11.4583        12.7117        20.1759        85.2398        85.2408         2.5101        75.2987         3.3145        16.3022        19.7456        19.2277        65.1034         3.8359         2.2051         0.0212         2.5919     
 3250.0000        76.0213        11.4591        12.7374        19.2937        82.1612        82.1637         2.3328        73.1941         3.3219        16.7135        21.4035        19.7606        65.2074         3.3412         1.8915         0.0243         2.5907     
 3250.5000        74.8014        11.4618        12.7500        19.0701        79.3018        79.3040         2.2396        73.2717         3.3234        16.8381        22.1204        19.9601        65.4161         3.1124         1.2170         0.0269         2.5895     
 3251.0000        74.1628        11.4641        12.7471        19.6044        78.6400        78.6400         2.2769        73.8962         3.3249        16.6720        20.6127        19.7567        65.5118         3.3067         0.9682         0.0290         2.5852     
 3251.5000        74.0699        11.4629        12.7752        20.0629        79.4997        79.4997         2.3962        74.8340         3.3318        16.3623        18.9654        19.3121        65.3528         3.8411         0.9983         0.0312         2.5811     
 3252.0000        74.2458        11.4597        12.7741        19.9667        80.5459        80.5459         2.4146        75.7434         3.3323        15.8395        19.0973        18.6544        65.1575         4.2425         1.0322         0.0289         2.5806     
 3252.5000        74.6199        11.4585        12.7744        20.0381        81.7330        81.7330         2.3022        76.1340         3.3245        14.8902        19.5089        17.6089        65.0811         3.9883         1.1398         0.0229         2.5817     
 3253.0000        75.4932        11.4590        12.7744        21.1014        84.2503        84.2503         2.3361        76.7428         3.3711        13.6072        18.2869        16.1619        65.0238         3.2959         1.5102         0.0186         2.5810     
 3253.5000        77.3077        11.4603        12.7744        22.8518        88.6865        88.6865         2.5615        79.7967         3.4544        12.4607        15.5688        14.7795        64.8300         3.3448         1.8742         0.0188         2.5800     
 3254.0000        79.8022        11.4627        12.7744        24.9410        94.4705        94.4705         2.7557        84.7003         3.5189        11.8682        13.0860        14.0281        64.4799         4.3718         2.1221         0.0208         2.5828     
 3254.5000        81.9119        11.4634        12.7744        26.1378        99.1866        99.1866         2.7743        87.4384         3.5800        11.9978        11.8090        14.1199        64.0433         4.9540         2.5173         0.0228         2.5899     
