~Version Information Section
VERS.          2.0                                     : CWLS LOG ASCII Standard
WRAP.          NO                                      : One line per depth step
CREA.          27/11/15                                : LAS Creation Date
~Well Information Section
STRT.ft        2700.0000                               : Start Depth
STOP.ft        3300.0000                               : Stop Depth
STEP.ft        0.5000                                  : Step
NULL.          -999.2500                               : Null Value
COMP.          TEXACO                                  : Company
WELL.          13/22a-3                                : Well
FLD .          CAPTAIN                                 : Field
LOC .          MORAY FIRTH                             : Location
LOC1.          X= 575615.47 Y= 6462274.775             : Location (UTM)
CTRY.          UK                                      : Country
PROV.          UKCS                                    : Province
UWI .          10446                                   : UWI Number
API .                                                  : API Number
SECT.                                                  : Section
TOWN.                                                  : Township
RNGE.                                                  : Range
PDAT.          MSL                                     : Perm Datum
EPD .ft        0.00                                    : Elevation
LMF .          RKB                                     : Log Measured From
DMF .          RKB                                     : Drill Measured From
APD .ft        83.00                                   : Above Perm Datum
EKB .ft        83.00                                   : Elev-Kelly Bushing
EDF .          -                                       : Elev-Drill Floor
EGL .ft        -367.00                                 : Elev-Ground Level (Water Depth)
TDD .ft        3400.00                                 : Total Depth (Driller)
SRVC.          ATLAS WIRELINE                          : Service Company
LATI.          58 17 37.11 N                           : Latitude
LONG.          01 42 36.68 W                           : Longitude
DATE.          09-27-DEC-1989                          : Logging Date
PROJ.          UKCS                                    : Project
SET .          COMP WIRE                               : Set
~Curve Information Section
DEPTH.ft                                               : Depth Curve
AC.us/ft                                               : Acoustic Travel Time
CAL.in                                                 : DLL Caliper
CALI.in                                                : ZDL Caliper
CNC.%                                                  : Compensated Neutron Porosity
GR.gAPI                                                : DLL Gamma Ray
GRS.gAPI                                               : ZDL Gamma Ray
K.                                                     : Potassium
KTH.gAPI                                               : Uranium Stripped Gamma Ray
PE.B/e                                                 : Photo-electric
RD.ohmm                                                : Deep Laterolog Resistivity
RMLL.ohmm                                              : Microlaterolog Resistivity
RS.ohmm                                                : Shallow Laterolog Resistivity
SP.mV                                                  : Spontaneous Potential
TH.ppm                                                 : Thorium
U.ppm                                                  : Uranium
ZCOR.g/cc                                              : ZDL Density Correction
ZDEN.g/cc                                              : ZDL Bulk Density
~ASCII Log Data Section
# ...
 3165.0000        88.6064        11.4868        12.7748        28.5865        83.1690       100.6165         3.0063        94.3320         3.4951         9.7944        11.8879        11.6000        65.1459         4.6445         1.3339         0.0271         2.5827     
 3165.5000        87.1102        11.4831        12.7737        28.3573        82.3712        99.3488         2.9646        93.0516         3.4958        10.1780        12.5870        12.0138        64.8504         4.2596         1.3278         0.0274         2.5917     
 3166.0000        86.0364        11.4828        12.8015        27.7679        81.3602        97.7935         2.5662        88.1388         3.4961        10.4168        12.5794        12.2531        64.9597         4.0794         1.8770         0.0249         2.5950     
 3166.5000        85.5547        11.4856        12.8015        26.9745        80.0852        97.1250         2.3114        84.8356         3.4925        10.5594        12.3892        12.3690        65.2540         4.1977         2.2651         0.0236         2.5931     
 3167.0000        85.2263        11.4869        12.7737        26.3767        77.2254        96.2433         2.3895        86.2654         3.4852        10.6442        12.9569        12.4208        65.4478         4.8795         1.8938         0.0220         2.5895     
 3167.5000        84.8576        11.4866        12.7748        25.6442        74.2158        93.9498         2.5784        87.1563         3.4809        10.6014        14.1856        12.3366        65.5635         5.4753         1.3834         0.0180         2.5871     
 3168.0000        84.8068        11.4878        12.7744        25.5176        73.8654        92.2648         2.6074        84.1222         3.4868        10.3091        14.5937        11.9879        65.7475         4.9185         1.7142         0.0151         2.5858     
 3168.5000        85.5320        11.4881        12.7744        26.5022        76.7989        93.6942         2.4463        81.4768         3.5086         9.8564        13.7748        11.4552        65.9253         4.0922         2.4612         0.0156         2.5845     
 3169.0000        86.9028        11.4865        12.7744        27.3587        80.3498        97.5514         2.4207        84.2876         3.5264         9.5824        12.4337        11.1031        65.9331         4.4966         2.5830         0.0190         2.5842     
 3169.5000        87.8051        11.4854        12.7744        26.8367        82.5924       100.2474         2.6568        89.2080         3.5395         9.7684        11.7369        11.2453        65.7712         5.1892         2.2416         0.0236         2.5848     
 3170.0000        86.9715        11.4836        12.7744        24.9392        82.9808        98.4325         2.7867        88.1902         3.5159        10.4545        12.4574        11.9399        65.5679         4.7541         2.1756         0.0281         2.5831     
 3170.5000        84.5177        11.4765        12.7744        22.9743        80.2505        92.4548         2.6890        81.4035         3.4232        11.4317        14.4282        12.9585        65.3924         3.4020         2.3918         0.0294         2.5777     
 3171.0000        81.8340        11.4631        12.7744        21.2202        74.5266        86.1205         2.6583        76.4905         3.3007        12.2972        15.5795        13.8231        65.3348         2.3991         2.1459         0.0281         2.5704     
 3171.5000        79.9329        11.4479        12.7744        19.6118        69.4464        82.8874         2.6577        75.6755         3.2083        12.8273        14.7723        14.2561        65.5020         2.3158         1.6209         0.0286         2.5624     
 3172.0000        78.5799        11.4369        12.7744        18.9998        66.5751        81.4857         2.4171        74.6330         3.0963        13.3445        12.5576        14.6041        65.8410         2.9083         1.4488         0.0324         2.5558     
 3172.5000        77.0650        11.4330        12.7744        17.8771        63.8440        77.9820         2.0665        70.3359         2.9524        14.1143        10.6437        15.2036        66.1905         3.5040         1.5092         0.0354         2.5541     
 3173.0000        75.4521        11.4359        12.7744        16.5794        60.0282        71.6487         1.7927        63.3097         2.8759        14.7170        10.9832        15.6544        66.4486         3.6739         1.6187         0.0324         2.5563     
 3173.5000        74.7142        11.4399        12.7744        16.8799        57.0536        67.9690         1.6946        59.1732         2.8908        14.5116        13.7244        15.3235        66.5905         3.8178         1.7466         0.0264         2.5571     
 3174.0000        75.6606        11.4399        12.7744        18.8044        57.1567        71.1270         1.8432        63.1823         2.9291        13.5608        15.4939        14.2722        66.6974         4.3132         1.6148         0.0244         2.5532     
 3174.5000        77.9960        11.4370        12.7744        20.9231        60.9825        78.3428         2.0912        71.2276         2.9731        12.5289        14.1739        13.1845        66.9052         4.4932         1.4400         0.0242         2.5472     
 3175.0000        80.6199        11.4344        12.7744        21.9785        66.0662        84.6732         2.2993        77.5599         3.0105        11.8985        13.2809        12.5588        67.2484         4.0808         1.4232         0.0214         2.5418     
 3175.5000        82.5292        11.4327        12.7744        22.0319        69.8245        87.5384         2.4233        80.2522         3.0228        11.6580        13.0266        12.3444        67.6111         3.6766         1.4629         0.0203         2.5359     
 3176.0000        83.2789        11.4325        12.7744        21.5460        71.4393        86.4139         2.3398        78.5262         3.0292        11.4169        12.9147        12.0962        67.8341         3.4267         1.5580         0.0240         2.5269     
 3176.5000        82.9651        11.4323        12.7744        20.6793        70.5417        82.4077         2.0631        73.0455         3.0384        10.8522        12.2479        11.4878        67.8688         3.1178         1.7577         0.0282         2.5133     
 3177.0000        82.1175        11.4273        12.7744        19.6675        66.9399        76.3617         1.9075        67.9882         3.0513        10.0879        10.0600        10.6644        67.8257         2.8150         1.5583         0.0313         2.4943     
 3177.5000        81.3293        11.4197        12.7744        19.1239        62.2858        69.3571         1.9293        64.5508         3.0614         9.4326         7.8643         9.9226        67.8170         2.4921         0.9427         0.0317         2.4721     
 3178.0000        80.9038        11.4160        12.7744        19.1553        57.8356        63.7563         1.9789        62.3911         3.0663         9.0651         6.8030         9.4372        67.8911         2.5274         0.2996         0.0293         2.4551     
 3178.5000        80.8306        11.4157        12.7744        18.9596        54.2419        62.0870         1.9453        61.7511         3.0877         9.0511         6.5742         9.3083        68.1489         2.9976         0.2934         0.0276         2.4492     
 3179.0000        80.9868        11.4155        12.7744        18.3506        53.0365        63.9809         1.8596        61.1633         3.1267         9.3654         6.7552         9.5160        68.6444         3.1174         0.5749         0.0308         2.4532     
 3179.5000        81.2363        11.4173        12.7744        18.1438        54.1311        67.8424         1.8648        61.4295         3.1332         9.8251         7.4283         9.8383        69.1681         2.6693         1.2880         0.0373         2.4647     
