~Version Information Section
VERS.          2.0                                     : CWLS LOG ASCII Standard
WRAP.          NO                                      : One line per depth step
CREA.          27/11/15                                : LAS Creation Date
~Well Information Section
STRT.ft        2700.0000                               : Start Depth
STOP.ft        3300.0000                               : Stop Depth
STEP.ft        0.5000                                  : Step
NULL.          -999.2500                               : Null Value
COMP.          TEXACO                                  : Company
WELL.          13/22a-3                                : Well
FLD .          CAPTAIN                                 : Field
LOC .          MORAY FIRTH                             : Location
LOC1.          X= 575615.47 Y= 6462274.775             : Location (UTM)
CTRY.          UK                                      : Country
PROV.          UKCS                                    : Province
UWI .          10446                                   : UWI Number
API .                                                  : API Number
SECT.                                                  : Section
TOWN.                                                  : Township
RNGE.                                                  : Range
PDAT.          MSL                                     : Perm Datum
EPD .ft        0.00                                    : Elevation
LMF .          RKB                                     : Log Measured From
DMF .          RKB                                     : Drill Measured From
APD .ft        83.00                                   : Above Perm Datum
EKB .ft        83.00                                   : Elev-Kelly Bushing
EDF .          -                                       : Elev-Drill Floor
EGL .ft        -367.00                                 : Elev-Ground Level (Water Depth)
TDD .ft        3400.00                                 : Total Depth (Driller)
SRVC.          ATLAS WIRELINE                          : Service Company
LATI.          58 17 37.11 N                           : Latitude
LONG.          01 42 36.68 W                           : Longitude
DATE.          09-27-DEC-1989                          : Logging Date
PROJ.          UKCS                                    : Project
SET .          COMP WIRE                               : Set
~Curve Information Section
DEPTH.ft                                               : Depth Curve
AC.us/ft                                               : Acoustic Travel Time
CAL.in                                                 : DLL Caliper
CALI.in                                                : ZDL Caliper
CNC.%                                                  : Compensated Neutron Porosity
GR.gAPI                                                : DLL Gamma Ray
GRS.gAPI                                               : ZDL Gamma Ray
K.                                                     : Potassium
KTH.gAPI                                               : Uranium Stripped Gamma Ray
PE.B/e                                                 : Photo-electric
RD.ohmm                                                : Deep Laterolog Resistivity
RMLL.ohmm                                              : Microlaterolog Resistivity
RS.ohmm                                                : Shallow Laterolog Resistivity
SP.mV                                                  : Spontaneous Potential
TH.ppm                                                 : Thorium
U.ppm                                                  : Uranium
ZCOR.g/cc                                              : ZDL Density Correction
ZDEN.g/cc                                              : ZDL Bulk Density
~ASCII Log Data Section
# ...
 2895.0000        89.0237        11.4198        13.0935        25.6032        74.9855        90.1932         2.3209        81.2838         3.4519         8.9070        11.1074        10.3720        65.4475         4.2405         1.7220         0.0222         2.5533     
 2895.5000        91.6157        11.4211        13.0935        27.1431        75.1783        90.8828         2.4049        82.5258         3.5078         8.4519         9.8591         9.8782        65.3400         3.5798         1.6166         0.0331         2.5342     
 2896.0000        93.6173        11.4238        13.0935        28.3276        76.2336        91.0969         2.4358        81.5902         3.6200         8.2121         8.3359         9.6288        64.9867         3.1969         1.8647         0.0654         2.5147     
 2896.5000        94.7670        11.4254        13.0935        27.7569        77.3964        92.3169         2.4045        82.0571         3.7212         8.1900         7.4826         9.6085        64.6940         3.6609         1.9997         0.0847         2.4994     
 2897.0000        95.2476        11.4221        13.0935        28.2032        78.9231        94.6627         2.2365        83.2218         3.7173         8.3840         8.1421         9.8266        64.6974         4.6287         2.1101         0.0645         2.5035     
 2897.5000        95.4470        11.4169        13.0935        27.9396        80.7424        96.7664         2.0527        81.6213         3.6779         8.7064         9.8783        10.2009        64.9691         4.6873         2.6455         0.0329         2.5209     
 2898.0000        95.5925        11.4139        13.0935        27.6191        81.8818        98.6046         2.0681        80.7077         3.6669         9.0491        10.4500        10.6035        65.2627         4.1988         3.1403         0.0249         2.5303     
 2898.5000        95.2992        11.4130        13.0935        27.9761        82.9425       100.6409         2.1678        82.2620         3.6584         9.2715        10.5664        10.8574        65.3533         4.5368         3.3283         0.0275         2.5211     
 2899.0000        94.2352        11.4129        13.0935        29.1708        84.7791       103.8445         2.0802        81.8210         3.6640         9.1978        11.7565        10.7626        65.2683         5.5714         3.9744         0.0325         2.4998     
 2899.5000        93.4048        11.4133        13.0935        30.8138        87.6098       106.5559         1.9142        79.3225         3.7105         8.8101        13.4421        10.3085        65.1838         6.0070         4.7817         0.0426         2.4789     
 2900.0000        93.9896        11.4141        13.0935        32.1492        92.0066       107.3409         1.9560        80.6631         3.7850         8.3661        10.2764         9.7731        65.1246         5.6023         4.6384         0.0518         2.4672     
 2900.5000        95.6378        11.4179        13.0953        32.5201        96.9225       109.3037         2.2684        86.4779         3.7250         8.2421         6.6124         9.5686        65.0126         5.0339         4.1437         0.0479         2.4656     
 2901.0000        97.2411        11.4268        13.0826        31.7666       100.9834       115.4483         2.5789        92.0415         3.5648         8.6400         5.7322         9.9304        64.8742         4.8009         4.4481         0.0466         2.4722     
 2901.5000        97.5686        11.4353        13.0585        30.0959       104.1732       121.7712         2.5568        93.5887         3.4524         9.4926         7.0768        10.8026        64.8125         4.6538         5.2098         0.0538         2.4860     
 2902.0000        95.8045        11.4371        13.0826        28.1122       105.9914       124.5087         2.3522        92.9499         3.3978        10.6033        10.3121        11.9802        64.8628         4.7882         5.4704         0.0499         2.5062     
 2902.5000        92.7257        11.4359        13.0953        26.5492       105.8828       124.9232         2.2538        93.1613         3.3533        11.7513        12.5733        13.2059        64.9521         5.1969         5.3435         0.0385         2.5284     
 2903.0000        89.8546        11.4359        13.0935        25.3722       104.2826       123.0082         2.2817        92.3200         3.3341        12.7277        12.6995        14.2327        64.9894         5.1222         5.2565         0.0400         2.5465     
 2903.5000        87.5895        11.4365        13.0935        24.2206       100.9714       118.2285         2.3281        89.2333         3.3663        13.4762        12.9396        15.0230        64.9627         4.4252         5.1423         0.0391         2.5588     
 2904.0000        85.3817        11.4365        13.0935        23.1420        95.9666       113.5271         2.3423        87.3644         3.4613        13.8588        15.4628        15.4971        64.9304         3.9864         4.7141         0.0285         2.5676     
 2904.5000        83.4426        11.4348        13.0935        22.4744        90.7718       109.7841         2.2863        87.6001         3.5635        13.5531        19.3841        15.2954        64.9382         4.2317         3.9245         0.0254         2.5739     
 2905.0000        82.5400        11.4337        13.0935        22.4515        87.1261       105.0369         2.2951        87.7169         3.6495        12.7965        19.5209        14.5840        64.9897         4.2934         3.0753         0.0304         2.5778     
 2905.5000        82.8540        11.4353        13.0935        22.8320        86.0177        99.5530         2.4055        86.5234         3.7002        12.0872        16.5286        13.8787        65.0883         4.3015         2.4466         0.0339         2.5818     
 2906.0000        83.7422        11.4369        13.0935        23.3325        85.0514        96.1218         2.3871        85.4531         3.7097        11.5498        14.5371        13.3370        65.2317         5.0947         2.0528         0.0340         2.5870     
 2906.5000        84.7642        11.4355        13.0935        24.0337        81.8898        94.9430         2.1315        82.8513         3.6644        11.1662        14.3248        12.9674        65.3975         5.7120         2.2083         0.0287         2.5895     
 2907.0000        85.7197        11.4349        13.0935        24.9073        78.3944        95.2957         1.9356        78.5138         3.5545        10.9139        14.4173        12.7503        65.4992         4.7463         2.9006         0.0218         2.5869     
 2907.5000        86.5609        11.4370        13.0935        25.5591        77.2034        96.3108         2.0680        77.3275         3.4677        10.7040        13.3114        12.5555        65.4295         3.3412         3.3951         0.0199         2.5836     
 2908.0000        87.3842        11.4377        13.0935        25.7482        77.2581        97.0826         2.4773        81.7498         3.4431        10.4404        12.1664        12.2563        65.2339         3.0203         3.0360         0.0215         2.5834     
 2908.5000        88.3209        11.4358        13.0935        25.8189        78.4740        97.7747         2.8036        86.8472         3.4257        10.1053        12.1120        11.8428        65.0659         3.4333         2.3057         0.0217         2.5838     
 2909.0000        89.5002        11.4337        13.0935        26.1373        81.5491       101.4572         2.8253        91.4777         3.4026         9.9277        12.5153        11.5635        64.9888         4.0252         2.0384         0.0208         2.5818     
 2909.5000        90.3365        11.4333        13.0935        25.8034        85.9587       109.9817         2.5734        94.4388         3.3788        10.3138        11.7890        11.8568        64.9722         4.4721         2.8523         0.0224         2.5775     
