~Version Information Section
VERS.          2.0                                     : CWLS LOG ASCII Standard
WRAP.          NO                                      : One line per depth step
CREA.          27/11/15                                : LAS Creation Date
~Well Information Section
STRT.ft        2700.0000                               : Start Depth
STOP.ft        3300.0000                               : Stop Depth
STEP.ft        0.5000                                  : Step
NULL.          -999.2500                               : Null Value
COMP.          TEXACO                                  : Company
WELL.          13/22a-3                                : Well
FLD .          CAPTAIN                                 : Field
LOC .          MORAY FIRTH                             : Location
LOC1.          X= 575615.47 Y= 6462274.775             : Location (UTM)
CTRY.          UK                                      : Country
PROV.          UKCS                                    : Province
UWI .          10446                                   : UWI Number
API .                                                  : API Number
SECT.                                                  : Section
TOWN.                                                  : Township
RNGE.                                                  : Range
PDAT.          MSL                                     : Perm Datum
EPD .ft        0.00                                    : Elevation
LMF .          RKB                                     : Log Measured From
DMF .          RKB                                     : Drill Measured From
APD .ft        83.00                                   : Above Perm Datum
EKB .ft        83.00                                   : Elev-Kelly Bushing
EDF .          -                                       : Elev-Drill Floor
EGL .ft        -367.00                                 : Elev-Ground Level (Water Depth)
TDD .ft        3400.00                                 : Total Depth (Driller)
SRVC.          ATLAS WIRELINE                          : Service Company
LATI.          58 17 37.11 N                           : Latitude
LONG.          01 42 36.68 W                           : Longitude
DATE.          09-27-DEC-1989                          : Logging Date
PROJ.          UKCS                                    : Project
SET .          COMP WIRE                               : Set
~Curve Information Section
DEPTH.ft                                               : Depth Curve
AC.us/ft                                               : Acoustic Travel Time
CAL.in                                                 : DLL Caliper
CALI.in                                                : ZDL Caliper
CNC.%                                                  : Compensated Neutron Porosity
GR.gAPI                                                : DLL Gamma Ray
GRS.gAPI                                               : ZDL Gamma Ray
K.                                                     : Potassium
KTH.gAPI                                               : Uranium Stripped Gamma Ray
PE.B/e                                                 : Photo-electric
RD.ohmm                                                : Deep Laterolog Resistivity
RMLL.ohmm                                              : Microlaterolog Resistivity
RS.ohmm                                                : Shallow Laterolog Resistivity
SP.mV                                                  : Spontaneous Potential
TH.ppm                                                 : Thorium
U.ppm                                                  : Uranium
ZCOR.g/cc                                              : ZDL Density Correction
ZDEN.g/cc                                              : ZDL Bulk Density
~ASCII Log Data Section
# ...
 3135.0000       101.2273        11.4993        13.0935        31.9308        79.8210        98.1057         2.7891        86.3152         3.3414         6.3287         6.7022         7.1447        65.4381         2.2003         2.4260         0.0401         2.5273     
 3135.5000       101.6260        11.4997        13.0935        32.1281        81.4694        98.0731         2.8668        86.8141         3.3971         6.2652         7.1287         7.0506        65.4790         2.7789         2.3934         0.0351         2.5315     
 3136.0000       102.3039        11.5024        13.0917        32.5769        83.3481        99.5697         2.9177        88.6848         3.3855         6.2824         7.5640         7.0380        65.4687         3.9881         2.3604         0.0318         2.5369     
 3136.5000       102.3629        11.5025        13.1043        32.8812        85.6935       102.4191         2.9511        91.6443         3.3933         6.4735         7.5111         7.2046        65.5672         4.8051         2.3220         0.0341         2.5437     
 3137.0000       100.7721        11.5005        13.1285        32.1590        86.2781       103.2155         2.8859        92.4991         3.3688         6.8729         7.6048         7.5941        65.7214         4.8793         2.2456         0.0356         2.5499     
 3137.5000        97.9581        11.5009        13.1043        30.8109        84.2668       100.7943         2.7009        89.7399         3.2884         7.4121         8.4254         8.1450        65.8232         4.5520         2.2339         0.0303         2.5543     
 3138.0000        95.1987        11.5037        13.0899        30.1658        80.7882        97.3000         2.5491        86.6270         3.3043         7.7658         9.4222         8.5143        65.8785         4.0914         2.0990         0.0256         2.5573     
 3138.5000        93.7460        11.5049        13.1043        30.6734        77.3806        95.2374         2.4984        85.0316         3.3239         7.5746         9.6547         8.2806        65.9468         3.6184         1.9859         0.0279         2.5574     
 3139.0000        94.3642        11.5037        13.1285        31.6760        76.6702        95.3915         2.5263        86.0024         3.3200         7.0388         9.1379         7.6291        66.0721         3.4873         1.8193         0.0302         2.5521     
 3139.5000        96.5440        11.5014        13.1043        32.5451        78.8726        97.5230         2.6826        89.9631         3.3200         6.6080         8.3126         7.0884        66.3116         3.8851         1.4929         0.0273         2.5436     
 3140.0000        98.5521        11.4998        13.0917        32.0754        80.7721       100.1124         2.8551        93.0130         3.3193         6.4535         7.6200         6.8678        66.6160         4.2076         1.4453         0.0244         2.5377     
 3140.5000        98.2284        11.4989        13.0935        31.2466        80.2171       100.6412         2.8857        90.8150         3.3144         6.6018         7.6795         6.9833        66.8797         3.7948         2.0517         0.0249         2.5359     
 3141.0000        92.9505        11.4992        13.0935        29.4290        79.0078        97.6885         2.7059        85.1711         3.2937         7.0858         8.3491         7.4551        67.0767         3.4899         2.6093         0.0292         2.5368     
 3141.5000        83.4459        11.5003        13.0935        25.7967        78.0054        93.2594         2.4043        80.8718         3.2223         7.8106         8.7541         8.1822        67.2442         4.0043         2.4700         0.0364         2.5417     
 3142.0000        75.6416        11.5003        13.0935        22.7302        75.8627        89.4057         2.1452        78.2393         3.1619         8.4657         9.0681         8.8402        67.3622         4.3430         2.0958         0.0422         2.5504     
 3142.5000        73.8346        11.4992        13.0939        20.4272        72.0874        85.8037         2.0379        74.5303         3.1100         8.7488        10.3238         9.1299        67.4602         3.5939         2.0790         0.0439         2.5570     
 3143.0000        75.2819        11.4988        13.0927        18.7495        68.5239        82.8499         1.9979        71.1091         3.0338         8.6216        11.7113         9.0125        67.5860         2.5258         2.1612         0.0457         2.5549     
 3143.5000        76.5863        11.4985        13.1209        18.5345        67.3007        82.6203         1.9830        70.6991         2.9910         8.2779        10.1687         8.6725        67.7597         2.0732         2.1624         0.0503         2.5424     
 3144.0000        78.8071        11.4973        13.1197        20.3439        70.3560        85.5900         2.0389        73.0491         2.9983         7.9577         7.5867         8.3611        67.9870         2.5095         2.2887         0.0535         2.5244     
 3144.5000        83.2581        11.4959        13.1197        23.0947        76.1095        90.4547         2.2317        77.2184         3.0411         7.7458         5.9116         8.1735        68.2508         2.9974         2.5179         0.0557         2.5087     
 3145.0000        88.3248        11.4921        13.1213        25.3609        81.1112        95.7371         2.5378        83.4299         3.0890         7.6307         5.0851         8.0914        68.4276         3.3595         2.4612         0.0568         2.4996     
 3145.5000        91.5076        11.4845        13.0962        26.3026        84.3530       100.0083         2.7508        88.8697         3.1043         7.6539         4.4718         8.1448        68.3609         3.9995         2.2841         0.0550         2.4969     
 3146.0000        91.5135        11.4726        13.0949        25.6386        87.8262       102.3337         2.6532        89.3664         3.1161         7.8691         4.0682         8.3938        67.9937         4.5580         2.5897         0.0581         2.4984     
 3146.5000        89.3735        11.4561        12.9085        24.8278        92.6418       103.3015         2.3835        86.8405         3.1197         8.2641         4.0204         8.8381        67.4969         4.6696         3.0814         0.0733         2.5003     
 3147.0000        87.1179        11.4403        12.7671        25.0368        98.3118       106.3892         2.1530        85.2059         3.1562         8.7552         3.8157         9.4028        67.2290         4.5618         3.6836         0.0842         2.4970     
 3147.5000        85.9014        11.4336        12.7760        26.3115       103.8185       114.2229         1.8766        82.7746         3.2793         9.1768         3.2143         9.9101        67.4360         4.6177         5.0007         0.0765         2.4908     
 3148.0000        85.3019        11.4407        12.7744        27.8701       106.7419       123.5854         1.5357        77.5555         3.4536         9.3303         2.9751        10.1478        67.9767         5.0169         6.6768         0.0674         2.4907     
 3148.5000        84.6192        11.4585        12.7726        28.9006       107.3902       128.1493         1.4182        75.9735         3.6293         9.1900         3.4493        10.0658        68.4521         5.3268         7.3193         0.0747         2.5005     
 3149.0000        83.4793        11.4757        12.7853        29.3526       107.0826       126.1502         1.7050        81.6574         3.7599         8.9759         4.1340         9.8725        68.6155         4.8745         6.6591         0.0899         2.5177     
 3149.5000        82.4843        11.4832        12.8095        29.7192       106.2579       121.3321         2.1512        88.1296         3.7950         8.9408         4.0307         9.8356        68.5139         4.1926         5.5243         0.0907         2.5387     
