~Version Information Section
VERS.          2.0                                     : CWLS LOG ASCII Standard
WRAP.          NO                                      : One line per depth step
CREA.          27/11/15                                : LAS Creation Date
~Well Information Section
STRT.ft        2700.0000                               : Start Depth
STOP.ft        3300.0000                               : Stop Depth
STEP.ft        0.5000                                  : Step
NULL.          -999.2500                               : Null Value
COMP.          TEXACO                                  : Company
WELL.          13/22a-3                                : Well
FLD .          CAPTAIN                                 : Field
LOC .          MORAY FIRTH                             : Location
LOC1.          X= 575615.47 Y= 6462274.775             : Location (UTM)
CTRY.          UK                                      : Country
PROV.          UKCS                                    : Province
UWI .          10446                                   : UWI Number
API .                                                  : API Number
SECT.                                                  : Section
TOWN.                                                  : Township
RNGE.                                                  : Range
PDAT.          MSL                                     : Perm Datum
EPD .ft        0.00                                    : Elevation
LMF .          RKB                                     : Log Measured From
DMF .          RKB                                     : Drill Measured From
APD .ft        83.00                                   : Above Perm Datum
EKB .ft        83.00                                   : Elev-Kelly Bushing
EDF .          -                                       : Elev-Drill Floor
EGL .ft        -367.00                                 : Elev-Ground Level (Water Depth)
TDD .ft        3400.00                                 : Total Depth (Driller)
SRVC.          ATLAS WIRELINE                          : Service Company
LATI.          58 17 37.11 N                           : Latitude
LONG.          01 42 36.68 W                           : Longitude
DATE.          09-27-DEC-1989                          : Logging Date
PROJ.          UKCS                                    : Project
SET .          COMP WIRE                               : Set
~Curve Information Section
DEPTH.ft                                               : Depth Curve
AC.us/ft                                               : Acoustic Travel Time
CAL.in                                                 : DLL Caliper
CALI.in                                                : ZDL Caliper
CNC.%                                                  : Compensated Neutron Porosity
GR.gAPI                                                : DLL Gamma Ray
GRS.gAPI                                               : ZDL Gamma Ray
K.                                                     : Potassium
KTH.gAPI                                               : Uranium Stripped Gamma Ray
PE.B/e                                                 : Photo-electric
RD.ohmm                                                : Deep Laterolog Resistivity
RMLL.ohmm                                              : Microlaterolog Resistivity
RS.ohmm                                                : Shallow Laterolog Resistivity
SP.mV                                                  : Spontaneous Potential
TH.ppm                                                 : Thorium
U.ppm                                                  : Uranium
ZCOR.g/cc                                              : ZDL Density Correction
ZDEN.g/cc                                              : ZDL Bulk Density
~ASCII Log Data Section
# ...
 3045.0000        78.9551        11.4551        13.0935        13.4990        63.3817        72.6420         1.7983        64.6133         3.1964        17.8946         4.7443        17.8664        67.0072         3.3557         1.5159         0.0601         2.5524     
 3045.5000        73.9603        11.4307        13.0935        11.0251        56.3167        64.6842         1.6884        57.2141         3.0085        22.9579         6.1700        22.4293        67.1166         2.8252         1.4792         0.0529         2.5512     
 3046.0000        69.7671        11.4273        13.0935         9.4341        50.4576        59.7032         1.5823        51.9071         2.8788        28.5141        11.3315        27.4638        67.1243         2.2666         1.5724         0.0500         2.5522     
 3046.5000        67.3105        11.4308        13.0935         8.2784        47.0725        56.9040         1.4334        48.7424         2.8417        32.6564        20.9665        31.1702        67.1628         2.3084         1.6046         0.0442         2.5576     
 3047.0000        66.3437        11.4318        13.0935         7.4295        44.8859        54.1466         1.2441        45.0901         2.8125        34.2775        33.2573        32.6900        67.2814         2.3078         1.6942         0.0392         2.5653     
 3047.5000        65.7896        11.4307        13.0953         7.2549        42.9687        51.6755         1.1889        41.7866         2.7773        32.3945        44.2550        31.2748        67.3459         1.6417         1.8560         0.0383         2.5683     
 3048.0000        65.2563        11.4310        13.0826         8.0775        42.4171        50.2343         1.2769        40.8645         2.7747        27.3268        42.1682        26.9778        67.2518         0.8805         1.8531         0.0410         2.5625     
 3048.5000        65.3045        11.4327        13.0585         9.7898        41.7968        50.2064         1.3147        41.2455         2.8952        21.1953        34.4342        21.4602        67.0634         0.7337         1.7934         0.0473         2.5508     
 3049.0000        67.1730        11.4360        13.0826        12.4776        41.0554        53.9891         1.3600        43.9605         3.1342        16.1115        24.6798        16.7015        66.8614         1.3142         1.9968         0.0545         2.5371     
 3049.5000        72.0827        11.4467        13.0953        16.5939        45.5482        64.9318         1.7022        53.6259         3.3686        12.6382        14.9786        13.4090        66.6016         2.0154         2.3401         0.0555         2.5264     
 3050.0000        79.7591        11.4627        13.0935        22.1075        57.3596        81.8428         2.2607        69.5587         3.4931        10.4927        10.0414        11.3893        66.2483         2.5687         2.5959         0.0470         2.5247     
 3050.5000        87.8711        11.4739        13.0935        28.9309        71.1612        97.5557         2.6225        84.4435         3.5726         9.3171         8.4032        10.3093        65.8881         3.4612         2.6766         0.0345         2.5322     
 3051.0000        93.7999        11.4779        13.0935        34.6176        82.0985       106.1293         2.6927        93.0443         3.6996         8.8453         8.5481         9.9310        65.6506         4.7758         2.5555         0.0241         2.5434     
 3051.5000        96.6882        11.4805        13.0935        35.8577        87.8648       107.7594         2.7334        95.5949         3.7944         8.8435         9.3240        10.0533        65.5890         5.4228         2.3756         0.0200         2.5535     
 3052.0000        97.2908        11.4825        13.0935        34.9325        87.5834       106.0021         2.8032        94.4901         3.7498         9.1498         9.7937        10.5095        65.6977         5.0085         2.3064         0.0227         2.5601     
 3052.5000        96.6297        11.4826        13.0935        34.2455        84.8398       103.1019         2.8024        92.5442         3.6159         9.6580         9.9599        11.1677        65.8733         4.7652         2.1485         0.0285         2.5640     
 3053.0000        95.2723        11.4831        13.0935        33.4613        83.0783        99.3047         2.6422        90.0353         3.5048        10.0998        10.7039        11.7391        65.9294         5.2549         1.8584         0.0289         2.5675     
 3053.5000        93.7046        11.4841        13.0935        32.5879        81.1380        95.6201         2.3902        85.2238         3.4712         9.9898        12.2986        11.7080        65.7241         5.2009         2.0130         0.0231         2.5701     
 3054.0000        93.1449        11.4846        13.0935        33.0034        78.3017        95.7262         2.3033        82.6399         3.5312         9.2217        13.0264        10.9188        65.3871         4.4884         2.4861         0.0181         2.5680     
 3054.5000        94.5481        11.4844        13.0935        34.5957        77.7081       100.6184         2.5615        87.7003         3.6241         8.3502        11.4593         9.9503        65.1822         4.5390         2.5459         0.0201         2.5611     
 3055.0000        97.0301        11.4833        13.0935        35.3772        81.2061       105.9722         2.9273        94.9326         3.6242         7.8773         9.6998         9.3841        65.2750         4.9580         2.2867         0.0247         2.5546     
 3055.5000        98.6832        11.4805        13.0935        34.3069        85.7193       107.1884         3.0475        96.0362         3.5995         7.9494         8.9518         9.4165        65.6035         4.3628         2.3414         0.0262         2.5525     
 3056.0000        98.5861        11.4791        13.0935        32.2841        86.4439       104.9459         2.9079        91.3474         3.6035         8.4400         8.9794         9.9222        65.9057         3.7091         2.8379         0.0270         2.5541     
 3056.5000        97.0424        11.4790        13.0935        30.7979        83.8925       102.4340         2.7211        87.3542         3.6065         9.0618         9.3074        10.6020        65.8815         4.2775         3.1334         0.0293         2.5571     
 3057.0000        94.9236        11.4770        13.0935        30.1467        82.1208       101.5980         2.5914        87.5503         3.5946         9.5978         9.3511        11.2210        65.4940         4.8428         2.8213         0.0315         2.5604     
 3057.5000        92.8733        11.4751        13.0935        29.5853        82.2020       101.9670         2.3802        87.6189         3.6035        10.0498         9.0268        11.7352        65.0802         4.5352         2.6502         0.0322         2.5639     
 3058.0000        91.1752        11.4786        13.0935        28.5516        82.0180       101.3884         2.1019        83.0356         3.6149        10.5067         9.5546        12.1892        65.0277         3.8189         3.1428         0.0308         2.5673     
 3058.5000        90.0132        11.4842        13.0935        27.4027        81.2747       100.0145         2.0096        78.7430         3.5451        11.0012        11.8876        12.6619        65.3878         3.4794         3.6546         0.0258         2.5652     
 3059.0000        89.6739        11.4850        13.0935        27.1678        82.8603       100.7424         2.1901        79.5527         3.4398        11.5185        15.1714        13.1827        65.8940         3.5978         3.9072         0.0198         2.5519     
 3059.5000        90.3313        11.4819        13.0935        27.8343        88.2110       106.5907         2.4087        84.6406         3.3633        12.1201        16.1082        13.7600        66.3635         4.2478         4.2131         0.0206         2.5312     
