~Version Information Section
VERS.          2.0                                     : CWLS LOG ASCII Standard
WRAP.          NO                                      : One line per depth step
CREA.          27/11/15                                : LAS Creation Date
~Well Information Section
STRT.ft        2700.0000                               : Start Depth
STOP.ft        3300.0000                               : Stop Depth
STEP.ft        0.5000                                  : Step
NULL.          -999.2500                               : Null Value
COMP.          TEXACO                                  : Company
WELL.          13/22a-3                                : Well
FLD .          CAPTAIN                                 : Field
LOC .          MORAY FIRTH                             : Location
LOC1.          X= 575615.47 Y= 6462274.775             : Location (UTM)
CTRY.          UK                                      : Country
PROV.          UKCS                                    : Province
UWI .          10446                                   : UWI Number
API .                                                  : API Number
SECT.                                                  : Section
TOWN.                                                  : Township
RNGE.                                                  : Range
PDAT.          MSL                                     : Perm Datum
EPD .ft        0.00                                    : Elevation
LMF .          RKB                                     : Log Measured From
DMF .          RKB                                     : Drill Measured From
APD .ft        83.00                                   : Above Perm Datum
EKB .ft        83.00                                   : Elev-Kelly Bushing
EDF .          -                                       : Elev-Drill Floor
EGL .ft        -367.00                                 : Elev-Ground Level (Water Depth)
TDD .ft        3400.00                                 : Total Depth (Driller)
SRVC.          ATLAS WIRELINE                          : Service Company
LATI.          58 17 37.11 N                           : Latitude
LONG.          01 42 36.68 W                           : Longitude
DATE.          09-27-DEC-1989                          : Logging Date
PROJ.          UKCS                                    : Project
SET .          COMP WIRE                               : Set
~Curve Information Section
DEPTH.ft                                               : Depth Curve
AC.us/ft                                               : Acoustic Travel Time
CAL.in                                                 : DLL Caliper
CALI.in                                                : ZDL Caliper
CNC.%                                                  : Compensated Neutron Porosity
GR.gAPI                                                : DLL Gamma Ray
GRS.gAPI                                               : ZDL Gamma Ray
K.                                                     : Potassium
KTH.gAPI                                               : Uranium Stripped Gamma Ray
PE.B/e                                                 : Photo-electric
RD.ohmm                                                : Deep Laterolog Resistivity
RMLL.ohmm                                              : Microlaterolog Resistivity
RS.ohmm                                                : Shallow Laterolog Resistivity
SP.mV                                                  : Spontaneous Potential
TH.ppm                                                 : Thorium
U.ppm                                                  : Uranium
ZCOR.g/cc                                              : ZDL Density Correction
ZDEN.g/cc                                              : ZDL Bulk Density
~ASCII Log Data Section
# ...
 2745.0000        77.3692        11.5702        13.4125        16.7656        13.2086        13.7823         0.1685         7.5339         4.2782         8.8412        11.6476         9.2765        64.6838         0.1465         0.8944         0.0115         2.4731     
 2745.5000        80.3310        11.5717        13.4125        18.2822        14.3336        13.9351         0.1613         7.6164         4.1711         7.7699         9.1180         8.1699        64.2040         0.0712         0.8343         0.0093         2.4415     
 2746.0000        84.3257        11.5741        13.4125        20.7298        15.8483        15.2937         0.2547        11.4039         3.9909         7.2383         7.2705         7.5368        63.6859         0.3233         0.5694         0.0181         2.4081     
 2746.5000        86.5004        11.5757        13.4125        22.4460        16.5370        17.5588         0.3224        14.2028         3.8786         7.3431         6.5500         7.4997        63.4446         0.8315         0.5378         0.0284         2.3941     
 2747.0000        86.2788        11.5759        13.4125        22.5313        16.3637        19.1010         0.3411        15.2365         3.9232         7.7550         6.8917         7.7867        63.5971         1.2774         0.6498         0.0305         2.4040     
 2747.5000        85.2126        11.5746        13.4125        21.9788        16.1924        19.0283         0.4483        16.6319         4.0722         8.1092         7.0641         8.0657        63.9741         1.2774         0.4628         0.0258         2.4227     
 2748.0000        84.1545        11.5737        13.4125        21.7573        16.2076        19.2812         0.5433        18.1294         4.1552         8.2883         6.2733         8.2051        64.2835         0.9031         0.2980         0.0295         2.4352     
 2748.5000        83.2288        11.5740        13.4125        21.3402        16.5707        20.7086         0.5037        19.2631         4.1164         8.5434         6.1335         8.4509        64.3531         0.7934         0.2986         0.0390         2.4459     
 2749.0000        81.8522        11.5733        13.4125        20.1313        16.9616        21.2821         0.4395        19.5122         4.0844         9.1255         7.5933         9.0612        64.1742         1.1715         0.2995         0.0382         2.4656     
 2749.5000        79.2818        11.5731        13.4125        18.4902        16.2659        19.2341         0.4251        18.2148         4.1047         9.5227        10.4969         9.5666        63.8359         1.3170         0.2963         0.0285         2.4912     
 2750.0000        77.0526        11.5744        13.4125        17.4081        14.6584        15.9846         0.4034        15.7275         4.1886         8.9339        13.1340         9.1170        63.5516         0.9443         0.2926         0.0211         2.5099     
 2750.5000        77.1415        11.5757        13.4129        17.6032        13.9428        14.1998         0.3525        14.1998         4.2679         7.7987        11.3846         8.0667        63.5649         0.6167         0.2912         0.0131         2.5127     
 2751.0000        79.1492        11.5772        13.4103        18.8683        15.2527        15.3543         0.3491        15.3543         4.3284         6.7695         8.7960         7.0972        63.8243         0.7225         0.2910         0.0136         2.5028     
 2751.5000        81.6058        11.5784        13.4500        19.8162        17.2113        18.2621         0.4317        18.2621         4.3594         5.7781         8.3732         6.1447        63.8850         1.0248         0.2910         0.0235         2.4892     
 2752.0000        83.7894        11.5764        13.4993        20.1936        17.7073        20.3188         0.5296        19.9627         4.3663         4.4823         8.5549         4.8584        63.5771         1.0232         0.2932         0.0288         2.4850     
 2752.5000        87.7986        11.5853        13.4875        21.2600        17.3437        20.8892         0.5345        19.4639         4.3717         3.1302         7.1419         3.4608        63.3734         0.7343         0.2988         0.0184         2.4741     
 2753.0000        97.3392        11.6310        13.4949        24.6445        19.4057        22.4166         0.5092        19.8525         4.3915         2.1639         3.4786         2.4463        63.4700         0.7984         0.4386        -0.0110         2.4149     
 2753.5000       112.2495        11.6982        13.5213        31.2240        25.4225        27.9295         0.5981        25.7579         4.4419         1.6119         1.6144         1.8607        63.4370         1.8300         0.3653        -0.0178         2.3077     
 2754.0000       127.7214        11.7443        13.6057        39.0642        33.6370        37.5535         0.8457        37.1047         4.3879         1.3500         1.0320         1.5843        63.2276         3.6812         0.2936         0.0222         2.2163     
 2754.5000       139.0314        11.7626        13.6284        48.6309        41.1729        48.0505         1.1392        48.0505         4.1379         1.2762         0.8941         1.5066        63.2039         5.3004         0.2876         0.0698         2.1701     
 2755.0000       144.1104        11.7944        13.6256        58.1956        46.4325        55.5049         1.3322        55.5049         3.8696         1.3139         0.8967         1.5355        63.2029         5.9487         0.2882         0.0890         2.1539     
 2755.5000       144.0515        11.8492        13.6230        61.5309        49.3251        59.2307         1.3571        59.2307         3.7865         1.3932         0.9164         1.6049        62.9479         6.0022         0.2907         0.0969         2.1639     
 2756.0000       142.0836        11.8622        13.6605        61.3955        50.8899        61.0270         1.3497        61.0270         3.8303         1.4665         0.9621         1.6899        62.6863         6.0404         0.2909         0.1066         2.1829     
 2756.5000       140.2816        11.7899        13.7279        61.4324        51.8514        62.1994         1.4190        61.8542         3.8265         1.5189         1.0574         1.7598        62.6108         5.8321         0.2931         0.1077         2.1999     
 2757.0000       138.9649        11.6886        13.6796        61.4169        51.8619        62.7055         1.4742        61.3669         3.7212         1.5499         1.1328         1.7813        62.6462         5.4349         0.2983         0.0998         2.2119     
 2757.5000       138.1549        11.6309        13.4947        60.5673        51.7941        62.6007         1.4403        59.9278         3.6650         1.5645         1.1280         1.7635        62.7130         4.9285         0.4745         0.0957         2.2130     
 2758.0000       138.2586        11.6057        13.3706        60.2029        52.8889        61.7732         1.3722        58.1993         3.6670         1.5723         1.0656         1.7395        62.7020         4.5781         0.6196         0.0944         2.1966     
 2758.5000       139.6767        11.5553        13.3178        62.0785        53.5665        61.2410         1.3092        57.2595         3.6868         1.5944         0.9947         1.7307        62.6684         4.8475         0.6822         0.0940         2.1701     
 2759.0000       142.1493        11.4765        13.2691        64.5751        52.4580        62.4588         1.2415        57.4474         3.8153         1.6536         0.9796         1.7583        62.8347         5.3833         0.8381         0.0992         2.1454     
 2759.5000       144.7989        11.4338        13.2085        65.2721        51.9697        65.3920         1.2496        58.3906         3.9584         1.7454         1.0337         1.8150        63.0363         5.1326         1.1463         0.0968         2.1273     
