~Version Information Section
VERS.          2.0                                     : CWLS LOG ASCII Standard
WRAP.          NO                                      : One line per depth step
CREA.          27/11/15                                : LAS Creation Date
~Well Information Section
STRT.ft        2700.0000                               : Start Depth
STOP.ft        3300.0000                               : Stop Depth
STEP.ft        0.5000                                  : Step
NULL.          -999.2500                               : Null Value
COMP.          TEXACO                                  : Company
WELL.          13/22a-3                                : Well
FLD .          CAPTAIN                                 : Field
LOC .          MORAY FIRTH                             : Location
LOC1.          X= 575615.47 Y= 6462274.775             : Location (UTM)
CTRY.          UK                                      : Country
PROV.          UKCS                                    : Province
UWI .          10446                                   : UWI Number
API .                                                  : API Number
SECT.                                                  : Section
TOWN.                                                  : Township
RNGE.                                                  : Range
PDAT.          MSL                                     : Perm Datum
EPD .ft        0.00                                    : Elevation
LMF .          RKB                                     : Log Measured From
DMF .          RKB                                     : Drill Measured From
APD .ft        83.00                                   : Above Perm Datum
EKB .ft        83.00                                   : Elev-Kelly Bushing
EDF .          -                                       : Elev-Drill Floor
EGL .ft        -367.00                                 : Elev-Ground Level (Water Depth)
TDD .ft        3400.00                                 : Total Depth (Driller)
SRVC.          ATLAS WIRELINE                          : Service Company
LATI.          58 17 37.11 N                           : Latitude
LONG.          01 42 36.68 W                           : Longitude
DATE.          09-27-DEC-1989                          : Logging Date
PROJ.          UKCS                                    : Project
SET .          COMP WIRE                               : Set
~Curve Information Section
DEPTH.ft                                               : Depth Curve
AC.us/ft                                               : Acoustic Travel Time
CAL.in                                                 : DLL Caliper
CALI.in                                                : ZDL Caliper
CNC.%                                                  : Compensated Neutron Porosity
GR.gAPI                                                : DLL Gamma Ray
GRS.gAPI                                               : ZDL Gamma Ray
K.                                                     : Potassium
KTH.gAPI                                               : Uranium Stripped Gamma Ray
PE.B/e                                                 : Photo-electric
RD.ohmm                                                : Deep Laterolog Resistivity
RMLL.ohmm                                              : Microlaterolog Resistivity
RS.ohmm                                                : Shallow Laterolog Resistivity
SP.mV                                                  : Spontaneous Potential
TH.ppm                                                 : Thorium
U.ppm                                                  : Uranium
ZCOR.g/cc                                              : ZDL Density Correction
ZDEN.g/cc                                              : ZDL Bulk Density
~ASCII Log Data Section
 2700.0000        76.8439        11.4859        13.3062        16.7856        17.6647        21.5775         0.5103        18.5642         4.1657        13.4886        12.2221        15.2644        63.6153         1.0900         0.5706         0.0277         2.5004     
 2700.5000        72.0402        11.4843        13.3062        14.4343        14.7331        17.4066         0.3875        15.2776         4.2084        17.0752        27.1281        19.2537        63.5670         0.7791         0.3693         0.0249         2.5109     
 2701.0000        68.0593        11.4847        13.3062        12.3075        12.5427        13.2132         0.3081        11.8253         4.3364        15.5724        44.8821        17.8867        63.3785         0.6285         0.2986         0.0199         2.5353     
 2701.5000        66.8403        11.4841        13.3062        11.3319        11.9493        11.1901         0.3304        11.0685         4.5382        12.1235        27.1495        14.1632        63.2773         0.8558         0.2920         0.0143         2.5603     
 2702.0000        68.3724        11.4825        13.3062        11.3976        12.7998        12.0589         0.3609        12.0589         4.7047         9.9862        16.5479        11.7363        63.3957         0.9057         0.2906         0.0135         2.5728     
 2702.5000        71.2319        11.4828        13.3062        12.0396        14.2795        14.7746         0.3870        13.7896         4.7422         9.1391        15.1850        10.7205        63.6190         0.6747         0.2967         0.0146         2.5715     
 2703.0000        73.6880        11.4859        13.3062        13.0064        15.1567        17.2303         0.4400        15.6704         4.6908         9.0425        15.1654        10.5912        63.7567         0.6049         0.2997         0.0133         2.5608     
 2703.5000        74.5755        11.4875        13.3062        14.1041        15.0136        18.3297         0.4688        17.1354         4.5661         9.0778        12.7680        10.6603        63.7922         0.6792         0.2976         0.0186         2.5435     
 2704.0000        74.4696        11.4864        13.3062        14.6630        14.7787        18.4386         0.3966        16.2383         4.4037         9.0199        12.6869        10.6121        63.8024         0.4861         0.3513         0.0317         2.5297     
 2704.5000        74.0826        11.4851        13.3062        14.3970        14.8348        17.7963         0.2760        12.7871         4.3359         9.1990        14.9748        10.7993        63.7097         0.1583         0.6794         0.0354         2.5322     
 2705.0000        73.0417        11.4846        13.3062        13.7079        14.5636        16.7629         0.2261        10.6616         4.3838         9.7801        14.2530        11.4253        63.4058         0.0235         0.7897         0.0318         2.5495     
 2705.5000        71.4372        11.4835        13.3062        12.6964        13.8636        15.8582         0.2894        12.0705         4.4660        10.6613        13.5375        12.3501        63.0147         0.1465         0.5684         0.0313         2.5671     
 2706.0000        70.2037        11.4814        13.3062        11.5794        13.2200        14.7006         0.3491        12.9073         4.5276        11.6479        16.6004        13.3703        62.7920         0.3396         0.3123         0.0285         2.5764     
 2706.5000        69.6496        11.4818        13.3062        11.2817        12.5919        13.1584         0.3251        12.1391         4.5701        12.1916        19.8255        13.9785        62.8493         0.3396         0.2964         0.0200         2.5768     
 2707.0000        69.7126        11.4845        13.3062        11.5647        12.0594        11.9998         0.2753        10.8956         4.6048        11.7864        16.8030        13.5775        63.0794         0.1465         0.2964         0.0156         2.5697     
 2707.5000        70.6411        11.4846        13.3062        12.5730        12.1823        11.7996         0.2680         9.8930         4.6316        10.9891        13.9643        12.6778        63.2984         0.0236         0.3151         0.0185         2.5599     
 2708.0000        72.3231        11.4813        13.3062        13.3849        12.8359        12.4870         0.2564         9.2866         4.5875        10.4007        12.3895        11.9728        63.4800         0.1464         0.5551         0.0205         2.5498     
 2708.5000        74.6872        11.4796        13.3062        13.7843        13.2933        13.5831         0.2313         9.4371         4.4667         9.9867        11.4045        11.4717        63.6495         0.3396         0.6737         0.0225         2.5399     
 2709.0000        77.4978        11.4792        13.3062        14.4213        13.3985        13.9433         0.2361        10.0335         4.3153         9.6083        11.3365        11.0419        63.7478         0.3396         0.6090         0.0264         2.5308     
 2709.5000        79.6726        11.4780        13.3062        15.1443        13.6616        13.4110         0.2671        10.4866         4.2410         9.3436        11.5594        10.7719        63.6843         0.1465         0.4674         0.0212         2.5149     
 2710.0000        80.1169        11.4785        13.3058        15.8434        14.1050        13.4543         0.2774        10.8447         4.3097         9.3593         9.5187        10.8261        63.5060         0.0118         0.4058         0.0083         2.4821     
 2710.5000        78.9140        11.4810        13.3069        16.4463        14.4780        14.7246         0.3256        12.3859         4.4104         9.6531         7.7951        11.1868        63.4158         0.0118         0.3736         0.0141         2.4522     
 2711.0000        77.0326        11.4834        13.2810        17.1066        14.5202        15.9199         0.4074        14.3896         4.4395        10.0136         8.3966        11.6277        63.6477         0.2059         0.2992         0.0393         2.4547     
 2711.5000        75.3400        11.4931        13.2683        17.7159        13.9564        15.5157         0.3994        15.0430         4.4563        10.1186        11.3545        11.7865        64.1637         0.6037         0.2937         0.0572         2.4810     
 2712.0000        74.5051        11.5146        13.2737        17.1228        13.2079        14.1385         0.2784        14.1385         4.5223         9.8762        13.3536        11.4984        64.6345         0.9192         0.2902         0.0577         2.5076     
 2712.5000        74.8600        11.5360        13.2841        16.8180        13.3334        13.4309         0.2154        13.3720         4.5792         9.7052        11.8053        11.1790        64.8437         1.0025         0.2915         0.0514         2.5103     
 2713.0000        75.8717        11.5473        13.2730        17.9746        14.0645        13.9048         0.2830        13.1636         4.5137        10.2052         9.7745        11.5241        64.8726         0.9310         0.2947         0.0494         2.4880     
 2713.5000        75.8331        11.5529        13.2953        18.5128        13.9044        14.3923         0.3746        13.4627         4.3430        11.7856         9.3029        12.9960        64.9158         0.7384         0.2964         0.0569         2.4674     
 2714.0000        73.7710        11.5553        13.3076        17.1134        12.5009        13.7693         0.3415        12.7322         4.2263        14.2392        11.8494        15.3927        65.0379         0.4110         0.2966         0.0647         2.4756     
 2714.5000        70.7787        11.5545        13.3087        15.1913        10.8120        12.2055         0.2305        11.0191         4.3127        15.7182        20.0121        17.0049        65.1489         0.1467         0.2959         0.0600         2.5128     
