~Version Information Section
VERS.          2.0                                     : CWLS LOG ASCII Standard
WRAP.          NO                                      : One line per depth step
CREA.          27/11/15                                : LAS Creation Date
~Well Information Section
STRT.ft        2700.0000                               : Start Depth
STOP.ft        3300.0000                               : Stop Depth
STEP.ft        0.5000                                  : Step
NULL.          -999.2500                               : Null Value
COMP.          TEXACO                                  : Company
WELL.          13/22a-3                                : Well
FLD .          CAPTAIN                                 : Field
LOC .          MORAY FIRTH                             : Location
LOC1.          X= 575615.47 Y= 6462274.775             : Location (UTM)
CTRY.          UK                                      : Country
PROV.          UKCS                                    : Province
UWI .          10446                                   : UWI Number
API .                                                  : API Number
SECT.                                                  : Section
TOWN.                                                  : Township
RNGE.                                                  : Range
PDAT.          MSL                                     : Perm Datum
EPD .ft        0.00                                    : Elevation
LMF .          RKB                                     : Log Measured From
DMF .          RKB                                     : Drill Measured From
APD .ft        83.00                                   : Above Perm Datum
EKB .ft        83.00                                   : Elev-Kelly Bushing
EDF .          -                                       : Elev-Drill Floor
EGL .ft        -367.00                                 : Elev-Ground Level (Water Depth)
TDD .ft        3400.00                                 : Total Depth (Driller)
SRVC.          ATLAS WIRELINE                          : Service Company
LATI.          58 17 37.11 N                           : Latitude
LONG.          01 42 36.68 W                           : Longitude
DATE.          09-27-DEC-1989                          : Logging Date
PROJ.          UKCS                                    : Project
SET .          COMP WIRE                               : Set
~Curve Information Section
DEPTH.ft                                               : Depth Curve
AC.us/ft                                               : Acoustic Travel Time
CAL.in                                                 : DLL Caliper
CALI.in                                                : ZDL Caliper
CNC.%                                                  : Compensated Neutron Porosity
GR.gAPI                                                : DLL Gamma Ray
GRS.gAPI                                               : ZDL Gamma Ray
K.                                                     : Potassium
KTH.gAPI                                               : Uranium Stripped Gamma Ray
PE.B/e                                                 : Photo-electric
RD.ohmm                                                : Deep Laterolog Resistivity
RMLL.ohmm                                              : Microlaterolog Resistivity
RS.ohmm                                                : Shallow Laterolog Resistivity
SP.mV                                                  : Spontaneous Potential
TH.ppm                                                 : Thorium
U.ppm                                                  : Uranium
ZCOR.g/cc                                              : ZDL Density Correction
ZDEN.g/cc                                              : ZDL Bulk Density
~ASCII Log Data Section
# ...
 2940.0000        85.5572        11.4803        13.1998        24.5404        92.4409       109.3264         2.0570        80.8599         3.6374        16.7278        16.4023        19.0253        65.7940         3.3386         4.8448         0.0237         2.5623     
 2940.5000        84.4335        11.4811        13.1998        24.5806        92.4480       108.7248         2.1196        85.3125         3.6406        17.0688        21.3382        19.4928        65.4282         5.0170         4.0588         0.0227         2.5662     
 2941.0000        83.6606        11.4815        13.1998        25.1057        89.8809       106.4424         2.0469        84.3081         3.6428        16.5234        23.9313        18.9470        65.3564         5.8068         3.8474         0.0226         2.5685     
 2941.5000        83.7242        11.4826        13.1998        25.4440        87.6868       104.4765         1.9253        80.6897         3.6443        15.6290        24.0227        17.9809        65.6706         5.2653         4.0411         0.0224         2.5695     
 2942.0000        84.2511        11.4846        13.1998        25.7356        87.8719       104.8409         2.0196        81.2891         3.6458        14.7193        21.2471        17.0079        66.0743         4.3393         4.0336         0.0230         2.5704     
 2942.5000        84.8361        11.4854        13.1998        26.1246        89.7691       106.5088         2.2677        85.3113         3.6470        13.9676        18.2218        16.2072        66.2654         3.9870         3.7991         0.0254         2.5712     
 2943.0000        85.4865        11.4847        13.1998        26.0764        91.2001       106.4302         2.3768        86.0296         3.6484        13.5060        14.3686        15.7448        66.1752         4.0172         3.7853         0.0285         2.5705     
 2943.5000        85.8689        11.4827        13.1998        26.1883        89.4402       104.2423         2.3066        82.8357         3.6534        13.0223        11.2851        15.2848        65.8237         3.8054         3.9940         0.0304         2.5708     
 2944.0000        85.9599        11.4794        13.1998        27.2046        85.6754       101.6470         2.1936        80.1667         3.6571        12.2240        11.0216        14.4354        65.4180         3.5252         3.9286         0.0287         2.5739     
 2944.5000        86.5139        11.4749        13.1998        27.2985        84.0490       100.5676         2.1305        79.9745         3.6560        11.2803        13.3192        13.3704        65.2593         3.4556         3.6701         0.0236         2.5749     
 2945.0000        87.9909        11.4724        13.1998        28.2909        85.2237       102.5439         2.1793        81.9253         3.6550        10.4239        14.5491        12.3791        65.3258         3.4279         3.6588         0.0206         2.5695     
 2945.5000        89.9841        11.4744        13.1998        29.4881        87.0615       107.9873         2.4019        88.1377         3.6523         9.8276        12.6450        11.6506        65.3573         3.6651         3.5987         0.0203         2.5620     
 2946.0000        91.6982        11.4788        13.1998        29.9036        88.4896       113.4115         2.6297        94.4400         3.6447         9.6388        11.3610        11.3494        65.2654         3.8203         3.4995         0.0205         2.5591     
 2946.5000        92.4731        11.4820        13.1998        29.5306        90.7200       115.7219         2.7335        95.3546         3.6415         9.8450        11.5110        11.4876        65.0739         3.3041         3.8127         0.0214         2.5619     
 2947.0000        92.2235        11.4833        13.1998        28.8339        93.4038       115.7285         2.9096        96.0123         3.6451        10.3447        12.7336        11.9547        64.8219         2.8045         3.8451         0.0233         2.5665     
 2947.5000        91.3252        11.4841        13.1998        27.9589        94.0999       114.3833         3.2189        99.3950         3.6476        11.0501        13.9203        12.6421        64.6765         3.1999         3.1294         0.0247         2.5693     
 2948.0000        90.0089        11.4845        13.1998        27.0119        91.4809       110.1631         3.2319        98.6136         3.6407        11.7485        14.6520        13.3187        64.8050         3.6852         2.4618         0.0268         2.5722     
 2948.5000        88.6276        11.4832        13.1998        26.2981        87.7325       104.0194         2.8313        92.3298         3.6212        12.2103        16.1019        13.7612        65.1807         3.5708         2.3480         0.0286         2.5766     
 2949.0000        87.6040        11.4809        13.1998        25.9559        85.5227        99.5891         2.4610        87.3863         3.6020        12.3674        16.6551        13.9095        65.6307         3.7053         2.2835         0.0300         2.5808     
 2949.5000        86.9155        11.4797        13.1998        25.8644        84.6236        98.1717         2.4213        87.7093         3.5824        12.1804        11.1669        13.7021        65.9559         4.2247         1.9459         0.0311         2.5837     
 2950.0000        86.4664        11.4809        13.1998        25.9315        83.3287        98.0345         2.5236        90.5197         3.5656        11.6993         7.3833        13.1819        66.0118         4.6368         1.4190         0.0291         2.5847     
 2950.5000        86.5465        11.4833        13.1998        26.1990        80.9056        98.5686         2.5413        91.9401         3.5605        11.0331         7.0871        12.4858        65.6951         5.0009         1.2502         0.0227         2.5817     
 2951.0000        87.3980        11.4851        13.1998        26.8893        79.7030       101.1279         2.4757        91.5596         3.5627        10.2295         9.6078        11.6528        65.0184         5.6434         1.7965         0.0201         2.5756     
 2951.5000        89.0504        11.4856        13.1998        27.9777        81.7751       105.1972         2.4162        91.0773         3.5834         9.4876        11.9668        10.8465        64.3252         5.9065         2.6250         0.0262         2.5704     
 2952.0000        91.0816        11.4856        13.2002        28.7850        86.5188       108.5422         2.3641        90.7947         3.6009         9.0886         8.0578        10.3792        64.1100         5.3668         3.2073         0.0315         2.5667     
 2952.5000        92.2655        11.4864        13.1987        28.7322        89.3102       109.2419         2.4090        90.7192         3.5566         9.0434         4.5365        10.2969        64.5682         4.7896         3.3601         0.0315         2.5669     
 2953.0000        91.8869        11.4864        13.2290        28.2849        88.1986       107.3547         2.6176        91.7568         3.4929         9.1733         3.6792        10.4162        65.3187         4.8450         3.0161         0.0296         2.5737     
 2953.5000        90.7228        11.4840        13.1915        28.2377        85.0247       104.4775         2.7816        92.1552         3.4861         9.2863         4.6307        10.5256        65.7872         5.1505         2.5212         0.0259         2.5777     
 2954.0000        89.9778        11.4819        13.1006        28.7345        82.5690       102.5120         2.6846        91.3887         3.4709         9.2487         7.4897        10.4736        65.7547         5.3430         2.2324         0.0213         2.5679     
 2954.5000        90.1323        11.4819        13.1194        29.4496        82.3909       101.4742         2.4287        89.9698         3.4563         9.0620         9.3817        10.2577        65.4689         5.2627         2.1430         0.0312         2.5489     
