~Version Information Section
VERS.          2.0                                     : CWLS LOG ASCII Standard
WRAP.          NO                                      : One line per depth step
CREA.          27/11/15                                : LAS Creation Date
~Well Information Section
STRT.ft        2700.0000                               : Start Depth
STOP.ft        3300.0000                               : Stop Depth
STEP.ft        0.5000                                  : Step
NULL.          -999.2500                               : Null Value
COMP.          TEXACO                                  : Company
WELL.          13/22a-3                                : Well
FLD .          CAPTAIN                                 : Field
LOC .          MORAY FIRTH                             : Location
LOC1.          X= 575615.47 Y= 6462274.775             : Location (UTM)
CTRY.          UK                                      : Country
PROV.          UKCS                                    : Province
UWI .          10446                                   : UWI Number
API .                                                  : API Number
SECT.                                                  : Section
TOWN.                                                  : Township
RNGE.                                                  : Range
PDAT.          MSL                                     : Perm Datum
EPD .ft        0.00                                    : Elevation
LMF .          RKB                                     : Log Measured From
DMF .          RKB                                     : Drill Measured From
APD .ft        83.00                                   : Above Perm Datum
EKB .ft        83.00                                   : Elev-Kelly Bushing
EDF .          -                                       : Elev-Drill Floor
EGL .ft        -367.00                                 : Elev-Ground Level (Water Depth)
TDD .ft        3400.00                                 : Total Depth (Driller)
SRVC.          ATLAS WIRELINE                          : Service Company
LATI.          58 17 37.11 N                           : Latitude
LONG.          01 42 36.68 W                           : Longitude
DATE.          09-27-DEC-1989                          : Logging Date
PROJ.          UKCS                                    : Project
SET .          COMP WIRE                               : Set
~Curve Information Section
DEPTH.ft                                               : Depth Curve
AC.us/ft                                               : Acoustic Travel Time
CAL.in                                                 : DLL Caliper
CALI.in                                                : ZDL Caliper
CNC.%                                                  : Compensated Neutron Porosity
GR.gAPI                                                : DLL Gamma Ray
GRS.gAPI                                               : ZDL Gamma Ray
K.                                                     : Potassium
KTH.gAPI                                               : Uranium Stripped Gamma Ray
PE.B/e                                                 : Photo-electric
RD.ohmm                                                : Deep Laterolog Resistivity
RMLL.ohmm                                              : Microlaterolog Resistivity
RS.ohmm                                                : Shallow Laterolog Resistivity
SP.mV                                                  : Spontaneous Potential
TH.ppm                                                 : Thorium
U.ppm                                                  : Uranium
ZCOR.g/cc                                              : ZDL Density Correction
ZDEN.g/cc                                              : ZDL Bulk Density
~ASCII Log Data Section
# ...
 2850.0000       107.3959        11.4887        13.9515        35.5338       124.0763       141.2289         2.6029       114.8757         2.9868         6.0241         3.6371         6.1734        67.8584         7.3945         4.2759         0.0462         2.2937     
 2850.5000       106.4358        11.4970        13.6709        34.8479       119.0901       141.7324         2.4361       109.7806         3.0148         6.3051         2.5016         6.4878        67.9626         7.4760         5.1399         0.0555         2.3031     
 2851.0000       106.0861        11.5020        13.4327        34.2383       116.1793       142.5319         2.2655       106.8587         3.0392         6.6131         2.1810         6.8318        68.2251         7.9890         5.6163         0.0616         2.3026     
 2851.5000       105.6394        11.5024        13.2984        33.3914       115.1329       142.5243         2.2330       107.2983         3.0208         6.9654         2.3504         7.2096        68.6178         8.4034         5.5112         0.0596         2.3000     
 2852.0000       105.4919        11.4982        13.3085        31.3034       113.1305       140.7321         2.1837       106.3335         2.9385         7.3867         2.7077         7.6388        68.9877         8.5132         5.3476         0.0586         2.3048     
 2852.5000       109.7180        11.4886        13.2792        27.3043       107.7451       135.6515         1.9866       100.4041         2.8574         7.8985         3.3332         8.1444        69.1971         8.3392         5.3600         0.0627         2.3249     
 2853.0000       118.1295        11.4726        13.2792        22.2035        99.0524       126.7404         1.7685        90.6027         2.8329         8.4975         4.6976         8.7302        69.2363         7.4156         5.4199         0.0645         2.3643     
 2853.5000       121.4410        11.4567        13.3069        18.0518        88.9273       113.8642         1.7510        81.9028         2.9080         9.1475         5.9495         9.3418        69.1936         5.5790         4.9844         0.0558         2.4028     
 2854.0000       114.1532        11.4567        13.3044        15.9399        78.8849        98.7592         1.7913        76.2905         3.0724         9.8541         5.7655         9.9581        69.1470         4.1798         3.6743         0.0333         2.4020     
 2854.5000       104.7655        11.4804        13.3152        15.0240        69.5816        84.4379         1.6891        72.0179         3.2232        10.6990         5.2836        10.6352        69.1679         3.7706         2.0175         0.0115         2.3669     
 2855.0000       102.6674        11.5199        13.3732        14.6633        60.3241        72.9646         1.5345        67.3236         3.2886        11.7892         4.6688        11.4769        69.3598         3.6313         0.8972         0.0096         2.3273     
 2855.5000       106.9305        11.6028        13.4594        14.1939        51.1323        63.7514         1.4679        61.3799         3.3505        13.0800         3.5115        12.5019        69.7621         3.3434         0.3938         0.0179         2.2930     
 2856.0000       111.7850        11.7752        13.5761        13.5982        44.1005        56.3023         1.4252        53.8244         3.6111        14.2004         2.4473        13.4725        70.2307         2.6787         0.4455         0.0390         2.2718     
 2856.5000       114.8715        11.9661        13.6775        13.6323        41.2658        50.7900         1.4372        47.4601         4.1692        14.6019         2.0676        13.9463        70.6023         1.7286         0.6582         0.0736         2.2544     
 2857.0000       116.4539        12.0669        13.7193        14.5619        40.8650        47.5939         1.5531        44.4138         4.7940        14.1261         2.2668        13.7134        70.8078         0.9517         0.7005         0.0889         2.2288     
 2857.5000       117.9119        12.0948        13.6618        15.7896        40.8056        46.6336         1.6766        43.4873         5.0978        13.0409         2.5468        12.9074        70.7833         0.7845         0.7574         0.0818         2.2194     
 2858.0000       119.4052        12.1091        13.5849        16.6800        40.8365        46.7140         1.6205        41.4940         5.0324        11.7095         2.0912        11.7837        70.5261         0.6155         1.2659         0.0885         2.2230     
 2858.5000       120.4158        12.0721        13.4677        17.5251        41.3710        47.1768         1.4402        40.0193         4.8996        10.4996         1.5819        10.6865        70.2115         0.6412         1.6060         0.1011         2.2323     
 2859.0000       121.0339        11.9299        13.4363        18.8655        43.6124        49.4514         1.3993        43.7288         4.8942         9.6009         1.3498         9.8460        70.0170         1.5833         1.1904         0.0831         2.2554     
 2859.5000       119.7206        11.7306        13.4031        20.7139        49.6031        56.0008         1.6870        53.3555         4.9944         9.0277         1.3221         9.3019        69.9412         2.7977         0.5607         0.0536         2.2972     
 2860.0000       114.4953        11.5852        13.3419        22.7634        59.8702        67.4607         2.1529        64.6008         5.0537         8.7982         1.3444         9.0783        69.8751         2.9641         0.6286         0.0515         2.3506     
 2860.5000       108.4080        11.5421        13.3060        25.2388        71.9908        81.2638         2.4774        74.3239         4.8593         9.0164         1.2658         9.2874        69.6723         2.4340         1.4903         0.0673         2.3944     
 2861.0000       105.0980        11.5480        13.4809        27.3033        81.4521        93.5569         2.6150        81.7351         4.3751         9.7919         1.2613        10.0440        69.2539         2.4849         2.4320         0.0750         2.4123     
 2861.5000       103.2015        11.5402        13.7274        27.8031        86.0046       101.9249         2.7900        89.1859         3.8672        11.1325         1.6009        11.3539        68.7212         3.1664         2.5910         0.0797         2.4181     
 2862.0000       102.0452        11.5049        13.6274        26.7975        87.6889       105.6359         2.9400        93.9029         3.5845        12.7268         2.7470        12.9433        68.3251         3.5911         2.4007         0.0851         2.4398     
 2862.5000       104.4339        11.4655        13.3520        25.0953        88.8177       105.0164         2.7036        90.0954         3.5090        13.7274         5.9357        14.0525        68.1937         3.3962         2.9321         0.0753         2.4862     
 2863.0000       108.8761        11.4458        13.2742        23.0914        89.9016       103.1286         2.3413        82.3031         3.5055        13.2774        14.2818        13.7853        68.1951         2.9201         3.8774         0.0521         2.5345     
 2863.5000       111.1346        11.4433        13.2413        21.7160        90.8608       103.2108         2.3901        81.9433         3.4891        11.6817        19.9290        12.2649        68.1104         2.6771         4.0295         0.0353         2.5711     
 2864.0000       107.7681        11.4429        13.2449        21.7630        90.9582       105.8477         2.7683        88.8373         3.4230        10.0333        14.7428        10.5755        67.9403         2.9545         3.4324         0.0344         2.5853     
 2864.5000       100.0238        11.4364        13.2943        22.9350        89.7165       110.3775         2.8517        92.8505         3.4429         8.9121         6.5813         9.4070        67.9138         3.0064         3.4830         0.0385         2.5841     
