~Version Information Section
VERS.          2.0                                     : CWLS LOG ASCII Standard
WRAP.          NO                                      : One line per depth step
CREA.          27/11/15                                : LAS Creation Date
~Well Information Section
STRT.ft        2700.0000                               : Start Depth
STOP.ft        3300.0000                               : Stop Depth
STEP.ft        0.5000                                  : Step
NULL.          -999.2500                               : Null Value
COMP.          TEXACO                                  : Company
WELL.          13/22a-3                                : Well
FLD .          CAPTAIN                                 : Field
LOC .          MORAY FIRTH                             : Location
LOC1.          X= 575615.47 Y= 6462274.775             : Location (UTM)
CTRY.          UK                                      : Country
PROV.          UKCS                                    : Province
UWI .          10446                                   : UWI Number
API .                                                  : API Number
SECT.                                                  : Section
TOWN.                                                  : Township
RNGE.                                                  : Range
PDAT.          MSL                                     : Perm Datum
EPD .ft        0.00                                    : Elevation
LMF .          RKB                                     : Log Measured From
DMF .          RKB                                     : Drill Measured From
APD .ft        83.00                                   : Above Perm Datum
EKB .ft        83.00                                   : Elev-Kelly Bushing
EDF .          -                                       : Elev-Drill Floor
EGL .ft        -367.00                                 : Elev-Ground Level (Water Depth)
TDD .ft        3400.00                                 : Total Depth (Driller)
SRVC.          ATLAS WIRELINE                          : Service Company
LATI.          58 17 37.11 N                           : Latitude
LONG.          01 42 36.68 W                           : Longitude
DATE.          09-27-DEC-1989                          : Logging Date
PROJ.          UKCS                                    : Project
SET .          COMP WIRE                               : Set
~Curve Information Section
DEPTH.ft                                               : Depth Curve
AC.us/ft                                               : Acoustic Travel Time
CAL.in                                                 : DLL Caliper
CALI.in                                                : ZDL Caliper
CNC.%                                                  : Compensated Neutron Porosity
GR.gAPI                                                : DLL Gamma Ray
GRS.gAPI                                               : ZDL Gamma Ray
K.                                                     : Potassium
KTH.gAPI                                               : Uranium Stripped Gamma Ray
PE.B/e                                                 : Photo-electric
RD.ohmm                                                : Deep Laterolog Resistivity
RMLL.ohmm                                              : Microlaterolog Resistivity
RS.ohmm                                                : Shallow Laterolog Resistivity
SP.mV                                                  : Spontaneous Potential
TH.ppm                                                 : Thorium
U.ppm                                                  : Uranium
ZCOR.g/cc                                              : ZDL Density Correction
ZDEN.g/cc                                              : ZDL Bulk Density
~ASCII Log Data Section
# ...
 2970.0000        77.1093        11.4946        13.0935        15.1107        62.0495        74.6924         2.3274        68.5174         3.1553        19.1541        17.9554        21.1601        65.5013         4.1309         1.4156         0.0393         2.5424     
 2970.5000        72.9383        11.4964        13.0935        13.6371        57.7249        69.9401         2.2140        64.8777         3.0675        21.9098        25.3398        24.3343        65.0641         3.9871         1.1677         0.0335         2.5603     
 2971.0000        69.6994        11.4976        13.0935        13.0514        56.1715        67.3491         2.1337        61.9360         3.0328        22.5613        30.0644        25.3162        64.8168         3.9088         1.2626         0.0254         2.5783     
 2971.5000        68.4733        11.4985        13.0935        13.7997        55.4603        65.9408         2.0715        60.7273         3.0259        19.7594        35.7662        22.4843        64.9178         3.9144         1.2081         0.0227         2.5850     
 2972.0000        70.5054        11.5002        13.0935        15.2094        55.4614        66.7315         2.0024        61.4665         3.0383        15.3028        40.1168        17.6046        65.3281         3.8046         1.1659         0.0315         2.5841     
 2972.5000        75.6305        11.5029        13.0935        17.9330        59.0018        73.8506         2.0432        67.2839         3.0961        11.8343        21.8204        13.6852        65.7761         3.9399         1.3576         0.0539         2.5817     
 2973.0000        82.1332        11.5051        13.0935        22.4181        67.1949        86.5603         2.2907        77.8108         3.1885         9.9402        11.2567        11.4933        66.0325         4.1089         1.7403         0.0669         2.5766     
 2973.5000        88.0471        11.5045        13.0935        25.0137        74.4817        97.3753         2.6360        86.9680         3.3249         9.3266         8.8260        10.7450        66.0442         4.1151         2.1028         0.0596         2.5733     
 2974.0000        91.3554        11.5029        13.0935        26.1124        76.4486       101.5921         2.8098        90.6025         3.5139         9.5676         9.5960        11.0160        65.7676         4.2373         2.2650         0.0572         2.5691     
 2974.5000        91.2426        11.5037        13.0935        26.4129        76.8309       101.5293         2.6877        90.0524         3.6817        10.0940        11.0377        11.6880        65.2860         4.7182         2.3092         0.0824         2.5611     
 2975.0000        89.7624        11.5059        13.0935        26.0691        78.7214        99.3239         2.3847        88.3451         3.7185        10.4964        12.0714        12.2070        64.9654         5.5220         2.0621         0.0940         2.5581     
 2975.5000        88.9420        11.5071        13.0935        25.7396        79.5054        95.6027         2.1747        86.4095         3.6492        10.8454        14.5082        12.6031        65.0976         6.1651         1.6563         0.0705         2.5659     
 2976.0000        88.5307        11.5080        13.0935        25.5662        78.9324        92.1831         2.2725        84.0578         3.5855        11.3234        15.5844        13.1121        65.4965         6.1130         1.5603         0.0483         2.5756     
 2976.5000        87.8975        11.5087        13.0935        24.7055        78.3961        90.0237         2.4896        80.5731         3.5641        12.0870        13.3922        13.9171        65.7156         5.1485         2.0039         0.0496         2.5825     
 2977.0000        86.7557        11.5084        13.0935        23.1400        77.7628        87.7306         2.5477        77.0220         3.5344        13.2056        12.2501        15.1041        65.5793         4.1326         2.3696         0.0476         2.5889     
 2977.5000        84.7690        11.5062        13.0935        21.9798        76.0258        83.8632         2.3875        74.1629         3.4179        14.2142        13.7095        16.2154        65.2133         4.0364         2.0974         0.0347         2.5961     
 2978.0000        82.4283        11.5034        13.0935        21.7989        73.4514        80.5155         2.1368        72.1094         3.2649        14.4497        15.7536        16.5128        64.7654         4.3770         1.7075         0.0271         2.6019     
 2978.5000        81.0063        11.5027        13.0935        22.4282        71.5185        81.5829         2.0279        72.8896         3.1884        14.0548        16.5520        16.1147        64.4435         4.6112         1.6790         0.0258         2.6052     
 2979.0000        80.6093        11.5047        13.0935        23.2636        72.7906        87.7306         2.2213        78.7021         3.2020        13.1625        15.7249        15.2010        64.4881         5.1003         1.7711         0.0286         2.6062     
 2979.5000        80.9637        11.5070        13.0935        23.8944        77.0936        94.1594         2.5428        85.3320         3.2728        11.8285        14.8973        13.8097        64.8507         5.6548         1.8209         0.0314         2.6038     
 2980.0000        82.5826        11.5078        13.0935        24.8626        80.4529        96.9642         2.7712        88.1837         3.3794        10.4875        15.5762        12.4015        65.1980         5.2364         1.8745         0.0337         2.5981     
 2980.5000        85.5291        11.5071        13.0935        26.7874        81.7454        98.2049         2.8727        89.2274         3.4884         9.3318        14.7339        11.2064        65.2910         4.3302         1.9208         0.0399         2.5904     
 2981.0000        89.0031        11.5063        13.0935        29.1909        83.0707       101.9474         2.8417        93.0836         3.5770         8.3856        11.4609        10.2173        65.0851         4.4830         1.8056         0.0453         2.5841     
 2981.5000        92.5601        11.5054        13.0935        33.1233        86.0966       108.5975         2.7495       100.4818         3.6283         7.7757         9.7645         9.5654        64.6138         5.8990         1.5306         0.0386         2.5806     
 2982.0000        95.8331        11.5043        13.0935        36.4655        90.0806       114.9932         2.6935       107.0763         3.6354         7.4862         9.7195         9.2628        64.0047         7.2167         1.4137         0.0257         2.5775     
 2982.5000        98.0788        11.5050        13.0917        37.3053        94.0052       117.4453         2.7292       108.0613         3.6417         7.3280         8.7697         9.0963        63.4636         7.3790         1.6846         0.0197         2.5736     
 2983.0000        99.2254        11.5068        13.1043        37.3841        96.0653       115.4426         2.8675       105.5214         3.6418         7.1935         7.5004         8.9386        63.2117         6.7900         1.8813         0.0202         2.5715     
 2983.5000        99.8920        11.5063        13.1285        37.7546        95.9888       112.1471         3.0200       103.0571         3.6319         7.0759         7.4996         8.7839        63.3659         6.1648         1.8252         0.0228         2.5720     
 2984.0000       100.5805        11.5047        13.1043        38.0556        94.8145       111.0161         3.0072       100.4627         3.6272         6.9762         8.4228         8.6187        63.9140         5.5728         2.1416         0.0260         2.5716     
 2984.5000       101.1785        11.5036        13.0917        37.7312        94.2701       113.1016         2.9071        98.8867         3.6298         6.9742         8.7001         8.5369        64.6589         5.1477         2.8197         0.0304         2.5676     
