~Version Information Section
VERS.          2.0                                     : CWLS LOG ASCII Standard
WRAP.          NO                                      : One line per depth step
CREA.          27/11/15                                : LAS Creation Date
~Well Information Section
STRT.ft        2700.0000                               : Start Depth
STOP.ft        3300.0000                               : Stop Depth
STEP.ft        0.5000                                  : Step
NULL.          -999.2500                               : Null Value
COMP.          TEXACO                                  : Company
WELL.          13/22a-3                                : Well
FLD .          CAPTAIN                                 : Field
LOC .          MORAY FIRTH                             : Location
LOC1.          X= 575615.47 Y= 6462274.775             : Location (UTM)
CTRY.          UK                                      : Country
PROV.          UKCS                                    : Province
UWI .          10446                                   : UWI Number
API .                                                  : API Number
SECT.                                                  : Section
TOWN.                                                  : Township
RNGE.                                                  : Range
PDAT.          MSL                                     : Perm Datum
EPD .ft        0.00                                    : Elevation
LMF .          RKB                                     : Log Measured From
DMF .          RKB                                     : Drill Measured From
APD .ft        83.00                                   : Above Perm Datum
EKB .ft        83.00                                   : Elev-Kelly Bushing
EDF .          -                                       : Elev-Drill Floor
EGL .ft        -367.00                                 : Elev-Ground Level (Water Depth)
TDD .ft        3400.00                                 : Total Depth (Driller)
SRVC.          ATLAS WIRELINE                          : Service Company
LATI.          58 17 37.11 N                           : Latitude
LONG.          01 42 36.68 W                           : Longitude
DATE.          09-27-DEC-1989                          : Logging Date
PROJ.          UKCS                                    : Project
SET .          COMP WIRE                               : Set
~Curve Information Section
DEPTH.ft                                               : Depth Curve
AC.us/ft                                               : Acoustic Travel Time
CAL.in                                                 : DLL Caliper
CALI.in                                                : ZDL Caliper
CNC.%                                                  : Compensated Neutron Porosity
GR.gAPI                                                : DLL Gamma Ray
GRS.gAPI                                               : ZDL Gamma Ray
K.                                                     : Potassium
KTH.gAPI                                               : Uranium Stripped Gamma Ray
PE.B/e                                                 : Photo-electric
RD.ohmm                                                : Deep Laterolog Resistivity
RMLL.ohmm                                              : Microlaterolog Resistivity
RS.ohmm                                                : Shallow Laterolog Resistivity
SP.mV                                                  : Spontaneous Potential
TH.ppm                                                 : Thorium
U.ppm                                                  : Uranium
ZCOR.g/cc                                              : ZDL Density Correction
ZDEN.g/cc                                              : ZDL Bulk Density
~ASCII Log Data Section
# ...
 3210.0000        86.4909        11.4001        12.6681        20.8723        37.5213        49.1658         1.6107        45.2459         2.5172         4.7328         2.7760         4.1934        75.3456         1.9405         0.9110         0.0350         2.3103     
 3210.5000        85.8926        11.3998        12.6681        20.3726        37.4061        48.7560         1.6446        44.8098         2.5650         4.9062         2.9512         4.3491        75.2774         2.2548         0.9548         0.0320         2.3184     
 3211.0000        85.3405        11.4014        12.6681        20.1538        38.7433        48.6525         1.5973        43.6755         2.6912         5.0453         3.1876         4.4828        75.0717         1.7509         1.1807         0.0308         2.3275     
 3211.5000        84.9254        11.4020        12.6681        20.0849        40.5011        48.7236         1.4792        42.2094         2.7792         5.1101         3.3272         4.5504        74.8527         1.1294         1.4514         0.0329         2.3333     
 3212.0000        84.6821        11.3999        12.6681        20.0815        41.5844        48.4945         1.4020        42.2501         2.7491         5.1547         3.3206         4.5860        74.6767         1.2559         1.3280         0.0358         2.3353     
 3212.5000        84.4803        11.3967        12.6681        20.2484        41.3832        48.2783         1.3727        43.0168         2.6781         5.2518         3.3359         4.6717        74.5111         1.5849         1.0929         0.0374         2.3371     
 3213.0000        84.2053        11.3954        12.6681        20.6365        39.6898        49.2552         1.3496        43.0241         2.6556         5.4214         3.5329         4.8287        74.3218         1.3539         1.2608         0.0356         2.3407     
 3213.5000        83.8917        11.3953        12.6681        20.9537        37.9456        50.6195         1.3935        43.4811         2.6648         5.6488         3.7819         5.0299        74.1675         0.9808         1.4493         0.0316         2.3455     
 3214.0000        83.4541        11.3951        12.6681        20.7349        37.6514        50.7347         1.4911        44.6565         2.7159         5.8927         3.8870         5.2366        74.1862         1.2598         1.2968         0.0320         2.3537     
 3214.5000        82.6866        11.3954        12.6681        20.0359        37.8849        49.6151         1.4671        43.4919         2.8164         6.0536         4.0981         5.3886        74.3665         1.7567         1.3479         0.0377         2.3688     
 3215.0000        81.8253        11.3954        12.6681        19.6128        38.0732        48.2350         1.3503        40.9588         2.9377         6.0266         4.5191         5.4112        74.5763         1.8400         1.5807         0.0378         2.3820     
 3215.5000        81.4967        11.3933        12.6681        20.0685        38.1971        47.5969         1.3357        40.4321         2.9847         5.7879         4.4388         5.2728        74.7524         1.5753         1.5429         0.0306         2.3779     
 3216.0000        82.1027        11.3909        12.6681        21.1528        38.5044        47.7611         1.3687        41.3565         2.9286         5.4167         3.7875         5.0268        74.8671         1.3075         1.3634         0.0274         2.3586     
 3216.5000        83.4889        11.3909        12.6681        22.2921        39.2070        47.9557         1.3293        41.5733         2.8410         5.0493         3.3438         4.7869        74.8222         1.2204         1.3097         0.0306         2.3410     
 3217.0000        85.0363        11.3916        12.6681        23.0532        40.0078        47.4401         1.2362        40.6421         2.8012         4.7808         3.1652         4.6129        74.6073         1.2821         1.3366         0.0327         2.3311     
 3217.5000        86.1281        11.3906        12.6681        23.4910        40.2340        46.6411         1.1940        40.2794         2.8053         4.6058         3.0245         4.4858        74.3697         1.4243         1.2303         0.0344         2.3231     
 3218.0000        86.7388        11.3890        12.6681        23.6759        39.5602        46.7978         1.3229        43.4032         2.7952         4.4838         2.9128         4.4003        74.2490         2.0058         0.6879         0.0363         2.3145     
 3218.5000        87.1621        11.3894        12.6681        23.5678        38.1470        48.0788         1.5416        47.2000         2.7903         4.4125         2.8592         4.3803        74.2632         2.6347         0.2972         0.0357         2.3074     
 3219.0000        87.4533        11.3909        12.6681        23.1057        36.7697        49.1329         1.5867        47.1874         2.8016         4.4056         2.8353         4.4093        74.3903         2.5137         0.4367         0.0339         2.3031     
 3219.5000        87.5031        11.3925        12.6681        22.4787        36.1864        48.6595         1.4709        44.6100         2.8150         4.4566         2.9136         4.4762        74.5527         1.9185         0.8768         0.0335         2.3034     
 3220.0000        87.2697        11.3929        12.6681        21.9715        35.8559        47.8729         1.4393        43.7724         2.8376         4.5432         3.2154         4.5851        74.6541         1.7115         0.8794         0.0360         2.3107     
 3220.5000        86.8138        11.3911        12.6681        21.6352        35.3727        48.1011         1.4715        43.4022         2.9084         4.6371         3.7382         4.7290        74.6386         1.5570         1.0310         0.0400         2.3235     
 3221.0000        86.2617        11.3891        12.6681        21.4325        35.2452        49.1201         1.4546        42.5286         2.9419         4.6965         4.0276         4.8659        74.4879         1.1925         1.4383         0.0409         2.3355     
 3221.5000        85.8074        11.3887        12.6681        21.4105        35.7440        49.2429         1.4130        42.9536         2.9389         4.6875         3.8199         4.9321        74.2426         1.3389         1.3301         0.0364         2.3406     
 3222.0000        85.6027        11.3891        12.6681        21.6405        35.9900        48.8004         1.4200        44.7613         2.9252         4.6364         3.5163         4.9331        73.9978         2.1143         0.8506         0.0306         2.3386     
 3222.5000        85.5901        11.3875        12.6681        22.0618        36.0715        48.4419         1.4194        45.2256         2.8599         4.6139         3.3316         4.9529        73.8884         2.7542         0.6878         0.0275         2.3346     
 3223.0000        85.5916        11.3851        12.6681        22.4153        36.1346        47.5602         1.3380        43.0305         2.8470         4.6512         3.2145         5.0246        74.0113         2.5832         0.9591         0.0266         2.3325     
 3223.5000        85.4793        11.3853        12.6681        22.5431        35.7692        46.7352         1.3024        41.9658         2.8271         4.7429         3.2783         5.1255        74.2801         2.0333         0.9868         0.0268         2.3330     
 3224.0000        85.1716        11.3873        12.6681        22.4864        35.3924        47.8345         1.3990        44.5887         2.8208         4.8885         3.4534         5.2688        74.3845         1.7661         0.6672         0.0275         2.3357     
 3224.5000        84.5509        11.3887        12.6681        22.2253        36.5698        49.5194         1.5076        46.7385         2.8746         5.1038         3.5299         5.4860        74.1185         1.6820         0.5825         0.0307         2.3411     
