~Version Information Section
VERS.          2.0                                     : CWLS LOG ASCII Standard
WRAP.          NO                                      : One line per depth step
CREA.          27/11/15                                : LAS Creation Date
~Well Information Section
STRT.ft        2700.0000                               : Start Depth
STOP.ft        3300.0000                               : Stop Depth
STEP.ft        0.5000                                  : Step
NULL.          -999.2500                               : Null Value
COMP.          TEXACO                                  : Company
WELL.          13/22a-3                                : Well
FLD .          CAPTAIN                                 : Field
LOC .          MORAY FIRTH                             : Location
LOC1.          X= 575615.47 Y= 6462274.775             : Location (UTM)
CTRY.          UK                                      : Country
PROV.          UKCS                                    : Province
UWI .          10446                                   : UWI Number
API .                                                  : API Number
SECT.                                                  : Section
TOWN.                                                  : Township
RNGE.                                                  : Range
PDAT.          MSL                                     : Perm Datum
EPD .ft        0.00                                    : Elevation
LMF .          RKB                                     : Log Measured From
DMF .          RKB                                     : Drill Measured From
APD .ft        83.00                                   : Above Perm Datum
EKB .ft        83.00                                   : Elev-Kelly Bushing
EDF .          -                                       : Elev-Drill Floor
EGL .ft        -367.00                                 : Elev-Ground Level (Water Depth)
TDD .ft        3400.00                                 : Total Depth (Driller)
SRVC.          ATLAS WIRELINE                          : Service Company
LATI.          58 17 37.11 N                           : Latitude
LONG.          01 42 36.68 W                           : Longitude
DATE.          09-27-DEC-1989                          : Logging Date
PROJ.          UKCS                                    : Project
SET .          COMP WIRE                               : Set
~Curve Information Section
DEPTH.ft                                               : Depth Curve
AC.us/ft                                               : Acoustic Travel Time
CAL.in                                                 : DLL Caliper
CALI.in                                                : ZDL Caliper
CNC.%                                                  : Compensated Neutron Porosity
GR.gAPI                                                : DLL Gamma Ray
GRS.gAPI                                               : ZDL Gamma Ray
K.                                                     : Potassium
KTH.gAPI                                               : Uranium Stripped Gamma Ray
PE.B/e                                                 : Photo-electric
RD.ohmm                                                : Deep Laterolog Resistivity
RMLL.ohmm                                              : Microlaterolog Resistivity
RS.ohmm                                                : Shallow Laterolog Resistivity
SP.mV                                                  : Spontaneous Potential
TH.ppm                                                 : Thorium
U.ppm                                                  : Uranium
ZCOR.g/cc                                              : ZDL Density Correction
ZDEN.g/cc                                              : ZDL Bulk Density
~ASCII Log Data Section
# ...
 3285.0000        84.7881        11.3839        12.6681        21.1019        55.8169        55.8169         1.1698        47.4003         2.8486         4.8527         2.9781         4.5324        73.3989         3.3165         1.4870         0.0348         2.3109     
 3285.5000        83.8389        11.3850        12.6681        19.9809        58.5726        58.5726         1.3335        50.9191         3.0085         5.3528         3.9578         4.9437        73.4488         3.5477         1.4213         0.0419         2.3385     
 3286.0000        82.7880        11.3870        12.6681        19.4303        61.3474        61.3474         1.5106        51.8749         3.0859         5.6452         4.9229         5.2341        73.4540         2.6639         1.8605         0.0353         2.3702     
 3286.5000        82.4208        11.3874        12.6681        19.5755        62.6512        62.6512         1.7509        52.9889         3.0724         5.5723         4.6978         5.2414        73.3472         2.0335         2.0790         0.0245         2.3826     
 3287.0000        82.9417        11.3880        12.6681        20.1692        60.8654        60.8654         1.8728        53.5982         3.0264         5.2732         3.9246         5.0368        73.1555         2.3530         1.6629         0.0258         2.3702     
 3287.5000        83.8513        11.3872        12.6681        20.5916        56.9326        56.9326         1.8160        52.3005         2.9625         5.0123         3.5087         4.8429        73.0037         2.6189         1.0648         0.0332         2.3520     
 3288.0000        84.5284        11.3842        12.6681        20.4573        53.7906        53.7931         1.6520        50.2119         2.9419         4.9221         3.4827         4.8022        72.9287         2.5705         0.7852         0.0335         2.3441     
 3288.5000        84.7704        11.3830        12.6681        20.2822        52.2401        52.2414         1.4175        48.2798         2.9506         4.9668         3.5149         4.9026        72.8849         2.4775         0.7837         0.0289         2.3453     
 3289.0000        84.7396        11.3866        12.6681        20.3802        51.3368        51.3368         1.2962        47.7231         2.9453         5.0491         3.4800         5.0462        72.8723         2.3730         0.6645         0.0274         2.3478     
 3289.5000        84.5884        11.3908        12.6681        20.5104        50.7445        50.7445         1.3610        48.2113         2.9508         5.1272         3.4506         5.1707        72.9315         2.3696         0.4817         0.0321         2.3496     
 3290.0000        84.3117        11.3903        12.6681        20.3331        50.2586        50.2586         1.4143        47.2193         2.9618         5.2027         3.4955         5.2689        73.0416         2.4080         0.6118         0.0387         2.3552     
 3290.5000        83.9592        11.3864        12.6681        19.8634        49.9953        49.9953         1.3287        43.8630         2.9687         5.2667         3.5854         5.3418        73.1003         2.0206         1.2354         0.0407         2.3641     
 3291.0000        83.6036        11.3844        12.6681        19.5489        50.2136        50.2136         1.2300        40.6252         2.9871         5.2862         3.6515         5.3741        73.0137         1.3533         1.8835         0.0395         2.3687     
 3291.5000        83.2736        11.3860        12.6681        19.5006        50.7934        50.7934         1.2167        39.6051         2.9986         5.2918         3.6275         5.3947        72.8384         0.8331         2.1749         0.0381         2.3672     
 3292.0000        82.7634        11.3884        12.6681        19.3634        50.4868        50.4868         1.2313        40.1230         2.9880         5.4764         3.5329         5.5788        72.7361         0.7631         2.0044         0.0373         2.3666     
 3292.5000        81.7249        11.3924        12.6681        18.8784        50.7523        50.7523         1.2644        42.5647         2.9646         6.0709         3.6933         6.1354        72.7665         1.2086         1.5644         0.0396         2.3733     
 3293.0000        80.4842        11.4036        12.6681        18.3390        55.6481        55.6481         1.4655        48.9454         2.9266         7.1901         4.7325         7.1929        72.7370         1.9293         1.3188         0.0442         2.3947     
 3293.5000        79.9147        11.4232        12.6685        18.4190        66.9577        66.9577         1.8915        61.1705         2.9113         8.7744         7.5705         8.7473        72.4097         3.1134         1.1988         0.0433         2.4386     
 3294.0000        80.2645        11.4421        12.6673        19.2575        81.4157        81.4041         2.3962        77.1332         2.9993        10.5593        11.8151        10.5737        71.7570         4.8745         0.9088         0.0357         2.4992     
 3294.5000        81.0084        11.4510        12.6951        20.2206        94.2120        94.2018         2.7387        88.7277         3.1795        12.1038        14.4018        12.2381        70.9438         6.1845         1.1719         0.0279         2.5550     
 3295.0000        81.4964        11.4483        12.6951        21.0212       101.5881       101.5822         2.7492        90.4296         3.3280        13.3240        16.4619        13.6095        70.2112         5.9832         2.3408         0.0250         2.5902     
 3295.5000        80.9575        11.4378        12.6673        20.8969       102.5757       102.5757         2.5439        87.0027         3.3613        14.7297        18.4676        15.1899        69.7696         5.1730         3.1186         0.0272         2.6084     
 3296.0000        79.1590        11.4268        12.6685        19.9869        99.1754        99.1754         2.3880        84.9262         3.3569        16.5966        19.8178        17.3840        69.6249         4.8232         2.7420         0.0302         2.6200     
 3296.5000        76.8043        11.4225        12.6681        18.9956        94.7492        94.7492         2.2566        82.4432         3.3696        18.5798        21.3530        19.9254        69.6321         4.3162         2.2912         0.0322         2.6307     
 3297.0000        74.7808        11.4242        12.6681        18.4532        91.2127        91.2127         2.0787        76.7528         3.4433        20.0737        24.0036        22.0759        69.6855         3.1377         2.6028         0.0330         2.6410     
 3297.5000        73.5584        11.4273        12.6681        18.0615        88.4026        88.4026         2.0937        72.7726         3.5236        20.7744        26.5314        23.3540        69.7340         2.3885         2.9246         0.0307         2.6481     
 3298.0000        73.0575        11.4292        12.6681        17.8592        87.1141        87.1141         2.4226        74.2517         3.5512        20.8816        27.1343        23.8705        69.6019         2.4365         2.7075         0.0254         2.6500     
 3298.5000        72.9194        11.4292        12.6681        17.9034        88.2327        88.2327         2.6712        76.4810         3.5736        20.6959        26.6375        23.9532        69.1521         2.4736         2.6354         0.0224         2.6495     
 3299.0000        72.9279        11.4283        12.6681        17.9694        90.1959        90.1959         2.5549        76.1506         3.6509        20.3324        26.5662        23.8193        68.5334         2.5067         3.0357         0.0223         2.6492     
 3299.5000        73.0948        11.4289        12.6681        18.1293        91.2338        91.2338         2.3046        74.3520         3.7060        19.8308        27.3288        23.5784        68.0997         2.9814         3.4341         0.0203         2.6462     
