~Version Information Section
VERS.          2.0                                     : CWLS LOG ASCII Standard
WRAP.          NO                                      : One line per depth step
CREA.          27/11/15                                : LAS Creation Date
~Well Information Section
STRT.ft        2700.0000                               : Start Depth
STOP.ft        3300.0000                               : Stop Depth
STEP.ft        0.5000                                  : Step
NULL.          -999.2500                               : Null Value
COMP.          TEXACO                                  : Company
WELL.          13/22a-3                                : Well
FLD .          CAPTAIN                                 : Field
LOC .          MORAY FIRTH                             : Location
LOC1.          X= 575615.47 Y= 6462274.775             : Location (UTM)
CTRY.          UK                                      : Country
PROV.          UKCS                                    : Province
UWI .          10446                                   : UWI Number
API .                                                  : API Number
SECT.                                                  : Section
TOWN.                                                  : Township
RNGE.                                                  : Range
PDAT.          MSL                                     : Perm Datum
EPD .ft        0.00                                    : Elevation
LMF .          RKB                                     : Log Measured From
DMF .          RKB                                     : Drill Measured From
APD .ft        83.00                                   : Above Perm Datum
EKB .ft        83.00                                   : Elev-Kelly Bushing
EDF .          -                                       : Elev-Drill Floor
EGL .ft        -367.00                                 : Elev-Ground Level (Water Depth)
TDD .ft        3400.00                                 : Total Depth (Driller)
SRVC.          ATLAS WIRELINE                          : Service Company
LATI.          58 17 37.11 N                           : Latitude
LONG.          01 42 36.68 W                           : Longitude
DATE.          09-27-DEC-1989                          : Logging Date
PROJ.          UKCS                                    : Project
SET .          COMP WIRE                               : Set
~Curve Information Section
DEPTH.ft                                               : Depth Curve
AC.us/ft                                               : Acoustic Travel Time
CAL.in                                                 : DLL Caliper
CALI.in                                                : ZDL Caliper
CNC.%                                                  : Compensated Neutron Porosity
GR.gAPI                                                : DLL Gamma Ray
GRS.gAPI                                               : ZDL Gamma Ray
K.                                                     : Potassium
KTH.gAPI                                               : Uranium Stripped Gamma Ray
PE.B/e                                                 : Photo-electric
RD.ohmm                                                : Deep Laterolog Resistivity
RMLL.ohmm                                              : Microlaterolog Resistivity
RS.ohmm                                                : Shallow Laterolog Resistivity
SP.mV                                                  : Spontaneous Potential
TH.ppm                                                 : Thorium
U.ppm                                                  : Uranium
ZCOR.g/cc                                              : ZDL Density Correction
ZDEN.g/cc                                              : ZDL Bulk Density
~ASCII Log Data Section
# ...
 3015.0000        94.2366        11.5746        13.0935        27.7101        92.4503       112.3771         2.1341        88.3312         3.4240         9.8361         9.3454        10.6654        65.9823         4.6602         4.0126         0.0311         2.5672     
 3015.5000        93.7729        11.5720        13.0935        26.5472        96.2267       114.6407         1.8516        86.4308         3.4132        10.1803         9.0590        11.0873        66.2366         4.8073         4.2706         0.0304         2.5670     
 3016.0000        94.2014        11.5709        13.0917        25.6522        98.0874       114.7661         1.7470        83.6390         3.3681        10.6577         9.3262        11.6249        66.5434         3.9732         4.5134         0.0267         2.5669     
 3016.5000        94.8618        11.5709        13.1043        25.1418        97.0751       112.8420         1.9583        83.8996         3.3234        11.0915         9.6429        12.1132        66.8752         3.2924         4.5348         0.0224         2.5654     
 3017.0000        93.2750        11.5715        13.1285        24.6856        94.2784       110.5696         2.2868        85.3649         3.3999        11.3873         9.4342        12.4642        67.1752         3.3518         4.4761         0.0203         2.5618     
 3017.5000        89.2011        11.5715        13.1025        24.0949        91.0499       110.1053         2.4105        86.0997         3.5766        11.5784         8.8212        12.6894        67.3165         3.6993         4.4733         0.0209         2.5579     
 3018.0000        85.7274        11.5700        13.1025        23.5638        88.1278       111.2257         2.3714        87.7850         3.7117        11.7276         8.3218        12.8296        67.2056         4.3581         4.2889         0.0221         2.5553     
 3018.5000        84.7771        11.5684        13.1285        23.6525        86.8139       113.3938         2.3677        92.4735         3.7056        12.0361         8.2487        13.0999        66.9207         5.6191         3.7390         0.0218         2.5523     
 3019.0000        85.1705        11.5669        13.1043        24.5063        88.8337       116.6322         2.3888        98.0139         3.5967        12.8136         8.4457        13.8353        66.6199         6.6148         3.2368         0.0236         2.5466     
 3019.5000        85.2079        11.5602        13.0917        25.2608        93.5081       120.3439         2.3291        98.8273         3.5093        14.2841         9.2263        15.2520        66.4323         6.0705         3.5853         0.0325         2.5411     
 3020.0000        84.4877        11.5474        13.0935        25.0981        96.9528       122.8665         2.1497        92.5455         3.4995        16.4764        11.7462        17.3871        66.3908         4.4285         4.8310         0.0403         2.5401     
 3020.5000        83.1234        11.5354        13.0935        24.2702        97.9084       121.8273         1.8894        84.0508         3.4920        19.0227        17.4596        19.9557        66.4505         3.6675         5.7857         0.0384         2.5443     
 3021.0000        81.2203        11.5276        13.0935        23.5125        98.1880       118.0282         1.7064        79.7152         3.4908        20.9658        25.4937        22.0812        66.6356         4.0085         5.7170         0.0298         2.5501     
 3021.5000        79.3547        11.5212        13.0935        22.6379        97.7232       114.5210         1.7332        80.6203         3.5129        21.5887        32.0187        22.9534        66.8922         4.2863         5.1154         0.0203         2.5480     
 3022.0000        78.4831        11.5133        13.0935        21.9539        97.1676       112.8900         1.8244        82.7700         3.6657        21.6300        35.4217        23.1588        66.9968         4.2851         4.6280         0.0239         2.5314     
 3022.5000        78.2632        11.5046        13.0935        22.7990        99.6293       112.4936         1.8908        84.9927         3.9948        22.1970        32.4292        23.8257        66.8541         4.5362         4.2766         0.0494         2.5107     
 3023.0000        77.7206        11.4976        13.0935        23.2201       103.2024       112.9303         1.8523        84.9149         4.3453        23.5415        29.5761        25.2733        66.6796         4.7059         4.3052         0.0629         2.5040     
 3023.5000        76.9863        11.4939        13.0935        22.6999       103.7416       113.7314         1.6457        79.6737         4.4059        25.2563        29.9365        27.1162        66.6817         4.3318         4.9808         0.0403         2.5155     
 3024.0000        76.2854        11.4928        13.0935        22.4504       102.2198       115.2680         1.3553        71.6639         4.1290        26.9359        28.5594        28.8876        66.7665         3.9830         5.9365         0.0142         2.5299     
 3024.5000        75.6501        11.4935        13.0935        22.7195       102.9540       118.8344         1.2517        69.9258         3.7515        28.5068        25.6901        30.4065        66.6887         4.1548         6.4313         0.0169         2.5346     
 3025.0000        75.7171        11.4944        13.0935        23.1159       107.2115       122.9776         1.3247        72.9370         3.4500        30.3394        25.9018        32.0102        66.4287         4.3559         6.6655         0.0262         2.5299     
 3025.5000        76.9139        11.4946        13.0935        23.9667       111.9948       126.0477         1.4430        74.5692         3.2945        33.7953        29.5560        35.1514        66.1877         4.4320         7.2223         0.0234         2.5202     
 3026.0000        78.2201        11.4968        13.0935        23.9275       115.2155       130.0696         1.5573        75.0196         3.2708        40.7615        34.4955        41.8097        66.0299         4.5402         8.2161         0.0211         2.5086     
 3026.5000        78.0419        11.5021        13.0935        22.0222       119.1014       135.7422         1.6125        75.9751         3.3447        50.1960        45.4247        51.5237        65.9030         4.4034         9.0297         0.0267         2.5103     
 3027.0000        75.8695        11.5100        13.0935        20.6474       123.6799       139.3176         1.4621        74.0531         3.5704        47.6360        82.2081        51.3143        65.7805         4.2243         9.2516         0.0258         2.5368     
 3027.5000        73.5648        11.5207        13.0935        20.0268       123.8384       138.5393         1.1586        66.7963         3.9028        30.1593       189.9371        34.2453        65.7671         4.1251         9.2574         0.0148         2.5736     
 3028.0000        73.9784        11.5342        13.0935        19.7476       119.7854       137.4824         1.0611        62.8861         4.0568        18.0777        95.5318        20.8931        65.9967         3.7843         9.3667         0.0100         2.5920     
 3028.5000        78.4372        11.5451        13.0935        20.1405       118.0421       141.6214         1.3844        72.2823         3.8875        12.7799        29.0927        14.8555        66.3873         3.7872         9.4559         0.0182         2.5849     
 3029.0000        85.0593        11.5481        13.0935        21.1808       122.3917       150.5225         1.7966        85.4599         3.6390        11.0141        14.3147        12.8196        66.6858         4.3337         9.5679         0.0282         2.5719     
 3029.5000        89.2925        11.5463        13.0935        21.0619       128.2649       154.8681         2.0415        93.9830         3.5159        11.3490        10.5924        13.1620        66.7775         4.7587         9.2100         0.0335         2.5701     
