~Version Information Section
VERS.          2.0                                     : CWLS LOG ASCII Standard
WRAP.          NO                                      : One line per depth step
CREA.          27/11/15                                : LAS Creation Date
~Well Information Section
STRT.ft        2700.0000                               : Start Depth
STOP.ft        3300.0000                               : Stop Depth
STEP.ft        0.5000                                  : Step
NULL.          -999.2500                               : Null Value
COMP.          TEXACO                                  : Company
WELL.          13/22a-3                                : Well
FLD .          CAPTAIN                                 : Field
LOC .          MORAY FIRTH                             : Location
LOC1.          X= 575615.47 Y= 6462274.775             : Location (UTM)
CTRY.          UK                                      : Country
PROV.          UKCS                                    : Province
UWI .          10446                                   : UWI Number
API .                                                  : API Number
SECT.                                                  : Section
TOWN.                                                  : Township
RNGE.                                                  : Range
PDAT.          MSL                                     : Perm Datum
EPD .ft        0.00                                    : Elevation
LMF .          RKB                                     : Log Measured From
DMF .          RKB                                     : Drill Measured From
APD .ft        83.00                                   : Above Perm Datum
EKB .ft        83.00                                   : Elev-Kelly Bushing
EDF .          -                                       : Elev-Drill Floor
EGL .ft        -367.00                                 : Elev-Ground Level (Water Depth)
TDD .ft        3400.00                                 : Total Depth (Driller)
SRVC.          ATLAS WIRELINE                          : Service Company
LATI.          58 17 37.11 N                           : Latitude
LONG.          01 42 36.68 W                           : Longitude
DATE.          09-27-DEC-1989                          : Logging Date
PROJ.          UKCS                                    : Project
SET .          COMP WIRE                               : Set
~Curve Information Section
DEPTH.ft                                               : Depth Curve
AC.us/ft                                               : Acoustic Travel Time
CAL.in                                                 : DLL Caliper
CALI.in                                                : ZDL Caliper
CNC.%                                                  : Compensated Neutron Porosity
GR.gAPI                                                : DLL Gamma Ray
GRS.gAPI                                               : ZDL Gamma Ray
K.                                                     : Potassium
KTH.gAPI                                               : Uranium Stripped Gamma Ray
PE.B/e                                                 : Photo-electric
RD.ohmm                                                : Deep Laterolog Resistivity
RMLL.ohmm                                              : Microlaterolog Resistivity
RS.ohmm                                                : Shallow Laterolog Resistivity
SP.mV                                                  : Spontaneous Potential
TH.ppm                                                 : Thorium
U.ppm                                                  : Uranium
ZCOR.g/cc                                              : ZDL Density Correction
ZDEN.g/cc                                              : ZDL Bulk Density
~ASCII Log Data Section
# ...
 2775.0000       124.4206        11.4107        13.2111        47.5433        54.3703        63.9659         1.6015        57.2587         3.4961         3.2760         1.6699         2.8576        65.0529         3.4980         1.2957         0.0427         2.2020     
 2775.5000       124.5030        11.4090        13.1936        46.5291        52.0908        63.8948         1.5654        56.6890         3.6659         3.1856         1.6924         2.7786        64.9209         3.6808         1.3872         0.0394         2.2129     
 2776.0000       125.5444        11.4108        13.2471        47.4013        53.0401        65.4233         1.5561        57.9528         3.6395         3.0806         1.6113         2.6600        64.5839         3.6938         1.4002         0.0400         2.2092     
 2776.5000       126.7216        11.4132        13.3055        49.1927        57.1205        67.8552         1.5561        60.2331         3.5072         3.0280         1.4784         2.6005        64.4755         3.7799         1.3788         0.0437         2.1959     
 2777.0000       127.7937        11.4146        13.2910        50.2681        59.5391        70.3470         1.6307        62.4029         3.3756         3.0113         1.3417         2.6006        64.6164         3.7575         1.4435         0.0536         2.1835     
 2777.5000       128.4469        11.4180        13.3059        49.9802        58.0574        72.1102         1.7213        62.9709         3.2899         2.9798         1.2573         2.6042        64.7780         3.5715         1.7150         0.0650         2.1787     
 2778.0000       128.7802        11.4233        13.2788        49.6278        56.5036        72.5540         1.6534        60.6666         3.2879         2.8864         1.2222         2.5548        64.7803         3.4515         2.2257         0.0683         2.1789     
 2778.5000       128.6879        11.4253        13.2792        50.4667        57.5518        72.5213         1.4632        57.9857         3.3342         2.7523         1.1902         2.4484        64.5667         3.8632         2.5982         0.0652         2.1734     
 2779.0000       127.4181        11.4255        13.3055        52.2822        59.2839        73.4743         1.4444        60.3655         3.3547         2.6639         1.1481         2.3703        64.2477         4.8537         2.3092         0.0626         2.1570     
 2779.5000       125.2802        11.4279        13.3159        53.8661        60.3016        75.2112         1.5978        65.8561         3.3543         2.6695         1.1475         2.3875        64.0996         5.7072         1.6895         0.0716         2.1461     
 2780.0000       124.2025        11.4319        13.3682        53.7980        60.6507        75.4166         1.6519        67.3066         3.3616         2.7052         1.2266         2.4188        64.2083         5.8140         1.4776         0.0959         2.1539     
 2780.5000       125.4322        11.4343        13.3440        52.1199        59.8007        72.9273         1.5910        64.5523         3.4451         2.6500         1.3629         2.3444        64.3911         5.3552         1.5200         0.1163         2.1646     
 2781.0000       128.0138        11.4352        13.3036        50.5945        58.3964        69.8212         1.5992        61.8513         3.5770         2.4611         1.4358         2.1567        64.5008         4.5825         1.4776         0.1124         2.1697     
 2781.5000       130.5119        11.4333        13.3065        50.5905        57.7004        69.3753         1.7004        62.1425         3.6150         2.2343         1.3788         1.9560        64.4629         4.0593         1.3825         0.0935         2.1634     
 2782.0000       132.2673        11.4340        13.3062        51.7063        58.1883        71.4813         1.7714        64.9125         3.4874         2.0881         1.2854         1.8303        64.2356         4.4376         1.2604         0.0809         2.1484     
 2782.5000       132.3140        11.4721        13.3062        52.7385        59.1069        74.0319         1.7446        66.7214         3.3107         2.0747         1.2349         1.8160        64.0857         4.9907         1.3703         0.0766         2.1364     
 2783.0000       130.3621        11.5727        13.3062        53.1873        60.5504        76.0615         1.6602        66.1246         3.2089         2.2002         1.2007         1.9235        64.3584         5.2775         1.8192         0.0729         2.1309     
 2783.5000       127.7853        11.6627        13.3062        53.2284        62.3847        77.5026         1.5157        64.7956         3.1824         2.4506         1.1141         2.1654        64.7419         5.5834         2.2255         0.0714         2.1329     
 2784.0000       125.5320        11.6388        13.3065        52.6838        63.3676        76.7337         1.4056        63.7521         3.1995         2.7577         1.0475         2.4940        64.6104         5.4761         2.1663         0.0769         2.1459     
 2784.5000       123.4010        11.5323        13.3072        50.9551        61.5342        73.1913         1.4520        63.3942         3.2644         2.9977         1.1308         2.7339        64.1407         4.4992         1.6293         0.0849         2.1651     
 2785.0000       122.3220        11.4546        13.3217        48.5282        57.4906        68.8989         1.5772        62.8542         3.3744         3.1199         1.3761         2.7990        64.0794         3.7127         1.0576         0.0845         2.1834     
 2785.5000       124.1858        11.4370        13.3032        46.6241        54.6094        65.9593         1.6116        59.4694         3.4715         3.1447         1.5522         2.7690        64.4824         3.2260         1.2024         0.0852         2.1944     
 2786.0000       128.5778        11.4379        13.4375        45.2443        53.3241        64.0534         1.5624        55.4272         3.4954         3.0982         1.5258         2.7441        64.7344         2.7674         1.6407         0.0974         2.1945     
 2786.5000       132.1083        11.4379        13.6526        43.7987        51.6175        61.8482         1.5113        53.6786         3.4993         2.9710         1.4585         2.6846        64.6373         2.8142         1.5601         0.1062         2.1950     
 2787.0000       132.4772        11.4334        13.4942        43.7789        49.9287        59.4713         1.4573        52.9350         3.5940         2.7079         1.4520         2.4771        64.4742         3.0578         1.2369         0.0949         2.2023     
 2787.5000       130.6910        11.4241        13.2476        46.4970        50.4818        58.1563         1.3375        50.9524         3.7277         2.3500         1.4752         2.1569        64.3298         2.9147         1.3058         0.0697         2.1967     
 2788.0000       128.8417        11.4114        13.2414        49.9541        53.3831        59.6373         1.2440        51.4459         3.6895         2.0325         1.3746         1.8865        64.0576         3.2609         1.4016         0.0507         2.1730     
 2788.5000       129.0551        11.4025        13.2799        53.7980        56.7486        64.1844         1.3576        59.2271         3.4148         1.8386         1.1882         1.7355        63.7409         5.0251         0.8515         0.0447         2.1425     
 2789.0000       131.3927        11.4009        13.3174        56.6755        59.2890        69.6864         1.5724        69.3581         3.1286         1.7721         1.0735         1.6794        63.6078         6.9871         0.2930         0.0458         2.1137     
 2789.5000       133.1545        11.4019        13.3408        57.8325        61.0923        73.3018         1.6208        72.3033         3.0255         1.8001         1.0427         1.7006        63.6485         7.1882         0.2964         0.0466         2.0969     
