~Version Information Section
VERS.          2.0                                     : CWLS LOG ASCII Standard
WRAP.          NO                                      : One line per depth step
CREA.          27/11/15                                : LAS Creation Date
~Well Information Section
STRT.ft        2700.0000                               : Start Depth
STOP.ft        3300.0000                               : Stop Depth
STEP.ft        0.5000                                  : Step
NULL.          -999.2500                               : Null Value
COMP.          TEXACO                                  : Company
WELL.          13/22a-3                                : Well
FLD .          CAPTAIN                                 : Field
LOC .          MORAY FIRTH                             : Location
LOC1.          X= 575615.47 Y= 6462274.775             : Location (UTM)
CTRY.          UK                                      : Country
PROV.          UKCS                                    : Province
UWI .          10446                                   : UWI Number
API .                                                  : API Number
SECT.                                                  : Section
TOWN.                                                  : Township
RNGE.                                                  : Range
PDAT.          MSL                                     : Perm Datum
EPD .ft        0.00                                    : Elevation
LMF .          RKB                                     : Log Measured From
DMF .          RKB                                     : Drill Measured From
APD .ft        83.00                                   : Above Perm Datum
EKB .ft        83.00                                   : Elev-Kelly Bushing
EDF .          -                                       : Elev-Drill Floor
EGL .ft        -367.00                                 : Elev-Ground Level (Water Depth)
TDD .ft        3400.00                                 : Total Depth (Driller)
SRVC.          ATLAS WIRELINE                          : Service Company
LATI.          58 17 37.11 N                           : Latitude
LONG.          01 42 36.68 W                           : Longitude
DATE.          09-27-DEC-1989                          : Logging Date
PROJ.          UKCS                                    : Project
SET .          COMP WIRE                               : Set
~Curve Information Section
DEPTH.ft                                               : Depth Curve
AC.us/ft                                               : Acoustic Travel Time
CAL.in                                                 : DLL Caliper
CALI.in                                                : ZDL Caliper
CNC.%                                                  : Compensated Neutron Porosity
GR.gAPI                                                : DLL Gamma Ray
GRS.gAPI                                               : ZDL Gamma Ray
K.                                                     : Potassium
KTH.gAPI                                               : Uranium Stripped Gamma Ray
PE.B/e                                                 : Photo-electric
RD.ohmm                                                : Deep Laterolog Resistivity
RMLL.ohmm                                              : Microlaterolog Resistivity
RS.ohmm                                                : Shallow Laterolog Resistivity
SP.mV                                                  : Spontaneous Potential
TH.ppm                                                 : Thorium
U.ppm                                                  : Uranium
ZCOR.g/cc                                              : ZDL Density Correction
ZDEN.g/cc                                              : ZDL Bulk Density
~ASCII Log Data Section
# ...
 2820.0000       123.4997        12.3398        15.5165        59.6565        53.6026        63.4631         1.2423        53.1443         3.2627         2.5480         0.8962         2.3380        64.6124         4.2092         1.7784         0.0834         2.1671     
 2820.5000       121.5000        12.4412        15.4680        59.1626        52.6994        61.2773         1.3230        52.6656         3.3143         2.6834         0.8654         2.4643        64.3974         3.6685         1.5435         0.0767         2.1771     
 2821.0000       118.7492        12.4503        15.1989        58.4818        50.5915        59.7602         1.5022        53.5775         3.2978         2.8180         0.8065         2.5779        64.2362         3.0771         1.1883         0.0799         2.1853     
 2821.5000       116.9869        12.5556        15.0664        57.4874        49.6632        57.9805         1.6095        52.2746         3.3045         2.8922         0.7608         2.6415        64.0987         2.4935         1.1703         0.1096         2.1873     
 2822.0000       117.2093        12.7190        15.1734        56.2279        50.0710        56.5258         1.5974        50.9434         3.4015         2.8799         0.7520         2.6446        64.0805         2.3173         1.1594         0.1297         2.1869     
 2822.5000       118.7807        12.6536        15.1351        55.0259        50.7876        56.8482         1.5405        52.1548         3.4550         2.7897         0.7730         2.5907        64.3045         2.8479         0.9396         0.1124         2.1931     
 2823.0000       120.4121        12.3941        15.2920        53.7396        51.4702        59.0787         1.5509        55.4513         3.3780         2.6663         0.8286         2.5088        64.6914         3.6093         0.7064         0.0811         2.2050     
 2823.5000       121.5459        12.3460        14.7636        53.2139        52.3217        62.4797         1.6252        58.1101         3.2776         2.5678         0.8515         2.4493        65.0438         3.8634         0.8532         0.0711         2.2221     
 2824.0000       122.2409        12.6658        14.5111        54.0115        52.8303        64.9545         1.6048        58.1384         3.2399         2.5308         0.8327         2.4353        65.2823         3.6926         1.3081         0.0798         2.2225     
 2824.5000       122.4111        13.0148        15.2477        54.5593        52.4263        65.0858         1.4669        55.9526         3.2234         2.5654         0.8167         2.4667        65.4982         3.3803         1.6650         0.0934         2.2110     
 2825.0000       122.2270        13.1254        15.5776        53.6710        51.0879        63.1992         1.2819        52.9593         3.2549         2.6630         0.7785         2.5479        65.6853         3.2607         1.7464         0.1013         2.2035     
 2825.5000       122.8303        13.2366        15.6379        51.6625        49.4645        60.3120         1.1200        50.2089         3.3639         2.7956         0.7443         2.6704        65.7790         3.3946         1.6304         0.1003         2.2078     
 2826.0000       124.8110        13.4718        16.2630        50.8482        47.3006        57.1333         1.0653        48.8908         3.4839         2.9189         0.7663         2.7910        65.7724         3.3506         1.3073         0.1000         2.2141     
 2826.5000       126.8843        13.4893        16.6812        51.7255        44.8787        54.7295         1.2019        49.5590         3.5857         3.0099         0.8249         2.8756        65.6650         3.0713         0.8841         0.1038         2.2105     
 2827.0000       126.5818        13.2017        16.6490        51.4123        43.8021        54.1660         1.4385        51.0991         3.6552         3.1042         0.8692         2.9559        65.4875         3.1351         0.5962         0.1112         2.2049     
 2827.5000       122.3852        12.9813        16.2565        49.1479        44.4982        54.5710         1.5321        51.3782         3.6275         3.2849         0.9371         3.1134        65.3876         3.2573         0.6555         0.1326         2.2119     
 2828.0000       115.4568        12.9222        15.5265        46.0178        45.5459        55.0794         1.3647        49.5952         3.5146         3.6652         1.0205         3.4472        65.5015         2.8951         1.0387         0.1670         2.2249     
 2828.5000       109.6081        12.7423        15.2604        42.5826        46.8774        56.5333         1.2221        48.2903         3.4381         4.3618         1.0772         4.0444        65.7744         2.4142         1.4240         0.1818         2.2426     
 2829.0000       108.3325        12.3941        15.0193        38.9929        48.1449        58.6817         1.2954        48.8666         3.4650         5.3994         1.2055         4.9170        65.9991         2.1398         1.7436         0.1578         2.2644     
 2829.5000       110.8029        12.0514        14.0659        35.2368        48.6349        59.5900         1.4313        50.1830         3.5809         6.4711         1.6259         5.8128        66.1356         2.0219         1.7731         0.1199         2.2703     
 2830.0000       113.6711        11.7848        13.3750        31.6782        49.7949        60.7795         1.5324        53.1412         3.7946         6.9741         2.5317         6.2444        66.3536         2.0164         1.4474         0.1009         2.2626     
 2830.5000       115.6527        11.5721        13.1696        29.5152        55.2932        67.7700         1.7675        61.1442         4.0119         6.7413         3.3297         6.0595        66.6828         2.3757         1.2608         0.0868         2.2349     
 2831.0000       117.4736        11.4392        13.1022        28.6077        65.1653        81.1277         2.1660        73.4753         4.0043         6.2747         3.5560         5.6476        66.9758         3.2077         1.4969         0.0571         2.1969     
 2831.5000       118.7438        11.3937        13.0921        28.0369        75.4300        93.4319         2.4807        85.2540         3.7983         6.0361         3.5946         5.4085        67.1791         4.4015         1.6059         0.0306         2.1790     
 2832.0000       119.3937        11.3895        13.0917        28.1135        82.4945        99.4870         2.6170        93.1812         3.6617         6.1725         3.2709         5.4886        67.3477         5.6855         1.2225         0.0244         2.1853     
 2832.5000       119.4559        11.3982        13.1033        28.1910        87.2869       102.5356         2.6966        98.1357         3.6160         6.6132         3.1796         5.8427        67.5144         6.6005         0.8474         0.0233         2.1853     
 2833.0000       118.6836        11.4170        13.1349        27.4561        91.4920       106.2959         2.8112       100.3142         3.5225         7.0928         3.6668         6.2525        67.6735         6.5401         1.1671         0.0172         2.1709     
 2833.5000       118.6907        11.4656        13.2107        27.1659        96.1643       110.7093         2.9170       100.4174         3.4368         7.2945         4.4400         6.4438        67.7244         5.9621         2.0488         0.0141         2.1598     
 2834.0000       121.6436        11.5857        13.2958        28.9152       102.5457       116.4496         2.9034       100.7008         3.4582         7.1380         4.2488         6.3553        67.6008         5.8909         3.1091         0.0255         2.1748     
 2834.5000       125.8562        11.7388        13.3182        32.0412       109.2908       124.0005         2.7309       101.3968         3.4898         6.7779         2.3165         6.1110        67.4057         6.2911         4.2331         0.0562         2.2156     
