~Version Information Section
VERS.          2.0                                     : CWLS LOG ASCII Standard
WRAP.          NO                                      : One line per depth step
CREA.          27/11/15                                : LAS Creation Date
~Well Information Section
STRT.ft        2700.0000                               : Start Depth
STOP.ft        3300.0000                               : Stop Depth
STEP.ft        0.5000                                  : Step
NULL.          -999.2500                               : Null Value
COMP.          TEXACO                                  : Company
WELL.          13/22a-3                                : Well
FLD .          CAPTAIN                                 : Field
LOC .          MORAY FIRTH                             : Location
LOC1.          X= 575615.47 Y= 6462274.775             : Location (UTM)
CTRY.          UK                                      : Country
PROV.          UKCS                                    : Province
UWI .          10446                                   : UWI Number
API .                                                  : API Number
SECT.                                                  : Section
TOWN.                                                  : Township
RNGE.                                                  : Range
PDAT.          MSL                                     : Perm Datum
EPD .ft        0.00                                    : Elevation
LMF .          RKB                                     : Log Measured From
DMF .          RKB                                     : Drill Measured From
APD .ft        83.00                                   : Above Perm Datum
EKB .ft        83.00                                   : Elev-Kelly Bushing
EDF .          -                                       : Elev-Drill Floor
EGL .ft        -367.00                                 : Elev-Ground Level (Water Depth)
TDD .ft        3400.00                                 : Total Depth (Driller)
SRVC.          ATLAS WIRELINE                          : Service Company
LATI.          58 17 37.11 N                           : Latitude
LONG.          01 42 36.68 W                           : Longitude
DATE.          09-27-DEC-1989                          : Logging Date
PROJ.          UKCS                                    : Project
SET .          COMP WIRE                               : Set
~Curve Information Section
DEPTH.ft                                               : Depth Curve
AC.us/ft                                               : Acoustic Travel Time
CAL.in                                                 : DLL Caliper
CALI.in                                                : ZDL Caliper
CNC.%                                                  : Compensated Neutron Porosity
GR.gAPI                                                : DLL Gamma Ray
GRS.gAPI                                               : ZDL Gamma Ray
K.                                                     : Potassium
KTH.gAPI                                               : Uranium Stripped Gamma Ray
PE.B/e                                                 : Photo-electric
RD.ohmm                                                : Deep Laterolog Resistivity
RMLL.ohmm                                              : Microlaterolog Resistivity
RS.ohmm                                                : Shallow Laterolog Resistivity
SP.mV                                                  : Spontaneous Potential
TH.ppm                                                 : Thorium
U.ppm                                                  : Uranium
ZCOR.g/cc                                              : ZDL Density Correction
ZDEN.g/cc                                              : ZDL Bulk Density
~ASCII Log Data Section
# ...
 3090.0000        84.6971        11.5037        13.0935        21.2439        72.6902        83.4418         2.6243        76.7999         3.2241        12.7249        12.1103        13.4016        65.3097         3.3140         1.4868         0.0337         2.5702     
 3090.5000        82.4080        11.5035        13.0935        19.2651        68.3199        79.2667         2.3724        70.8053         3.1316        13.7780        13.4684        14.5334        65.2810         2.8515         1.8506         0.0397         2.5717     
 3091.0000        79.9672        11.5010        13.0935        18.3027        62.0956        75.3616         2.1451        68.4285         2.9733        13.7409        16.1102        14.6259        65.0523         3.1044         1.4393         0.0382         2.5727     
 3091.5000        79.0863        11.4990        13.0935        19.1610        57.9800        74.9966         2.0967        70.4235         2.8450        12.6480        17.9422        13.5947        64.9192         3.4006         0.9108         0.0308         2.5727     
 3092.0000        80.2601        11.5003        13.0935        21.6726        59.4260        79.2316         2.1842        75.2626         2.9104        11.3183        15.0810        12.2449        65.0218         3.9744         0.7794         0.0236         2.5702     
 3092.5000        82.9922        11.5037        13.0935        24.9382        65.2150        85.0424         2.3891        81.2082         3.1461        10.1428        12.1611        11.0153        65.2363         4.9873         0.7749         0.0209         2.5655     
 3093.0000        86.7389        11.5055        13.0935        27.1587        71.1134        88.9157         2.6066        85.4059         3.3489         9.2905        11.4810        10.0977        65.4762         5.6795         0.7397         0.0232         2.5606     
 3093.5000        90.2823        11.5048        13.0935        28.3461        73.4187        91.2312         2.7209        87.4723         3.4143         8.8661        11.0485         9.6328        65.6616         5.7979         0.8052         0.0274         2.5567     
 3094.0000        92.1654        11.5048        13.0917        28.2416        72.1364        92.7160         2.7291        88.3754         3.4259         8.8184         9.9231         9.5911        65.6535         5.7763         0.9223         0.0285         2.5535     
 3094.5000        92.2959        11.5060        13.1043        26.8725        70.7332        91.8290         2.6574        86.7705         3.4038         9.1267         9.6191         9.9311        65.5371         5.2316         1.0571         0.0259         2.5515     
 3095.0000        91.0954        11.5073        13.1285        25.2820        70.5684        88.9270         2.5885        82.8312         3.2855         9.8567        10.4817        10.7202        65.5786         3.9834         1.2683         0.0250         2.5510     
 3095.5000        88.4911        11.5093        13.1043        23.6801        69.6854        85.2270         2.4963        78.0416         3.1742        10.7862        11.3866        11.7756        65.7644         3.0558         1.5022         0.0297         2.5528     
 3096.0000        85.0912        11.5091        13.0917        22.2919        67.4019        80.6049         2.3474        73.2404         3.1604        11.2470        12.5209        12.3896        65.8907         2.7120         1.5365         0.0361         2.5572     
 3096.5000        82.6706        11.5035        13.0935        21.9999        64.8111        77.1366         2.2244        71.5025         3.2037        10.8632        15.3042        12.0935        65.9388         2.7150         1.1454         0.0364         2.5600     
 3097.0000        82.7859        11.4975        13.0935        23.0448        64.0532        79.4527         2.3222        75.6759         3.2925         9.8495        15.9499        11.0864        65.9432         3.0541         0.7616         0.0334         2.5559     
 3097.5000        86.0467        11.4966        13.0935        25.9412        67.6136        87.7569         2.6233        83.2034         3.4304         8.6052        11.7630         9.7587        65.7097         3.7811         0.9504         0.0303         2.5477     
 3098.0000        91.4056        11.4981        13.0935        29.5271        73.8625        95.8270         2.8426        88.3801         3.6088         7.6263         8.9175         8.6414        65.1502         4.3254         1.5930         0.0246         2.5428     
 3098.5000        96.0869        11.4982        13.0935        30.4382        79.2081        99.5878         2.9045        89.9729         3.7686         7.2643         8.1060         8.1526        64.5830         4.4743         2.0666         0.0176         2.5426     
 3099.0000        97.5802        11.4991        13.0935        29.1754        82.9636       100.9303         3.0152        91.4537         3.8213         7.5560         8.3058         8.3582        64.4057         4.1324         2.0598         0.0205         2.5479     
 3099.5000        95.7618        11.5019        13.0935        27.3384        84.0517        99.8511         3.1422        93.0432         3.7688         8.2396         9.1993         9.0019        64.6911         3.7550         1.5001         0.0287         2.5580     
 3100.0000        92.5252        11.5043        13.0935        26.0811        80.6928        94.8734         3.0045        91.0475         3.6522         8.8045        11.3932         9.5927        65.2316         3.8676         0.8283         0.0287         2.5660     
 3100.5000        89.7716        11.5055        13.0935        26.4491        76.6041        89.2517         2.7577        87.3898         3.5351         8.8050        13.5425         9.6791        65.7233         4.3357         0.3919         0.0232         2.5673     
 3101.0000        88.8212        11.5062        13.0935        27.6462        75.7734        87.5536         2.7057        86.1441         3.5296         8.3494        12.2361         9.2745        65.8967         4.6367         0.3000         0.0218         2.5675     
 3101.5000        90.0626        11.5062        13.0935        28.9167        76.5643        89.1218         2.7274        86.6600         3.5552         7.9235         9.8048         8.8282        65.6873         4.9899         0.5245         0.0229         2.5718     
 3102.0000        92.2009        11.5048        13.0935        29.1601        76.3442        90.6079         2.6086        85.2416         3.5560         7.8252         8.8506         8.7038        65.3085         5.2789         1.1241         0.0229         2.5774     
 3102.5000        93.2307        11.5032        13.0935        28.5374        73.9122        89.9243         2.5236        82.6485         3.5564         8.0111         8.9234         8.8963        65.0230         4.9753         1.5162         0.0237         2.5790     
 3103.0000        92.5546        11.5017        13.0935        27.9877        70.7904        87.8203         2.6278        81.7626         3.5617         8.2224         9.5175         9.1209        64.9209         4.2510         1.3021         0.0241         2.5752     
 3103.5000        91.4826        11.5017        13.0935        28.3887        69.6842        87.3642         2.6989        82.9345         3.5738         8.1730        10.1022         9.0507        64.9917         4.1403         0.9595         0.0231         2.5694     
 3104.0000        91.5991        11.5026        13.0935        29.8652        70.3717        89.9629         2.6499        84.2785         3.5431         7.8117        10.2173         8.6282        65.1160         4.4585         1.1998         0.0214         2.5639     
 3104.5000        93.2335        11.5032        13.0935        31.8912        71.5686        93.7616         2.6209        84.6946         3.5836         7.3375         9.7499         8.0649        65.1601         4.5590         1.8898         0.0235         2.5588     
