~Version Information Section
VERS.          2.0                                     : CWLS LOG ASCII Standard
WRAP.          NO                                      : One line per depth step
CREA.          04/05/16                                : LAS Creation Date
~Well Information Section
STRT.ft        3300.000                                : Start Depth
STOP.ft        3900.0000                               : Stop Depth
STEP.ft        0.5000                                  : Step
NULL.          -999.2500                               : Null Value
COMP.          709                                     : Company
WELL.          13/22a-7                                : Well
FLD .          CAPTAIN                                 : Field
LOC .                                                  : Location
LOC1.                                                  : Location 1
CTRY.          UK                                      : Country
STAT.          INNER MORAY FIRTH                       : State
CNTY.          UKCS                                    : County
UWI .          10764                                   : UWI Number
API .                                                  : API Number
SECT.                                                  : Section
TOWN.                                                  : Township
RNGE.                                                  : Range
PDAT.          MSL                                     : Perm Datum
EPD .ft        82                                      : Elevation
LMF .          RKB                                     : Log Measured From
DMF .          RKB                                     : Drill Measured From
APD .ft        0                                       : Above Perm Datum
EKB .ft        82                                      : Elev-Kelly Bushing
EDF .ft        81                                      : Elev-Drill Floor
EGL .ft        -352                                    : Elev-Ground Level
SRVC.         SCHLUMBERGER                             : Service Company
DATE .        12/05/1990                               : Completion Date
LAT .         58 18 34.15 N                            : Latitude
LONG.         01 44 41.13 W                            : Longitude
TOOL.	      COMP WIRE                                : Tool
~Curve Information Section
DEPTH.ft                                                  : Depth Curve
CALI.in                                                : Caliper
CALS.in                                                : Sonic Caliper
CGR.gAPI                                               : Computed Gamma Ray From Thorium, Uranium, And Potassium
DRHO.g/cc                                              : Delta Rho
DTLF.us/ft                                             : Delta-T Long Spacing Far
DTLN.us/ft                                             : Delta-T Long Spacing Near
GR.gAPI                                                : Gamma Ray
LLD.Ohmm                                               : Latero-Log Deep (Resistivity)
LLS.Ohmm                                               : Latero-Log Shallow (Resistivity)
MSFL.Ohmm                                              : Msfl Resistivity
NPHI.%                                                 : Neutron Porosity
PEF.B/e                                                : Photo-Electric Factor
POTA.ppm                                               : Potassium
RHOB.g/cc                                              : Bulk Density
SGR.gAPI                                               : Spectroscopy Gamma-Ray
SP.mV                                                  : Spontaneous Potential
THOR.ppm                                               : Thorium
URAN.ppm                                               : Uranium
~ASCII Log Data Section
# ...
 3692.0000        12.5469        12.5625        82.5469         0.0027       102.9253       103.8754       107.7500         6.4693         5.7916         7.8039        31.3139         3.0713         0.0261         2.2397       116.7575      -999.2500        13.8364         4.9395     
 3692.5000        12.5469        12.5625        84.0095         0.0007       103.6875       104.8248       105.0000         6.6017         5.8891         8.8584        31.2686         3.0702         0.0266         2.2298       118.6886      -999.2500        14.0713         5.0071     
 3693.0000        12.5469        12.5625        86.8556        -0.0005       105.4003       105.9254       109.8125         6.4853         5.7918         7.6958        32.8246         3.0204         0.0274         2.2141       122.4582      -999.2500        14.5906         5.1404     
 3693.5000        12.5469        12.5625        87.6953        -0.0020       107.5120       108.1371       115.4375         6.1067         5.4577         6.8552        33.7828         2.9567         0.0277         2.1978       125.0905      -999.2500        14.7482         5.3993     
 3694.0000        12.5469        12.5625        90.0799        -0.0040       108.0622       109.3495       122.8750         5.6906         5.0997         6.8306        33.4264         2.9604         0.0283         2.1865       127.8640      -999.2500        15.1870         5.4554     
 3694.5000        12.5469        12.5625        90.3799        -0.0043       108.5001       108.9251       119.4375         5.5885         4.9750         6.5161        34.1398         3.0058         0.0285         2.1852       128.4751      -999.2500        15.2121         5.5003     
 3695.0000        12.5469        12.5625        90.8914        -0.0035       107.9751       108.4502       115.8750         5.6118         5.0015         6.4066        34.5296         2.9841         0.0286         2.1872       128.7762      -999.2500        15.3158         5.4700     
 3695.5000        12.5508        12.5625        89.5042        -0.0034       108.2500       108.3125       114.3125         5.5981         5.0025         6.7413        36.2021         2.9708         0.0279         2.1892       125.8252      -999.2500        15.1913         5.2442     
 3696.0000        12.5587        12.5625        88.9567        -0.0044       108.2629       108.1879       115.3125         5.5948         5.0583         6.4479        38.5304         3.0403         0.0278         2.2011       124.3588      -999.2500        15.0667         5.1115     
 3696.5000        12.5465        12.5625        94.6304        -0.0047       106.9994       107.0369       116.5000         5.8012         5.2559         6.4019        37.9113         3.1623         0.0300         2.2317       132.9987      -999.2500        15.8425         5.5398     
 3697.0000        12.5233        12.5625        94.4674        -0.0042       103.4253       103.7252       111.6250         6.2226         5.6338         6.7700        35.4429         3.1888         0.0301         2.2639       134.0938      -999.2500        15.7368         5.7214     
 3697.5000        12.4996        12.5625        86.9954        -0.0035       100.9113       101.0867       108.3125         6.7247         6.0312         8.7630        31.3965         3.0850         0.0272         2.2671       123.9542      -999.2500        14.7140         5.3363     
 3698.0000        12.4924        12.5625        85.1625        -0.0033        99.7254       100.6629       104.5000         7.0122         6.2783        10.0162        29.4590         2.9886         0.0266         2.2409       121.7045      -999.2500        14.4319         5.2761     
 3698.5000        12.5000        12.5625        85.6337        -0.0013       101.3644       102.7142       104.6250         6.8981         6.2124         8.5411        32.3776         2.9719         0.0268         2.2204       122.1320      -999.2500        14.4894         5.2698     
 3699.0000        12.5363        12.5625        86.3645         0.0018       104.0255       104.9503       105.3750         6.3976         5.7627         6.7917        36.8425         3.0309         0.0272         2.2320       123.3301      -999.2500        14.5263         5.3373     
 3699.5000        12.5582        12.5618        84.9802         0.0043       104.2745       105.2620       107.8750         6.0200         5.4453         6.4032        38.1223         3.1003         0.0268         2.2670       121.1658      -999.2500        14.2812         5.2246     
 3700.0000        12.5428        12.5323        83.3636         0.0038       102.2247       102.7997       105.5625         6.0093         5.4313         6.3192        35.2187         3.1961         0.0262         2.3010       118.3971      -999.2500        14.0397         5.0583     
 3700.5000        12.5431        12.5469        82.2707         0.0009       100.1001       100.6001       105.0000         6.1581         5.5264         7.5044        31.2345         3.2868         0.0258         2.3193       116.4112      -999.2500        13.9094         4.9294     
 3701.0000        12.5225        12.5620        77.0519        -0.0014        98.7625        99.2250       101.9375         6.4100         5.7356         7.9958        29.4165         3.3444         0.0233         2.3283       107.7975      -999.2500        13.3748         4.4392     
 3701.5000        12.4633        12.5547        81.7922        -0.0019        98.6750        98.9375       104.4375         6.7072         5.9863         6.4230        29.1451         3.3116         0.0253         2.3273       114.9904      -999.2500        13.9902         4.7933     
 3702.0000        12.4256        12.5472        82.0727        -0.0018        99.8001       100.1126       105.9375         6.8902         6.1489         7.8770        29.0626         3.2858         0.0254         2.3121       115.3921      -999.2500        14.0227         4.8108     
 3702.5000        12.4178        12.5547        81.5250        -0.0018       101.1999       101.1624       106.5000         6.9022         6.1686         8.2627        30.1640         3.3224         0.0252         2.2930       115.0113      -999.2500        13.9499         4.8349     
 3703.0000        12.4100        12.5623        83.8294        -0.0010       103.2751       103.1002       105.6875         6.8537         6.1812         7.3713        32.2809         3.3335         0.0260         2.2826       118.3862      -999.2500        14.3047         4.9895     
 3703.5000        12.4063        12.5625        84.0391         0.0005       105.4009       104.9628       105.3750         6.6029         6.0260         7.1681        34.0857         3.3634         0.0260         2.2896       119.8005      -999.2500        14.3569         5.1634     
 3704.0000        12.4063        12.5623        86.3069         0.0012       104.5125       105.1254       111.5000         6.2916         5.7473         6.7171        34.3012         3.3674         0.0267         2.3070       123.8824      -999.2500        14.7412         5.4253     
 3704.5000        12.4063        12.5551        89.9712         0.0005       102.7249       103.4376       114.7500         6.2069         5.6860         6.5654        33.2565         3.3463         0.0275         2.3230       130.6996      -999.2500        15.4987         5.8805     
 3705.0000        12.4063        12.5623        90.8949        -0.0017       101.5499       101.6624       117.5000         6.3002         5.7847         6.7636        31.9015         3.2903         0.0276         2.3259       132.7772      -999.2500        15.7286         6.0471     
 3705.5000        12.4063        12.5625        91.3781        -0.0050       100.2001        99.9124       116.0625         6.4473         5.9147         8.0115        30.9057         3.2378         0.0277         2.3175       134.0639      -999.2500        15.8431         6.1632     
