~Version Information Section
VERS.          2.0                                     : CWLS LOG ASCII Standard
WRAP.          NO                                      : One line per depth step
CREA.          04/05/16                                : LAS Creation Date
~Well Information Section
STRT.ft        3300.000                                : Start Depth
STOP.ft        3900.0000                               : Stop Depth
STEP.ft        0.5000                                  : Step
NULL.          -999.2500                               : Null Value
COMP.          709                                     : Company
WELL.          13/22a-7                                : Well
FLD .          CAPTAIN                                 : Field
LOC .                                                  : Location
LOC1.                                                  : Location 1
CTRY.          UK                                      : Country
STAT.          INNER MORAY FIRTH                       : State
CNTY.          UKCS                                    : County
UWI .          10764                                   : UWI Number
API .                                                  : API Number
SECT.                                                  : Section
TOWN.                                                  : Township
RNGE.                                                  : Range
PDAT.          MSL                                     : Perm Datum
EPD .ft        82                                      : Elevation
LMF .          RKB                                     : Log Measured From
DMF .          RKB                                     : Drill Measured From
APD .ft        0                                       : Above Perm Datum
EKB .ft        82                                      : Elev-Kelly Bushing
EDF .ft        81                                      : Elev-Drill Floor
EGL .ft        -352                                    : Elev-Ground Level
SRVC.         SCHLUMBERGER                             : Service Company
DATE .        12/05/1990                               : Completion Date
LAT .         58 18 34.15 N                            : Latitude
LONG.         01 44 41.13 W                            : Longitude
TOOL.	      COMP WIRE                                : Tool
~Curve Information Section
DEPTH.ft                                                  : Depth Curve
CALI.in                                                : Caliper
CALS.in                                                : Sonic Caliper
CGR.gAPI                                               : Computed Gamma Ray From Thorium, Uranium, And Potassium
DRHO.g/cc                                              : Delta Rho
DTLF.us/ft                                             : Delta-T Long Spacing Far
DTLN.us/ft                                             : Delta-T Long Spacing Near
GR.gAPI                                                : Gamma Ray
LLD.Ohmm                                               : Latero-Log Deep (Resistivity)
LLS.Ohmm                                               : Latero-Log Shallow (Resistivity)
MSFL.Ohmm                                              : Msfl Resistivity
NPHI.%                                                 : Neutron Porosity
PEF.B/e                                                : Photo-Electric Factor
POTA.ppm                                               : Potassium
RHOB.g/cc                                              : Bulk Density
SGR.gAPI                                               : Spectroscopy Gamma-Ray
SP.mV                                                  : Spontaneous Potential
THOR.ppm                                               : Thorium
URAN.ppm                                               : Uranium
~ASCII Log Data Section
# ...
 3580.0000        12.1094        12.3190        74.8180        -0.0051        95.9093        96.0520        82.6875         3.7491         3.7332         3.9702        28.3782         3.3809         0.0297         2.2422        93.5873      -999.2500         9.9530         2.7100     
 3580.5000        12.1153        12.3072        72.6067        -0.0070        96.1746        95.9035        82.2500         3.5345         3.5265         4.7653        26.3760         3.3922         0.0287         2.2466        90.4129      -999.2500         9.6779         2.5709     
 3581.0000        12.1607        12.3216        72.7032        -0.0051        95.0346        94.6696        79.9375         3.5496         3.6088         3.8012        23.0808         3.4496         0.0286         2.2819        90.9479      -999.2500         9.7889         2.6343     
 3581.5000        12.2442        12.3496        71.1765        -0.0008        91.1362        91.6812        78.6875         3.8707         3.9105         3.9659        21.5965         3.5296         0.0277         2.3181        89.0356      -999.2500         9.6817         2.5786     
 3582.0000        12.2298        12.3606        70.8986        -0.0022        90.6259        90.9745        72.3750         4.2931         4.3069         7.5553        23.2449         3.4398         0.0274         2.3104        88.8491      -999.2500         9.7515         2.5918     
 3582.5000        12.1840        12.3759        72.8547        -0.0060        91.7459        92.1946        76.3750         4.8098         4.7424        11.0967        26.1532         3.5033         0.0280         2.2654        91.9926      -999.2500        10.0694         2.7632     
 3583.0000        12.2086        12.3284        73.8285        -0.0053        94.5612        95.3172        78.8750         5.1822         5.1521         6.0608        28.0348         3.5059         0.0284         2.2351        94.1004      -999.2500        10.1978         2.9269     
 3583.5000        12.1858        12.3582        73.9797        -0.0025       100.0727        99.4363        85.5625         5.0075         4.9980         4.9753        29.0998         3.6348         0.0283         2.2265        94.4875      -999.2500        10.2901         2.9610     
 3584.0000        12.2113        12.3785        67.6546        -0.0017       102.1747       102.0454        84.1250         4.6634         4.6187         3.6560        29.9958         3.5740         0.0250         2.2237        86.2478      -999.2500         9.7712         2.6846     
 3584.5000        12.2323        12.3515        71.6851        -0.0008       102.1284       102.4298        84.6875         4.2117         4.2445         3.8148        30.1847         3.4609         0.0262         2.2182        93.6419      -999.2500        10.5177         3.1702     
 3585.0000        12.2245        12.3234        68.4053        -0.0003       102.8013       102.7803        79.4375         3.8482         3.8292         3.8765        30.0885         3.4073         0.0265         2.2186        80.4411      -999.2500         9.3885         1.7378     
 3585.5000        12.2270        12.3257        74.7915        -0.0027       102.6018       102.8514        78.0000         3.6136         3.6888         3.2748        29.7063         3.4724         0.0291         2.2314        89.3113      -999.2500        10.1938         2.0964     
 3586.0000        12.2458        12.3078        75.0036        -0.0038       100.2932       101.4817        78.7500         3.4050         3.4399         3.5205        27.5488         3.6633         0.0291         2.2676        89.2402      -999.2500        10.2724         2.0555     
 3586.5000        12.2260        12.3197        75.9102        -0.0030        94.6497        97.7528        79.7500         3.4956         3.5988         4.8560        22.8402         3.7222         0.0294         2.3219        90.7154      -999.2500        10.4047         2.1376     
 3587.0000        12.2158        12.3269        74.4772        -0.0000        89.5708        90.2889        81.1250         4.1856         4.2040         3.7483        18.4860         3.7306         0.0288         2.3747        88.4100      -999.2500        10.2327         2.0117     
 3587.5000        12.2183        12.3245        76.5153         0.0016        83.9377        83.8487        77.3750         4.9862         4.9022         8.7726        18.4553         3.6475         0.0294         2.3827        91.2684      -999.2500        10.5882         2.1301     
 3588.0000        12.1264        12.3612        72.9359        -0.0015        86.8210        83.7296        76.6875         5.0737         5.0023        35.1370        22.2938         3.4797         0.0280         2.3329        85.3262      -999.2500        10.0926         1.7890     
 3588.5000        12.1094        12.3371        70.6619        -0.0061        88.0202        86.6002        79.1250         5.0699         4.9440        10.4026        26.8409         3.3751         0.0271         2.2733        81.6042      -999.2500         9.8026         1.5799     
 3589.0000        12.1308        12.3203        71.4086        -0.0070        91.3145        92.9106        77.8125         4.5192         4.4711         4.2979        29.0055         3.3236         0.0273         2.2387        82.7198      -999.2500         9.9261         1.6332     
 3589.5000        12.1939        12.3071        69.8971        -0.0063        99.6115        99.1749        76.9375         3.5742         3.5220         3.9816        29.2270         3.4058         0.0267         2.2276        80.1690      -999.2500         9.7548         1.4831     
 3590.0000        12.2174        12.3197        70.9749        -0.0043       101.4689       101.1588        72.2500         3.2539         3.2724         3.5426        29.2433         3.4194         0.0269         2.2243        81.6530      -999.2500         9.9699         1.5418     
 3590.5000        12.2387        12.3299        72.9701        -0.0010       101.3798       101.5202        76.9375         3.2981         3.2693         3.6908        29.0230         3.3905         0.0276         2.2350        84.9807      -999.2500        10.2785         1.7341     
 3591.0000        12.2500        12.3600        76.7269         0.0019       101.0911       101.8190        82.9375         3.5713         3.5144         3.7047        28.9169         3.4388         0.0287         2.2547        91.6578      -999.2500        10.9645         2.1558     
 3591.5000        12.2106        12.3961        75.8132         0.0044       101.3578       101.4594        89.5625         3.9478         3.8900         5.0016        28.1063         3.5000         0.0283         2.2672        90.2474      -999.2500        10.8418         2.0841     
 3592.0000        12.1094        12.4057        77.3002         0.0067       100.4587       100.7310        90.9375         4.3222         4.1374         5.6366        27.7641         3.5314         0.0260         2.2674       105.8723      -999.2500        12.3130         4.1254     
 3592.5000        12.1094        12.4034        78.4482         0.0051        98.7993       100.2103        93.8750         4.5140         4.3515         5.2023        28.2648         3.4432         0.0264         2.2547       107.9102      -999.2500        12.4923         4.2538     
 3593.0000        12.1094        12.3689        76.0016         0.0025       100.5116        99.8410        90.3750         4.3608         4.2081         4.4728        29.1445         3.4716         0.0256         2.2482       104.1438      -999.2500        12.0952         4.0633     
 3593.5000        12.1094        12.3527        77.3573         0.0019        99.8643        99.8308        92.1250         4.1832         4.0131         4.1471        29.9698         3.5198         0.0262         2.2447       105.9731      -999.2500        12.2356         4.1317     
