~Version Information Section
VERS.          2.0                                     : CWLS LOG ASCII Standard
WRAP.          NO                                      : One line per depth step
CREA.          27/11/15                                : LAS Creation Date
~Well Information Section
STRT.ft        3749.0000                               : Start Depth
STOP.ft        4349.0000                               : Stop Depth
STEP.ft        0.5000                                  : Step
NULL.          -999.2500                               : Null Value
COMP.          TEXACO                                  : Company
WELL.          13/22a-6                                : Well
FLD .          CAPTAIN                                 : Field
LOC .          MORAY FIRTH                             : Location
LOC1.                                                  : Location (UTM)
CTRY.          UK                                      : Country
PROV.          UKCS                                    : Province
UWI .          10763                                   : UWI Number
API .                                                  : API Number
SECT.                                                  : Section
TOWN.                                                  : Township
RNGE.                                                  : Range
PDAT.          MSL                                     : Perm Datum
EPD .ft        0.00                                    : Elevation
LMF .          RKB                                     : Log Measured From
DMF .          RKB                                     : Drill Measured From
APD .ft        81.00                                   : Above Perm Datum
EKB .ft        81.00                                   : Elev-Kelly Bushing
EDF .ft        80.00                                   : Elev-Drill Floor
EGL .ft        -364.00                                 : Elev-Ground Level (Water Depth)
TDD .ft        4400.00                                 : Total Depth (Driller)
SRVC.          ATLAS WIRELINE                          : Service Company
LATI.          58 19 25.50 N                           : Latitude
LONG.          01 42 58.94 W                           : Longitude
DATE.          APR-MAY-1990                            : Logging Date
PROJ.          UKCS                                    : Project
SET .          COMP WIRE                               : Set
~Curve Information Section
DEPTH.ft                                               : Depth Curve
AC.us/ft                                               : Acoustic Travel Time
CAL.in                                                 : Caliper
CNC.%                                                  : Compensated Neutron Porosity
GR.gAPI                                                : DIFL Gamma Ray
GRS.gAPI                                               : SL Gamma Ray
K.                                                     : Potassium
KTH.gAPI                                               : Uranium Stripped Gamma Ray
PE.B/e                                                 : Photo-electric
RD.ohmm                                                : Deep Laterolog Resistivity
RFOC.ohmm                                              : Logarithmic Resistivity from CFOC
RILD.ohmm                                              : Deep Induction Resistivity
RILM.ohmm                                              : Medium Induction Resistivity
RMLL.ohmm                                              : Microlaterolog Resistivity
RS.ohmm                                                : Shallow Laterolog Resistivity
SP.mV                                                  : Spontaneous Potential
TH.ppm                                                 : Thorium
U.ppm                                                  : Uranium
ZCOR.g/cc                                              : ZDL Density Correction
ZDEN.g/cc                                              : ZDL Bulk Density
~ASCII Log Data Section
# ...
 4248.5000        93.9394        12.9429        30.0781        42.5019        41.2335         1.2487        35.9042         2.8326         2.0660      -999.2500      -999.2500      -999.2500         2.0808         1.8075       162.6341         3.5576         1.3322         0.0132         2.2256     
 4249.0000        94.3717        12.9429        30.1697        42.4482        43.6507         1.4283        37.2934         2.8335         2.0373      -999.2500      -999.2500      -999.2500         2.0595         1.7807       163.2504         3.1206         1.7082         0.0072         2.2204     
 4249.5000        94.7290        12.9429        29.9474        41.5301        43.1659         1.5678        38.0789         2.8273         2.0204      -999.2500      -999.2500      -999.2500         2.0424         1.7654       163.4881         3.7966         1.4809        -0.0009         2.2129     
 4250.0000        94.9241        12.9429        29.8419        40.3406        39.6549         1.5482        36.6075         2.8179         2.0239      -999.2500      -999.2500      -999.2500         2.0141         1.7587       163.2947         4.2288         0.9223        -0.0050         2.2058     
 4250.5000        95.0727        12.9429        29.9522        39.9496        36.4990         1.3600        33.7168         2.8219         2.0284      -999.2500      -999.2500      -999.2500         1.9840         1.7563       162.8603         4.1248         0.8091        -0.0009         2.2025     
 4251.0000        95.3086        12.9429        30.0214        40.1560        35.8625         1.1287        31.8768         2.8313         2.0210      -999.2500      -999.2500      -999.2500         1.9629         1.7514       162.3682         4.0332         1.0397         0.0075         2.2032     
 4251.5000        95.4827        12.9429        29.8469        39.8183        36.5396         1.1023        32.7943         2.8334         2.0117      -999.2500      -999.2500      -999.2500         1.9468         1.7421       162.0924         3.7730         0.9211         0.0129         2.2058     
 4252.0000        95.4085        12.9429        29.3352        38.9686        37.4625         1.3249        34.5266         2.8342         2.0180      -999.2500      -999.2500      -999.2500         1.9318         1.7351       162.3320         2.8159         0.7893         0.0136         2.2078     
 4252.5000        95.1756        12.9429        28.6304        39.2809        38.5882         1.7057        35.5708         2.8363         2.0408      -999.2500      -999.2500      -999.2500         1.9188         1.7308       162.9455         1.9118         0.9761         0.0119         2.2082     
 4253.0000        94.8842        12.9429        27.9986        41.0819        38.5310         2.0498        35.8289         2.8361         2.0631      -999.2500      -999.2500      -999.2500         1.9073         1.7298       163.4418         2.0721         1.0384         0.0096         2.2082     
 4253.5000        94.5217        12.9429        27.3550        41.9281        36.2295         2.0487        34.2926         2.8381         2.0872      -999.2500      -999.2500      -999.2500         1.9005         1.7467       163.5829         3.0773         0.7928         0.0074         2.2087     
 4254.0000        94.0451        12.9429        26.6259        40.7588        33.9862         1.6989        32.0959         2.8471         2.1474      -999.2500      -999.2500      -999.2500         1.9067         1.7986       163.5677         3.4842         0.6932         0.0075         2.2103     
 4254.5000        93.2980        12.9429        26.0891        39.2560        33.9045         1.4065        30.8264         2.8582         2.2673      -999.2500      -999.2500      -999.2500         1.9321         1.8900       163.6533         2.6658         0.9711         0.0118         2.2147     
 4255.0000        92.1002        12.9429        25.8415        39.0331        34.7680         1.2933        29.7897         2.8617         2.3991      -999.2500      -999.2500      -999.2500         1.9874         1.9943       163.8162         1.4317         1.4566         0.0133         2.2220     
 4255.5000        90.5562        12.9429        25.5865        39.9471        35.0944         1.1864        29.0277         2.8558         2.4554      -999.2500      -999.2500      -999.2500         2.0794         2.0537       163.9449         1.0156         1.6596         0.0078         2.2292     
 4256.0000        88.8642        12.9429        25.2015        40.6111        35.6516         1.1228        29.9779         2.8475         2.4254      -999.2500      -999.2500      -999.2500         2.2459         2.0359       164.0499         1.3921         1.4409         0.0072         2.2374     
 4256.5000        87.1523        12.9429        24.7086        39.9144        37.1428         1.2601        32.9617         2.8371         2.3678      -999.2500      -999.2500      -999.2500         2.5460         1.9763       164.1273         1.9575         1.0927         0.0191         2.2568     
 4257.0000        85.6825        12.9429        24.0955        38.8855        38.5748         1.4708        35.4460         2.8313         2.3097      -999.2500      -999.2500      -999.2500         2.8146         1.9159       164.1741         2.5041         0.8949         0.0260         2.2918     
 4257.5000        85.0691        12.9429        23.7458        38.8818        38.6306         1.5843        35.9152         2.8923         2.2507      -999.2500      -999.2500      -999.2500         2.7276         1.8666       164.3386         2.8244         0.8275         0.0127         2.3221     
 4258.0000        85.9777        12.9429        24.1294        39.8284        37.4851         1.6921        35.3625         2.9770         2.1996      -999.2500      -999.2500      -999.2500         2.4554         1.8251       164.8166         2.8685         0.6973        -0.0062         2.3173     
 4258.5000        88.2535        12.9429        25.1267        41.3874        36.4114         1.8302        35.1583         2.9504         2.1579      -999.2500      -999.2500      -999.2500         2.1982         1.7881       165.5032         3.1302         0.4758        -0.0094         2.2778     
 4259.0000        90.9862        12.9429        26.2094        42.7066        36.5997         1.8540        36.3110         2.8065         2.1205      -999.2500      -999.2500      -999.2500         1.9916         1.7588       165.7882         4.1760         0.2931        -0.0021         2.2342     
 4259.5000        93.2937        12.9429        26.9481        42.9005        38.5978         1.7253        38.5978         2.6796         2.0944      -999.2500      -999.2500      -999.2500         1.8790         1.7385       165.2256         4.8228         0.2832         0.0030         2.2086     
 4260.0000        94.5766        12.9429        27.2713        42.5388        39.9787         1.6194        39.8070         2.6127         2.0849      -999.2500      -999.2500      -999.2500         1.8621         1.7249       164.2890         3.8667         0.2848         0.0049         2.1996     
 4260.5000        94.7169        12.9429        27.4240        42.0635        38.8874         1.5858        37.4633         2.5786         2.0842      -999.2500      -999.2500      -999.2500         1.8696         1.7154       163.7266         2.0656         0.4420         0.0068         2.1955     
 4261.0000        94.4130        12.9429        27.6027        41.3680        37.2560         1.5933        33.7076         2.5804         2.0836      -999.2500      -999.2500      -999.2500         1.8925         1.7102       163.8376         1.0560         1.1160         0.0066         2.1899     
 4261.5000        94.3031        12.9429        27.7566        40.6599        37.0449         1.6489        33.2612         2.5935         2.0792      -999.2500      -999.2500      -999.2500         1.9063         1.7085       164.6863         1.3490         1.2531         0.0020         2.1854     
