~Version Information Section
VERS.          2.0                                     : CWLS LOG ASCII Standard
WRAP.          NO                                      : One line per depth step
CREA.          27/11/15                                : LAS Creation Date
~Well Information Section
STRT.ft        3749.0000                               : Start Depth
STOP.ft        4349.0000                               : Stop Depth
STEP.ft        0.5000                                  : Step
NULL.          -999.2500                               : Null Value
COMP.          TEXACO                                  : Company
WELL.          13/22a-6                                : Well
FLD .          CAPTAIN                                 : Field
LOC .          MORAY FIRTH                             : Location
LOC1.                                                  : Location (UTM)
CTRY.          UK                                      : Country
PROV.          UKCS                                    : Province
UWI .          10763                                   : UWI Number
API .                                                  : API Number
SECT.                                                  : Section
TOWN.                                                  : Township
RNGE.                                                  : Range
PDAT.          MSL                                     : Perm Datum
EPD .ft        0.00                                    : Elevation
LMF .          RKB                                     : Log Measured From
DMF .          RKB                                     : Drill Measured From
APD .ft        81.00                                   : Above Perm Datum
EKB .ft        81.00                                   : Elev-Kelly Bushing
EDF .ft        80.00                                   : Elev-Drill Floor
EGL .ft        -364.00                                 : Elev-Ground Level (Water Depth)
TDD .ft        4400.00                                 : Total Depth (Driller)
SRVC.          ATLAS WIRELINE                          : Service Company
LATI.          58 19 25.50 N                           : Latitude
LONG.          01 42 58.94 W                           : Longitude
DATE.          APR-MAY-1990                            : Logging Date
PROJ.          UKCS                                    : Project
SET .          COMP WIRE                               : Set
~Curve Information Section
DEPTH.ft                                               : Depth Curve
AC.us/ft                                               : Acoustic Travel Time
CAL.in                                                 : Caliper
CNC.%                                                  : Compensated Neutron Porosity
GR.gAPI                                                : DIFL Gamma Ray
GRS.gAPI                                               : SL Gamma Ray
K.                                                     : Potassium
KTH.gAPI                                               : Uranium Stripped Gamma Ray
PE.B/e                                                 : Photo-electric
RD.ohmm                                                : Deep Laterolog Resistivity
RFOC.ohmm                                              : Logarithmic Resistivity from CFOC
RILD.ohmm                                              : Deep Induction Resistivity
RILM.ohmm                                              : Medium Induction Resistivity
RMLL.ohmm                                              : Microlaterolog Resistivity
RS.ohmm                                                : Shallow Laterolog Resistivity
SP.mV                                                  : Spontaneous Potential
TH.ppm                                                 : Thorium
U.ppm                                                  : Uranium
ZCOR.g/cc                                              : ZDL Density Correction
ZDEN.g/cc                                              : ZDL Bulk Density
~ASCII Log Data Section
# ...
 4140.5000        82.3244        12.9746        21.3269        91.9790        77.1418         1.8322        60.5039         3.6049        10.2430      -999.2500      -999.2500      -999.2500        13.3176        11.2005       163.0519         7.6617         3.7841        -0.0017         2.4241     
 4141.0000        81.3518        12.9527        20.9132        96.3736        80.2235         1.8123        63.9835         3.5827         9.6917      -999.2500      -999.2500      -999.2500        14.4606        10.4971       163.8592         9.3428         3.5709        -0.0023         2.4247     
 4141.5000        82.4452        12.9413        21.4240        96.3955        79.9757         1.8138        66.2168         3.5395         9.4064      -999.2500      -999.2500      -999.2500        14.3128        10.0792       164.0545         9.8012         2.9525        -0.0081         2.4161     
 4142.0000        83.9457        12.9429        22.6267        92.9583        78.5807         1.6747        65.0403         3.5148         9.5158      -999.2500      -999.2500      -999.2500        11.6753        10.0548       163.7248         8.5583         2.6924        -0.0130         2.4015     
 4142.5000        84.6557        12.9413        23.4158        92.7081        78.8416         1.5298        62.4514         3.4924         9.9256      -999.2500      -999.2500      -999.2500        10.9777        10.3490       163.2106         8.3092         3.1415        -0.0014         2.3928     
 4143.0000        84.0800        12.9527        22.9492        98.4064        80.7671         1.6688        64.0882         3.4693         9.9865      -999.2500      -999.2500      -999.2500        13.0907        10.3880       162.9806        11.1579         3.5168         0.0101         2.4010     
 4143.5000        82.4650        12.9746        22.0097       105.8947        84.2694         2.0335        68.9214         3.4659         9.2256      -999.2500      -999.2500      -999.2500        16.0289         9.6683       163.2748        13.9764         3.6913         0.0068         2.4210     
 4144.0000        81.7089        12.9511        21.8661       110.7988        88.7688         2.3061        72.3584         3.4654         8.2024      -999.2500      -999.2500      -999.2500        14.9357         8.6452       163.9198        13.4922         4.1492         0.0003         2.4342     
 4144.5000        83.2109        12.9511        22.6078       114.5814        92.1706         2.2833        73.3449         3.4577         7.4750      -999.2500      -999.2500      -999.2500        11.6900         7.8742       164.6814        12.3741         4.5772         0.0002         2.4271     
 4145.0000        86.4607        12.9746        23.5682       118.8108        92.5241         1.9948        74.2484         3.4479         7.2067      -999.2500      -999.2500      -999.2500         9.5754         7.5328       165.4438        13.9027         4.0441         0.0033         2.4046     
 4145.5000        89.8545        12.9527        24.3559       118.6497        88.7137         1.6203        73.4077         3.4316         7.5227      -999.2500      -999.2500      -999.2500         8.7650         7.7492       165.9086        15.4926         3.0070         0.0050         2.3819     
 4146.0000        91.3356        12.9413        25.1737       110.4776        80.7062         1.3699        66.8210         3.4048         8.4969      -999.2500      -999.2500      -999.2500         8.8425         8.5957       165.6970        13.7301         2.5512         0.0061         2.3696     
 4146.5000        89.8405        12.9429        25.4422        99.8467        72.6894         1.3961        59.6288         3.3692         9.7244      -999.2500      -999.2500      -999.2500        10.2257         9.7181       164.9514        10.6075         2.5600         0.0119         2.3736     
 4147.0000        86.4254        12.9429        23.7747        95.2458        71.2404         1.6542        59.0506         3.3508        10.1314      -999.2500      -999.2500      -999.2500        13.8161        10.1247       164.3910         9.4060         2.6877         0.0178         2.3965     
 4147.5000        82.9107        12.9429        20.6527        98.6160        78.1357         1.9024        63.4610         3.4233         9.5152      -999.2500      -999.2500      -999.2500        17.7077         9.5546       164.5425         9.6740         3.4095         0.0112         2.4282     
 4148.0000        80.7838        12.9413        18.5781       105.8818        88.1917         1.9452        67.8937         3.5859         8.8073      -999.2500      -999.2500      -999.2500        14.9078         8.8430       165.2114         9.8256         4.4800        -0.0026         2.4447     
 4148.5000        81.2007        12.9527        19.0954       112.3547        95.0786         1.7662        68.8748         3.6026         8.5481      -999.2500      -999.2500      -999.2500        10.8686         8.5234       165.8713        10.1035         5.2841        -0.0059         2.4336     
 4149.0000        83.7583        12.9746        21.4345       115.4840        97.3617         1.5127        64.2037         3.3976         8.7058      -999.2500      -999.2500      -999.2500         9.4127         8.6113       166.2360        10.2851         6.3668         0.0019         2.4113     
 4149.5000        86.1709        12.9527        23.4449       115.6289        97.6343         1.4394        58.4426         3.2092         8.9614      -999.2500      -999.2500      -999.2500         9.8929         8.8466       166.2919         9.5145         7.8609         0.0079         2.3998     
 4150.0000        86.8961        12.9396        24.0678       115.0358        98.6982         1.6560        60.1124         3.2159         8.9890      -999.2500      -999.2500      -999.2500        11.2699         8.9149       166.0583         9.5169         8.3838         0.0085         2.4016     
 4150.5000        86.6360        12.9511        24.1314       116.8472       100.0307         1.9224        68.2941         3.3110         8.7860      -999.2500      -999.2500      -999.2500        11.6867         8.7590       165.4014        11.9331         7.1539         0.0091         2.4040     
 4151.0000        86.7105        12.9844        24.5656       122.3737       100.4565         2.0511        76.0541         3.3659         8.5546      -999.2500      -999.2500      -999.2500        10.8595         8.5596       164.5213        15.0692         5.4704         0.0091         2.3980     
 4151.5000        87.5456        12.9844        25.5277       126.4711       101.5148         2.0000        77.2561         3.3812         8.3285      -999.2500      -999.2500      -999.2500        10.2632         8.3697       163.9731        15.6636         5.2873         0.0045         2.3883     
 4152.0000        88.5722        12.9511        26.7884       125.8900       105.1406         1.7835        72.3974         3.4209         8.0210      -999.2500      -999.2500      -999.2500        10.2497         8.1117       163.8751        13.4922         6.7082        -0.0006         2.3852     
 4152.5000        89.3836        12.9413        28.2142       125.9420       109.2714         1.5514        67.7439         3.5067         7.6362      -999.2500      -999.2500      -999.2500        10.5094         7.7860       163.9440        11.6593         7.9081        -0.0017         2.3887     
 4153.0000        90.3684        12.9429        29.6628       131.2434       110.9201         1.5719        69.8326         3.5665         7.2762      -999.2500      -999.2500      -999.2500        10.4416         7.4738       164.3149        12.4223         7.8041        -0.0031         2.3866     
 4153.5000        91.9122        12.9429        31.1906       136.9250       107.9784         1.7252        72.8082         3.5070         7.0587      -999.2500      -999.2500      -999.2500         9.6959         7.2715       165.1035        13.9356         7.0531        -0.0060         2.3725     
