~Version Information Section
VERS.          2.0                                     : CWLS LOG ASCII Standard
WRAP.          NO                                      : One line per depth step
CREA.          27/11/15                                : LAS Creation Date
~Well Information Section
STRT.ft        3749.0000                               : Start Depth
STOP.ft        4349.0000                               : Stop Depth
STEP.ft        0.5000                                  : Step
NULL.          -999.2500                               : Null Value
COMP.          TEXACO                                  : Company
WELL.          13/22a-6                                : Well
FLD .          CAPTAIN                                 : Field
LOC .          MORAY FIRTH                             : Location
LOC1.                                                  : Location (UTM)
CTRY.          UK                                      : Country
PROV.          UKCS                                    : Province
UWI .          10763                                   : UWI Number
API .                                                  : API Number
SECT.                                                  : Section
TOWN.                                                  : Township
RNGE.                                                  : Range
PDAT.          MSL                                     : Perm Datum
EPD .ft        0.00                                    : Elevation
LMF .          RKB                                     : Log Measured From
DMF .          RKB                                     : Drill Measured From
APD .ft        81.00                                   : Above Perm Datum
EKB .ft        81.00                                   : Elev-Kelly Bushing
EDF .ft        80.00                                   : Elev-Drill Floor
EGL .ft        -364.00                                 : Elev-Ground Level (Water Depth)
TDD .ft        4400.00                                 : Total Depth (Driller)
SRVC.          ATLAS WIRELINE                          : Service Company
LATI.          58 19 25.50 N                           : Latitude
LONG.          01 42 58.94 W                           : Longitude
DATE.          APR-MAY-1990                            : Logging Date
PROJ.          UKCS                                    : Project
SET .          COMP WIRE                               : Set
~Curve Information Section
DEPTH.ft                                               : Depth Curve
AC.us/ft                                               : Acoustic Travel Time
CAL.in                                                 : Caliper
CNC.%                                                  : Compensated Neutron Porosity
GR.gAPI                                                : DIFL Gamma Ray
GRS.gAPI                                               : SL Gamma Ray
K.                                                     : Potassium
KTH.gAPI                                               : Uranium Stripped Gamma Ray
PE.B/e                                                 : Photo-electric
RD.ohmm                                                : Deep Laterolog Resistivity
RFOC.ohmm                                              : Logarithmic Resistivity from CFOC
RILD.ohmm                                              : Deep Induction Resistivity
RILM.ohmm                                              : Medium Induction Resistivity
RMLL.ohmm                                              : Microlaterolog Resistivity
RS.ohmm                                                : Shallow Laterolog Resistivity
SP.mV                                                  : Spontaneous Potential
TH.ppm                                                 : Thorium
U.ppm                                                  : Uranium
ZCOR.g/cc                                              : ZDL Density Correction
ZDEN.g/cc                                              : ZDL Bulk Density
~ASCII Log Data Section
# ...
 4059.5000        93.9150        13.0392        27.6028        89.0846        65.5503         1.7183        49.2411         3.2108         4.9600      -999.2500      -999.2500      -999.2500         5.3766         5.1485       158.3715         3.8085         3.9998         0.0065         2.2735     
 4060.0000        90.8649        13.0392        26.1406        92.3246        65.9207         1.8791        54.1160         3.2285         5.1896      -999.2500      -999.2500      -999.2500         6.6195         5.4050       158.0729         4.3473         2.8907         0.0030         2.2961     
 4060.5000        89.1644        13.0392        25.1426        93.8918        67.7188         1.9461        57.8636         3.3318         5.2409      -999.2500      -999.2500      -999.2500         7.7056         5.4923       157.9169         5.2551         2.3693        -0.0080         2.3263     
 4061.0000        90.2191        13.0392        25.7614        92.5537        70.0152         1.8980        59.2345         3.3473         5.1937      -999.2500      -999.2500      -999.2500         7.1679         5.4488       157.9864         5.9949         2.5086        -0.0086         2.3354     
 4061.5000        93.3449        13.0392        27.8755        90.4503        70.5156         1.9364        58.0511         3.1341         5.2843      -999.2500      -999.2500      -999.2500         6.5677         5.5062       158.2546         6.0229         3.0144         0.0017         2.3163     
 4062.0000        96.1118        13.0395        29.8338        88.9510        68.9831         2.0248        55.1372         2.8841         5.6271      -999.2500      -999.2500      -999.2500         6.5465         5.8104       158.5189         5.5908         3.6423         0.0111         2.2947     
 4062.5000        96.2256        13.0385        29.8602        89.6030        67.4111         2.0214        52.7628         2.7758         6.0418      -999.2500      -999.2500      -999.2500         6.8078         6.2209       158.5451         4.6630         3.9567         0.0169         2.2941     
 4063.0000        93.9852        13.0636        28.2188        92.2404        68.4235         1.9356        53.5748         2.7469         6.1957      -999.2500      -999.2500      -999.2500         7.6969         6.4284       158.4323         3.9826         3.7491         0.0232         2.3141     
 4063.5000        91.8375        13.0636        26.9631        95.4171        72.4390         1.8113        55.9424         2.7359         5.9515      -999.2500      -999.2500      -999.2500         9.1570         6.2771       158.5078         4.7632         3.8087         0.0212         2.3378     
 4064.0000        91.7664        13.0369        27.5154        98.9199        76.7404         1.7250        56.2761         2.7311         5.5309      -999.2500      -999.2500      -999.2500         9.0828         5.9348       158.7309         6.3566         4.6374         0.0071         2.3464     
 4064.5000        94.0964        13.0494        29.6532       103.2368        80.8330         1.6481        57.2180         2.7317         5.2235      -999.2500      -999.2500      -999.2500         7.5442         5.6607       158.8090         8.4742         5.2750        -0.0048         2.3320     
 4065.0000        97.6872        13.0709        32.1440       106.6140        84.6133         1.6010        61.3998         2.7090         5.1198      -999.2500      -999.2500      -999.2500         6.6871         5.5635       158.8340        10.7983         4.9351        -0.0026         2.3035     
 4065.5000       100.7637        13.0490        33.7160       108.2632        86.1366         1.6579        65.5516         2.6397         5.1237      -999.2500      -999.2500      -999.2500         6.6564         5.5817       158.9810        11.2848         4.2528         0.0050         2.2777     
 4066.0000       102.1814        13.0376        34.1572       108.2698        85.6396         1.8716        66.7184         2.6309         5.1397      -999.2500      -999.2500      -999.2500         6.7551         5.6188       159.0678         9.4070         4.1009         0.0079         2.2653     
 4066.5000       102.3755        13.0395        34.0855       106.3741        84.8176         2.1426        66.5956         2.7538         5.2010      -999.2500      -999.2500      -999.2500         6.7444         5.6952       159.0589         7.6500         4.3174         0.0089         2.2663     
 4067.0000       101.9961        13.0385        33.7982       103.7550        83.4961         2.4315        68.5845         2.9507         5.3841      -999.2500      -999.2500      -999.2500         6.6202         5.8915       159.2407         7.8956         3.8508         0.0104         2.2745     
 4067.5000       100.9257        13.0636        33.0220       102.6841        83.3414         2.6607        73.0037         3.0512         5.6792      -999.2500      -999.2500      -999.2500         6.6144         6.2060       159.5585         9.7370         2.7830         0.0145         2.2847     
 4068.0000        98.9162        13.0636        31.5591       104.7659        86.9013         2.6977        76.2829         2.9973         5.9451      -999.2500      -999.2500      -999.2500         7.0653         6.4853       159.5966        10.9393         2.8106         0.0206         2.2979     
 4068.5000        96.3779        13.0385        29.9754       107.7582        90.1429         2.6344        74.4531         2.8486         6.1039      -999.2500      -999.2500      -999.2500         7.9591         6.6333       159.1273         9.2856         4.0821         0.0240         2.3171     
 4069.0000        94.2066        13.0395        29.1300       108.5153        89.5823         2.6163        70.8203         2.7338         6.2253      -999.2500      -999.2500      -999.2500         8.2291         6.7157       158.3107         6.7203         4.9318         0.0224         2.3394     
 4069.5000        92.7384        13.0392        29.1760       106.5602        88.3848         2.5280        68.1178         2.7633         6.3146      -999.2500      -999.2500      -999.2500         7.7464         6.7482       157.5568         6.0411         5.3184         0.0218         2.3588     
 4070.0000        92.1012        13.0392        29.4390       106.7217        88.7752         2.2161        64.3641         2.9737         6.3154      -999.2500      -999.2500      -999.2500         8.1663         6.7106       157.1376         6.2935         6.0372         0.0281         2.3714     
 4070.5000        92.5832        13.0392        29.2148       109.1798        88.2952         2.1116        64.0206         3.2559         6.2330      -999.2500      -999.2500      -999.2500         9.5925         6.6536       157.1133         6.6902         5.8164         0.0313         2.3724     
 4071.0000        93.9461        13.0392        29.5576       110.3622        87.6854         2.5469        72.4372         3.3969         6.1090      -999.2500      -999.2500      -999.2500         9.5750         6.5911       157.7171         8.3345         3.9086         0.0214         2.3569     
 4071.5000        95.7256        13.0392        31.2660       108.7965        87.4177         2.8044        78.9278         3.2937         6.0771      -999.2500      -999.2500      -999.2500         8.0533         6.5871       159.0437        11.3506         2.2573         0.0087         2.3302     
 4072.0000        97.5366        13.0392        32.9498       107.8851        85.6822         2.4646        77.2363         3.0543         6.2577      -999.2500      -999.2500      -999.2500         7.4317         6.7596       160.4025        13.4790         2.1120         0.0063         2.3073     
 4072.5000        98.4956        13.0392        33.2274       109.5325        85.4611         2.1993        73.4128         2.8860         6.5261      -999.2500      -999.2500      -999.2500         7.9020         7.0272       160.8672        13.1352         2.8736         0.0078         2.2991     
