~Version Information Section
VERS.          2.0                                     : CWLS LOG ASCII Standard
WRAP.          NO                                      : One line per depth step
CREA.          04/05/16                                : LAS Creation Date
~Well Information Section
STRT.ft        3300.000                                : Start Depth
STOP.ft        3900.0000                               : Stop Depth
STEP.ft        0.5000                                  : Step
NULL.          -999.2500                               : Null Value
COMP.          709                                     : Company
WELL.          13/22a-7                                : Well
FLD .          CAPTAIN                                 : Field
LOC .                                                  : Location
LOC1.                                                  : Location 1
CTRY.          UK                                      : Country
STAT.          INNER MORAY FIRTH                       : State
CNTY.          UKCS                                    : County
UWI .          10764                                   : UWI Number
API .                                                  : API Number
SECT.                                                  : Section
TOWN.                                                  : Township
RNGE.                                                  : Range
PDAT.          MSL                                     : Perm Datum
EPD .ft        82                                      : Elevation
LMF .          RKB                                     : Log Measured From
DMF .          RKB                                     : Drill Measured From
APD .ft        0                                       : Above Perm Datum
EKB .ft        82                                      : Elev-Kelly Bushing
EDF .ft        81                                      : Elev-Drill Floor
EGL .ft        -352                                    : Elev-Ground Level
SRVC.         SCHLUMBERGER                             : Service Company
DATE .        12/05/1990                               : Completion Date
LAT .         58 18 34.15 N                            : Latitude
LONG.         01 44 41.13 W                            : Longitude
TOOL.	      COMP WIRE                                : Tool
~Curve Information Section
DEPTH.ft                                                  : Depth Curve
CALI.in                                                : Caliper
CALS.in                                                : Sonic Caliper
CGR.gAPI                                               : Computed Gamma Ray From Thorium, Uranium, And Potassium
DRHO.g/cc                                              : Delta Rho
DTLF.us/ft                                             : Delta-T Long Spacing Far
DTLN.us/ft                                             : Delta-T Long Spacing Near
GR.gAPI                                                : Gamma Ray
LLD.Ohmm                                               : Latero-Log Deep (Resistivity)
LLS.Ohmm                                               : Latero-Log Shallow (Resistivity)
MSFL.Ohmm                                              : Msfl Resistivity
NPHI.%                                                 : Neutron Porosity
PEF.B/e                                                : Photo-Electric Factor
POTA.ppm                                               : Potassium
RHOB.g/cc                                              : Bulk Density
SGR.gAPI                                               : Spectroscopy Gamma-Ray
SP.mV                                                  : Spontaneous Potential
THOR.ppm                                               : Thorium
URAN.ppm                                               : Uranium
~ASCII Log Data Section
# ...
 3804.0000        12.4544        12.5766        53.3102         0.0206        84.2187        84.4706        74.9786        11.5574        10.7457        15.1097        20.1324         3.9076         0.0229         2.5804        74.9786      -999.2500         6.3227         3.1286     
 3804.5000        12.4221        12.5640        52.9208         0.0205        86.8981        86.8982        73.6831        10.3911         9.7768         9.5358        19.9952         4.1477         0.0225         2.5710        73.6831      -999.2500         6.3847         2.9978     
 3805.0000        12.4168        12.5595        55.9374         0.0260        90.0967        89.7853        77.5376         9.1117         8.6478         9.8170        21.2396         4.2051         0.0232         2.5570        77.5376      -999.2500         7.0109         3.1187     
 3805.5000        12.4519        12.5373        56.6304         0.0377        90.1490        90.2490        78.1885         8.2014         7.9093         6.7393        23.3295         4.2021         0.0232         2.5516        78.1885      -999.2500         7.2188         3.1126     
 3806.0000        12.5230        12.5595        55.5000         0.0346        90.2000        90.7608        75.8262         8.0399         7.8219         7.8073        25.4139         4.1150         0.0225         2.5456        75.8262      -999.2500         7.1699         2.9348     
 3806.5000        12.5469        12.5648        56.8398         0.0210        90.1154        90.8737        77.4429         8.0955         7.9515         9.7671        25.3075         4.0117         0.0227         2.5372        77.4429      -999.2500         7.4748         2.9748     
 3807.0000        12.5415        12.5813        55.3677         0.0131        88.9472        90.1528        74.6818         8.3083         8.2004        10.7576        24.0576         3.9242         0.0220         2.5400        74.6826      -999.2500         7.3628         2.7888     
 3807.5000        12.4997        12.5664        55.4370         0.0065        90.7287        91.0514        74.0927         8.6503         8.6094         9.3437        23.1116         4.0277         0.0218         2.5407        74.0927      -999.2500         7.4336         2.6936     
 3808.0000        12.5079        12.5766        56.6376        -0.0006        88.5679        89.5757        75.3905         8.9445         8.8958        10.4873        22.5032         4.1076         0.0222         2.5368        75.3877      -999.2500         7.6497         2.7072     
 3808.5000        12.4418        12.5766        57.5588         0.0016        88.6684        89.0420        76.6452         9.2890         9.2118        12.3857        21.7234         4.1464         0.0225         2.5431        76.6452      -999.2500         7.8117         2.7558     
 3809.0000        12.4796        12.5671        56.6017         0.0041        87.2588        88.5623        75.3106         9.7296         9.6120        12.1170        21.4220         4.0144         0.0220         2.5484        75.3106      -999.2500         7.7134         2.7013     
 3809.5000        12.4788        12.5875        57.1008         0.0042        86.0617        86.7255        76.0254        10.4869        10.3014        11.1016        21.8371         3.9116         0.0221         2.5553        76.0254      -999.2500         7.8149         2.7324     
 3810.0000        12.4486        12.5648        58.6382         0.0040        84.4960        82.0438        78.0240        11.1330        10.8702        13.7840        21.7544         3.9026         0.0229         2.5653        78.0240      -999.2500         7.9434         2.7990     
 3810.5000        12.4108        12.5531        59.0466         0.0022        82.0576        80.8992        78.0493        12.2247        11.8268        14.2224        21.0618         3.8699         0.0234         2.5746        78.0493      -999.2500         7.8678         2.7437     
 3811.0000        12.3993        12.5305        58.1120        -0.0013        80.0678        79.9109        76.0742        13.6143        13.1031        18.2801        19.4595         3.8599         0.0232         2.5763        76.0742      -999.2500         7.6824         2.5935     
 3811.5000        12.3984        12.5031        57.4318        -0.0021        78.7950        78.1994        74.5517        14.9266        14.1936        19.8532        18.1761         3.6772         0.0228         2.5696        74.5517      -999.2500         7.6088         2.4718     
 3812.0000        12.3994        12.5016        56.0578        -0.0011        78.4851        78.2942        71.7589        15.7372        14.9194        18.4066        17.1732         3.6697         0.0224         2.5570        71.7589      -999.2500         7.3933         2.2670     
 3812.5000        12.4056        12.5156        56.3587         0.0014        79.0850        79.4377        70.9771        15.1155        14.3051        18.3207        17.3319         3.5974         0.0226         2.5551        70.9771      -999.2500         7.3795         2.1107     
 3813.0000        12.4063        12.5289        58.4345         0.0045        80.4143        80.8484        72.3458        14.4151        13.6871        13.3686        18.3160         3.6457         0.0235         2.5582        72.3458      -999.2500         7.6370         2.0086     
 3813.5000        12.4063        12.5250        60.1020         0.0038        81.0247        81.0094        73.8918        14.1226        13.3750        14.8775        19.6082         3.6400         0.0243         2.5639        73.8906      -999.2500         7.7734         1.9909     
 3814.0000        12.4063        12.5320        59.3482        -0.0003        81.0220        81.1281        72.9278        13.6963        12.8818        18.1286        19.5722         3.5832         0.0243         2.5530        72.9278      -999.2500         7.5655         1.9607     
 3814.5000        12.4063        12.5437        60.6671        -0.0054        81.8411        81.4439        74.6364        13.4059        12.5667        16.4900        19.4975         3.5534         0.0249         2.5397        74.6337      -999.2500         7.7163         2.0165     
 3815.0000        12.4063        12.5328        64.4987        -0.0081        81.5301        81.3743        79.7366        13.2659        12.4736        13.9180        19.1385         3.5431         0.0264         2.5323        79.7366      -999.2500         8.2340         2.2001     
 3815.5000        12.4063        12.5313        65.0202        -0.0082        81.9965        81.6873        79.7934        13.0786        12.3332        14.5797        20.1612         3.6749         0.0266         2.5346        79.7934      -999.2500         8.3140         2.1330     
 3816.0000        12.4063        12.5337        63.3379        -0.0056        80.7721        80.3294        76.4329        13.4748        12.6196        15.2006        20.5704         3.6864         0.0261         2.5382        76.4329      -999.2500         8.0179         1.8907     
 3816.5000        12.4063        12.5531        61.5982        -0.0030        79.2658        79.8632        73.1409        14.2145        13.2639        17.1261        19.9576         3.5260         0.0256         2.5378        73.1409      -999.2500         7.7037         1.6666     
 3817.0000        12.4063        12.5617        60.7551         0.0004        79.3291        79.3198        71.3580        14.8122        13.7823        17.8129        19.0689         3.4072         0.0252         2.5416        71.3580      -999.2500         7.5900         1.5309     
 3817.5000        12.4063        12.5625        59.6067         0.0048        80.6632        79.9100        69.6732        14.6805        13.7019        19.8288        17.7708         3.5190         0.0249         2.5466        69.6732      -999.2500         7.3815         1.4535     
