~Version Information Section
VERS.          2.0                                     : CWLS LOG ASCII Standard
WRAP.          NO                                      : One line per depth step
CREA.          04/05/16                                : LAS Creation Date
~Well Information Section
STRT.ft        3300.000                                : Start Depth
STOP.ft        3900.0000                               : Stop Depth
STEP.ft        0.5000                                  : Step
NULL.          -999.2500                               : Null Value
COMP.          709                                     : Company
WELL.          13/22a-7                                : Well
FLD .          CAPTAIN                                 : Field
LOC .                                                  : Location
LOC1.                                                  : Location 1
CTRY.          UK                                      : Country
STAT.          INNER MORAY FIRTH                       : State
CNTY.          UKCS                                    : County
UWI .          10764                                   : UWI Number
API .                                                  : API Number
SECT.                                                  : Section
TOWN.                                                  : Township
RNGE.                                                  : Range
PDAT.          MSL                                     : Perm Datum
EPD .ft        82                                      : Elevation
LMF .          RKB                                     : Log Measured From
DMF .          RKB                                     : Drill Measured From
APD .ft        0                                       : Above Perm Datum
EKB .ft        82                                      : Elev-Kelly Bushing
EDF .ft        81                                      : Elev-Drill Floor
EGL .ft        -352                                    : Elev-Ground Level
SRVC.         SCHLUMBERGER                             : Service Company
DATE .        12/05/1990                               : Completion Date
LAT .         58 18 34.15 N                            : Latitude
LONG.         01 44 41.13 W                            : Longitude
TOOL.	      COMP WIRE                                : Tool
~Curve Information Section
DEPTH.ft                                                  : Depth Curve
CALI.in                                                : Caliper
CALS.in                                                : Sonic Caliper
CGR.gAPI                                               : Computed Gamma Ray From Thorium, Uranium, And Potassium
DRHO.g/cc                                              : Delta Rho
DTLF.us/ft                                             : Delta-T Long Spacing Far
DTLN.us/ft                                             : Delta-T Long Spacing Near
GR.gAPI                                                : Gamma Ray
LLD.Ohmm                                               : Latero-Log Deep (Resistivity)
LLS.Ohmm                                               : Latero-Log Shallow (Resistivity)
MSFL.Ohmm                                              : Msfl Resistivity
NPHI.%                                                 : Neutron Porosity
PEF.B/e                                                : Photo-Electric Factor
POTA.ppm                                               : Potassium
RHOB.g/cc                                              : Bulk Density
SGR.gAPI                                               : Spectroscopy Gamma-Ray
SP.mV                                                  : Spontaneous Potential
THOR.ppm                                               : Thorium
URAN.ppm                                               : Uranium
~ASCII Log Data Section
# ...
 3412.0000        12.1094        12.2266        12.6699        -0.0145       100.2101        99.2000        14.3203         1.8177         1.5934         2.3026        29.7762         2.8395         0.0050         2.1312        19.3179      -999.2500         1.6897         0.9599     
 3412.5000        12.1094        12.2266        12.7059        -0.0160       100.2539       100.1834        14.1797         1.7853         1.4870         2.2303        29.1973         2.8386         0.0047         2.1319        19.5975      -999.2500         1.8255         0.9950     
 3413.0000        12.1094        12.2266        13.5385        -0.0161       101.3746       100.8077        16.2031         1.7694         1.5746         2.2300        30.2215         2.8519         0.0048         2.1355        20.9131      -999.2500         2.0418         1.0648     
 3413.5000        12.1094        12.2266        12.6720        -0.0150       101.9959       101.5959        17.3906         1.7754         1.5205         2.1796        28.6471         2.8871         0.0044         2.1388        19.6584      -999.2500         1.9648         1.0087     
 3414.0000        12.1094        12.2266        10.8788        -0.0127       102.4595       102.2433        16.9375         1.7837         1.5103         2.1268        27.8438         2.9519         0.0039         2.1417        16.7087      -999.2500         1.6197         0.8417     
 3414.5000        12.1094        12.2266        11.6117        -0.0085       102.0121       101.6643        17.4531         1.7669         1.5514         2.1166        26.7979         3.0314         0.0048         2.1444        17.9526      -999.2500         1.4698         0.9155     
 3415.0000        12.1094        12.2266        11.3164        -0.0053       101.8238       102.4559        16.7344         1.7772         1.4449         2.1824        27.5999         3.0557         0.0050         2.1445        17.8623      -999.2500         1.3032         0.9451     
 3415.5000        12.1094        12.2266        10.8115        -0.0051       102.1565       102.2961        16.6250         1.7606         1.5043         2.2180        27.1830         2.9691         0.0047         2.1438        17.4027      -999.2500         1.2505         0.9517     
 3416.0000        12.1094        12.2266        13.3621        -0.0056       101.5238       101.9886        17.1719         1.7494         1.4702         2.1037        26.5822         2.8594         0.0051         2.1449        20.0821      -999.2500         1.8787         0.9703     
 3416.5000        12.1094        12.2266        13.8457        -0.0063       101.4350       101.4311        16.4688         1.7636         1.5042         2.1252        27.2797         2.8213         0.0048         2.1499        19.5140      -999.2500         2.1619         0.8184     
 3417.0000        12.1094        12.2266        13.3851        -0.0073       102.1582       101.5886        16.7031         1.7718         1.4540         2.1584        27.0816         2.8607         0.0046         2.1546        18.1608      -999.2500         2.0837         0.6895     
 3417.5000        12.1094        12.2266        13.3529        -0.0066       101.9225       101.5150        14.2031         1.7781         1.5288         2.1957        27.0983         2.9538         0.0049         2.1569        17.3087      -999.2500         1.9618         0.5712     
 3418.0000        12.1094        12.2266        14.0910        -0.0060       102.1705       101.7779        14.7578         1.7892         1.4608         2.1965        26.5762         3.0098         0.0052         2.1566        17.7034      -999.2500         2.0321         0.5216     
 3418.5000        12.1094        12.2266        15.5119        -0.0076       101.7143       101.5108        14.5234         1.7770         1.5170         2.2233        27.9945         3.0004         0.0059         2.1518        19.5882      -999.2500         2.1881         0.5885     
 3419.0000        12.1094        12.2266        16.1643        -0.0076       101.5819       101.4964        13.9219         1.7622         1.5126         2.1707        27.5334         2.9461         0.0061         2.1512        20.7539      -999.2500         2.2850         0.6627     
 3419.5000        12.1094        12.2266        14.5312        -0.0065       101.0355       101.4035        13.8438         1.7738         1.4908         2.1828        26.9176         2.8794         0.0056         2.1524        19.0939      -999.2500         1.9914         0.6588     
 3420.0000        12.1094        12.2266        13.3208        -0.0068       101.3752       101.4035        12.4219         1.7727         1.4830         2.1747        26.8009         2.8603         0.0054         2.1511        18.0383      -999.2500         1.7248         0.6811     
 3420.5000        12.1094        12.2266        14.0299        -0.0053       101.1174       101.4965        14.1953         1.7645         1.5310         2.1394        28.1565         2.8622         0.0061         2.1540        19.1263      -999.2500         1.6476         0.7358     
 3421.0000        12.1094        12.2285        14.8182        -0.0040       101.3069       101.5103        15.1406         1.7655         1.4741         2.1244        29.5897         2.8709         0.0069         2.1561        20.0750      -999.2500         1.5261         0.7590     
 3421.5000        12.1094        12.2422        15.7417        -0.0065       101.6866       101.7966        16.4531         1.7682         1.5472         2.1480        28.7889         2.9100         0.0077         2.1542        21.1995      -999.2500         1.4464         0.7880     
 3422.0000        12.1094        12.2559        15.9503        -0.0097       101.7167       101.9933        15.0469         1.7491         1.4427         2.2092        28.3309         2.9272         0.0083         2.1505        21.1556      -999.2500         1.2809         0.7516     
 3422.5000        12.1094        12.2578        15.1613        -0.0116       102.2000       102.0098        14.4531         1.7488         1.5189         2.1191        27.9645         2.8957         0.0084         2.1456        19.5793      -999.2500         0.9863         0.6379     
 3423.0000        12.1094        12.2578        15.1258        -0.0120       102.6804       102.2935        14.8125         1.7612         1.4350         2.1336        28.2410         2.8914         0.0087         2.1425        19.2593      -999.2500         0.8444         0.5968     
 3423.5000        12.1094        12.2578        15.8618        -0.0099       102.6128       102.3936        16.0000         1.7515         1.5048         2.1195        28.4850         2.9241         0.0091         2.1424        20.5250      -999.2500         0.9025         0.6733     
 3424.0000        12.1094        12.2578        15.1693        -0.0061       102.8872       102.3096        14.9297         1.7611         1.4819         2.1181        28.2222         2.9698         0.0085         2.1456        20.2306      -999.2500         0.9261         0.7308     
 3424.5000        12.1094        12.2578        13.8580        -0.0037       102.7781       102.4718        13.9219         1.8029         1.5802         2.2023        28.6871         2.9216         0.0076         2.1507        19.1482      -999.2500         0.9485         0.7638     
 3425.0000        12.1094        12.2578        14.0164        -0.0026       101.9937       101.7968        13.3203         1.7834         1.4824         2.3171        28.2950         2.8330         0.0074         2.1571        19.8870      -999.2500         1.0764         0.8476     
 3425.5000        12.1094        12.2578        14.7084        -0.0045       101.0210       101.0180        13.9141         1.7872         1.5268         2.2236        28.4133         2.7660         0.0075         2.1610        21.2185      -999.2500         1.2298         0.9400     
