~Version Information Section
VERS.          2.0                                     : CWLS LOG ASCII Standard
WRAP.          NO                                      : One line per depth step
CREA.          04/05/16                                : LAS Creation Date
~Well Information Section
STRT.ft        3300.000                                : Start Depth
STOP.ft        3900.0000                               : Stop Depth
STEP.ft        0.5000                                  : Step
NULL.          -999.2500                               : Null Value
COMP.          709                                     : Company
WELL.          13/22a-7                                : Well
FLD .          CAPTAIN                                 : Field
LOC .                                                  : Location
LOC1.                                                  : Location 1
CTRY.          UK                                      : Country
STAT.          INNER MORAY FIRTH                       : State
CNTY.          UKCS                                    : County
UWI .          10764                                   : UWI Number
API .                                                  : API Number
SECT.                                                  : Section
TOWN.                                                  : Township
RNGE.                                                  : Range
PDAT.          MSL                                     : Perm Datum
EPD .ft        82                                      : Elevation
LMF .          RKB                                     : Log Measured From
DMF .          RKB                                     : Drill Measured From
APD .ft        0                                       : Above Perm Datum
EKB .ft        82                                      : Elev-Kelly Bushing
EDF .ft        81                                      : Elev-Drill Floor
EGL .ft        -352                                    : Elev-Ground Level
SRVC.         SCHLUMBERGER                             : Service Company
DATE .        12/05/1990                               : Completion Date
LAT .         58 18 34.15 N                            : Latitude
LONG.         01 44 41.13 W                            : Longitude
TOOL.	      COMP WIRE                                : Tool
~Curve Information Section
DEPTH.ft                                                  : Depth Curve
CALI.in                                                : Caliper
CALS.in                                                : Sonic Caliper
CGR.gAPI                                               : Computed Gamma Ray From Thorium, Uranium, And Potassium
DRHO.g/cc                                              : Delta Rho
DTLF.us/ft                                             : Delta-T Long Spacing Far
DTLN.us/ft                                             : Delta-T Long Spacing Near
GR.gAPI                                                : Gamma Ray
LLD.Ohmm                                               : Latero-Log Deep (Resistivity)
LLS.Ohmm                                               : Latero-Log Shallow (Resistivity)
MSFL.Ohmm                                              : Msfl Resistivity
NPHI.%                                                 : Neutron Porosity
PEF.B/e                                                : Photo-Electric Factor
POTA.ppm                                               : Potassium
RHOB.g/cc                                              : Bulk Density
SGR.gAPI                                               : Spectroscopy Gamma-Ray
SP.mV                                                  : Spontaneous Potential
THOR.ppm                                               : Thorium
URAN.ppm                                               : Uranium
~ASCII Log Data Section
# ...
 3342.0000        12.1140        12.2578        13.6366        -0.0035       104.6452       104.6817        21.0781         2.2980         1.8654         2.2652        28.7676         2.9710         0.0079         2.1562        23.1168      -999.2500         0.7548         1.3688     
 3342.5000        12.1125        12.2578        14.3748        -0.0018       103.0818       103.2636        20.2656         2.3607         1.9318         2.2788        28.1513         3.0312         0.0081         2.1576        23.9147      -999.2500         0.8561         1.3774     
 3343.0000        12.1094        12.2578        15.8427         0.0027       102.3721       104.1097        21.5938         2.4418         2.0292         2.4438        29.8717         3.3224         0.0086         2.1394        25.5246      -999.2500         1.0940         1.3979     
 3343.5000        12.1094        12.2578        15.7084         0.0054       103.7439       104.6626        20.1719         2.4314         2.0294         2.5951        31.7089         3.5157         0.0085         2.1120        24.5647      -999.2500         1.0886         1.2787     
 3344.0000        12.1190        12.2578        16.8977         0.0064       108.5061       107.1482        20.3906         2.1971         1.8342         2.0284        32.5535         3.3509         0.0090         2.0933        25.8422      -999.2500         1.2341         1.2915     
 3344.5000        12.1201        12.2578        17.0420         0.0075       106.5900       106.6009        21.9219         2.1262         1.8580         1.9377        31.7727         3.0476         0.0090         2.0954        25.8108      -999.2500         1.2989         1.2661     
 3345.0000        12.1172        12.2595        16.9036         0.0049       105.7214       104.8269        21.2188         2.1289         1.7708         2.0926        31.1494         2.9363         0.0089         2.1076        25.4381      -999.2500         1.2754         1.2322     
 3345.5000        12.1224        12.2702        16.5206        -0.0030       113.4061       104.6928        20.7344         2.1383         1.7439         2.2409        30.1535         2.8942         0.0091         2.1170        24.4693      -999.2500         1.1087         1.1477     
 3346.0000        12.1142        12.2603        15.8071        -0.0085       113.9980       115.3341        21.2188         2.1789         1.7555         2.4095        28.6105         2.8330         0.0090         2.1228        22.9879      -999.2500         0.9018         1.0368     
 3346.5000        12.1094        12.2623        17.3685        -0.0084       114.5023       101.7428        23.4375         2.2161         1.7901         2.7100        27.5885         2.9862         0.0096         2.1351        25.4670      -999.2500         1.1484         1.1693     
 3347.0000        12.1209        12.2463        18.6784        -0.0058       114.4296       100.6738        28.6719         2.2546         1.8306         2.7647        29.0985         3.4200         0.0098         2.1635        28.0457      -999.2500         1.4447         1.3525     
 3347.5000        12.1135        12.2562        20.6463        -0.0043       116.2679       103.6062        32.9375         2.3458         1.8994         2.7042        32.8746         3.6599         0.0102         2.2029        31.2363      -999.2500         1.8836         1.5290     
 3348.0000        12.1094        12.2578        26.4692        -0.0040       117.3197       104.8154        35.2500         2.3982         1.9334         3.2999        33.6741         3.4294         0.0122         2.2221        38.8854      -999.2500         2.7804         1.7927     
 3348.5000        12.1094        12.2578        26.7973        -0.0050       119.8091       104.1877        35.1875         2.3517         1.9314         3.0147        33.2925         3.2875         0.0122         2.2067        39.0707      -999.2500         2.8897         1.7721     
 3349.0000        12.1094        12.2578        23.4494        -0.0051       117.7682       103.9207        32.2500         2.2818         1.9241         2.6325        30.9325         3.4003         0.0104         2.1667        34.5389      -999.2500         2.6202         1.6011     
 3349.5000        12.1203        12.2578        19.8062        -0.0031       113.2151       101.2207        27.8281         2.2130         1.9136         2.5510        30.6322         3.4449         0.0087         2.1324        30.0273      -999.2500         2.2617         1.4758     
 3350.0000        12.1196        12.2578        18.2655         0.0052       102.0367        99.4260        24.9219         2.1504         1.8786         2.4141        29.8080         3.5089         0.0080         2.1107        28.3517      -999.2500         2.1178         1.4563     
 3350.5000        12.1332        12.2578        16.4461         0.0110        99.2337        98.1385        21.2344         2.1349         1.8096         2.2846        31.2844         3.3565         0.0073         2.1123        26.0074      -999.2500         1.8555         1.3805     
 3351.0000        12.1196        12.2578        16.1855         0.0137        99.6087        98.4763        23.7344         2.2042         1.8630         2.1659        30.7078         3.2873         0.0074         2.1280        25.9136      -999.2500         1.7348         1.4046     
 3351.5000        12.1094        12.2578        17.1506         0.0131       100.9527       101.6859        24.4063         2.2436         1.9429         2.3692        30.7706         3.2573         0.0078         2.1594        27.7768      -999.2500         1.8496         1.5343     
 3352.0000        12.1094        12.2578        17.1740         0.0080       108.0261       106.0771        27.0156         2.3365         2.0360         2.6902        29.8361         3.4457         0.0078         2.1822        28.0555      -999.2500         1.8559         1.5711     
 3352.5000        12.1094        12.2578        18.1277        -0.0012       110.1398       110.9915        29.8750         2.4044         2.1087         3.0726        31.2600         3.7050         0.0081         2.1910        28.9353      -999.2500         2.0357         1.5604     
 3353.0000        12.1094        12.2578        24.0190        -0.0074       111.3719       112.9915        30.1719         2.4226         2.1542         3.1230        33.2209         3.6500         0.0095         2.1879        33.4064      -999.2500         3.1963         1.3554     
 3353.5000        12.1290        12.2578        26.9770        -0.0109       114.9295       114.7691        32.0313         2.3750         2.1713         2.6229        34.6491         3.4273         0.0105         2.1727        36.2077      -999.2500         3.6688         1.3328     
 3354.0000        12.1212        12.2587        27.5696        -0.0109       115.9314       117.7448        28.7188         2.3059         2.1560         2.7080        34.5693         3.2292         0.0106         2.1564        36.2687      -999.2500         3.7942         1.2560     
 3354.5000        12.1189        12.2682        26.4652        -0.0074       115.8827       116.6102        28.1250         2.2482         2.1183         2.4679        32.5830         3.1530         0.0100         2.1504        33.1173      -999.2500         3.7200         0.9605     
 3355.0000        12.1250        12.2960        26.3410        -0.0025       122.2789       117.2761        27.6875         2.2504         2.0526         2.5620        31.5342         3.3415         0.0099         2.1604        32.3152      -999.2500         3.7447         0.8626     
 3355.5000        12.1250        12.3178        27.9360         0.0014       110.9014       118.8995        30.8906         2.2320         2.0234         2.6526        33.8569         3.5511         0.0104         2.1810        34.4292      -999.2500         4.0190         0.9375     
