~Version Information Section
VERS.          2.0                                     : CWLS LOG ASCII Standard
WRAP.          NO                                      : One line per depth step
CREA.          04/05/16                                : LAS Creation Date
~Well Information Section
STRT.ft        3300.000                                : Start Depth
STOP.ft        3900.0000                               : Stop Depth
STEP.ft        0.5000                                  : Step
NULL.          -999.2500                               : Null Value
COMP.          709                                     : Company
WELL.          13/22a-7                                : Well
FLD .          CAPTAIN                                 : Field
LOC .                                                  : Location
LOC1.                                                  : Location 1
CTRY.          UK                                      : Country
STAT.          INNER MORAY FIRTH                       : State
CNTY.          UKCS                                    : County
UWI .          10764                                   : UWI Number
API .                                                  : API Number
SECT.                                                  : Section
TOWN.                                                  : Township
RNGE.                                                  : Range
PDAT.          MSL                                     : Perm Datum
EPD .ft        82                                      : Elevation
LMF .          RKB                                     : Log Measured From
DMF .          RKB                                     : Drill Measured From
APD .ft        0                                       : Above Perm Datum
EKB .ft        82                                      : Elev-Kelly Bushing
EDF .ft        81                                      : Elev-Drill Floor
EGL .ft        -352                                    : Elev-Ground Level
SRVC.         SCHLUMBERGER                             : Service Company
DATE .        12/05/1990                               : Completion Date
LAT .         58 18 34.15 N                            : Latitude
LONG.         01 44 41.13 W                            : Longitude
TOOL.	      COMP WIRE                                : Tool
~Curve Information Section
DEPTH.ft                                                  : Depth Curve
CALI.in                                                : Caliper
CALS.in                                                : Sonic Caliper
CGR.gAPI                                               : Computed Gamma Ray From Thorium, Uranium, And Potassium
DRHO.g/cc                                              : Delta Rho
DTLF.us/ft                                             : Delta-T Long Spacing Far
DTLN.us/ft                                             : Delta-T Long Spacing Near
GR.gAPI                                                : Gamma Ray
LLD.Ohmm                                               : Latero-Log Deep (Resistivity)
LLS.Ohmm                                               : Latero-Log Shallow (Resistivity)
MSFL.Ohmm                                              : Msfl Resistivity
NPHI.%                                                 : Neutron Porosity
PEF.B/e                                                : Photo-Electric Factor
POTA.ppm                                               : Potassium
RHOB.g/cc                                              : Bulk Density
SGR.gAPI                                               : Spectroscopy Gamma-Ray
SP.mV                                                  : Spontaneous Potential
THOR.ppm                                               : Thorium
URAN.ppm                                               : Uranium
~ASCII Log Data Section
# ...
 3538.0000        12.1094        12.2767        86.7936        -0.0007       100.1796        99.6441        93.1875         3.8729         3.2586         5.6846        27.1251         3.6254         0.0309         2.2583       109.4349      -999.2500        13.0774         3.2690     
 3538.5000        12.1094        12.2874        87.0009        -0.0008        95.4574        95.2217        98.0625         4.4511         3.7478         4.0350        24.5551         3.5438         0.0310         2.2806       110.3252      -999.2500        13.1066         3.3677     
 3539.0000        12.1094        12.2891        82.1002         0.0008        90.3719        91.0503        97.3750         4.0031         3.3923         4.5417        22.9819         3.4128         0.0295         2.2992       103.5036      -999.2500        12.2633         3.0903     
 3539.5000        12.1094        12.2923        79.6717        -0.0012        89.7288        89.9577        93.6875         3.2677         2.8569         7.0247        24.9121         3.3434         0.0286         2.2798       100.1621      -999.2500        11.9059         2.9585     
 3540.0000        12.1094        12.3106        75.0957        -0.0051        90.0090        89.9802        88.3750         2.8958         2.5726         3.5885        26.0412         3.3721         0.0267         2.2335        94.1837      -999.2500        11.3343         2.7560     
 3540.5000        12.1094        12.2642        69.4129        -0.0054        92.9304        92.4102        80.2500         2.5562         2.3248         2.4366        26.9125         3.2972         0.0254         2.2079        84.3423      -999.2500        10.1312         2.1556     
 3541.0000        12.1094        12.2578        67.7937        -0.0011        97.3428        97.1917        77.5000         2.5004         2.2398         2.6332        27.4466         3.1094         0.0249         2.2119        81.8602      -999.2500         9.8813         2.0310     
 3541.5000        12.1094        12.2578        68.2439        -0.0007        98.8410        98.5410        73.8125         2.6751         2.3818         2.9224        26.7688         2.9556         0.0252         2.2166        82.6863      -999.2500         9.8797         2.0853     
 3542.0000        12.1094        12.2610        69.9189        -0.0034        99.4070        98.8924        72.8750         2.8030         2.4696         2.8481        25.9542         3.0281         0.0261         2.2140        85.0435      -999.2500        10.0187         2.1838     
 3542.5000        12.1094        12.2843        72.1181        -0.0055        99.9555        99.0852        73.3125         2.8278         2.5058         2.8672        26.1728         3.1615         0.0271         2.2101        88.1237      -999.2500        10.2511         2.3109     
 3543.0000        12.1094        12.2734        72.4404        -0.0076        99.9408        99.0482        78.6250         2.7531         2.4604         2.7669        27.9445         3.2752         0.0273         2.1993        88.5596      -999.2500        10.2401         2.3274     
 3543.5000        12.1094        12.2594        74.0560        -0.0103        99.2224        98.4448        81.6250         2.6688         2.3916         2.8985        28.1134         3.2277         0.0281         2.1905        90.6803      -999.2500        10.3884         2.4003     
 3544.0000        12.1094        12.2578        74.3768        -0.0118        98.7000        98.2549        86.0625         2.6419         2.3506         2.6446        27.1922         3.1236         0.0286         2.1915        90.8770      -999.2500        10.2849         2.3824     
 3544.5000        12.1094        12.2578        75.6062        -0.0100        98.1466        97.5919        86.5000         2.6000         2.3512         2.5186        24.6455         3.0350         0.0297         2.1991        92.5940      -999.2500        10.1910         2.4528     
 3545.0000        12.1094        12.2594        70.1675        -0.0070        97.0983        96.8756        87.0625         2.5829         2.3043         2.7366        23.3037         3.0156         0.0288         2.2098        84.3845      -999.2500         8.9096         2.0527     
 3545.5000        12.1094        12.2734        67.7101        -0.0058        97.0391        96.9620        79.3125         2.6758         2.4079         2.6621        23.8063         3.1157         0.0282         2.2173        80.5880      -999.2500         8.4008         1.8594     
 3546.0000        12.1094        12.2875        67.0280        -0.0028        96.5227        96.7230        74.0000         2.8171         2.5233         2.8677        25.5990         3.2210         0.0284         2.2260        79.7195      -999.2500         8.1398         1.8325     
 3546.5000        12.1094        12.2891        66.2126        -0.0014        97.3625        96.8159        70.1250         2.9046         2.5404         3.5519        27.0464         3.3287         0.0283         2.2288        78.7358      -999.2500         7.9052         1.8082     
 3547.0000        12.1094        12.2891        70.8919        -0.0036        98.9538        98.2078        74.2500         3.0433         2.6788         3.3345        27.3957         3.3665         0.0310         2.2213        86.5592      -999.2500         8.1780         2.2621     
 3547.5000        12.1108        12.2891        72.5546        -0.0052        99.9913        99.6447        75.0000         3.1339         2.7607         3.3112        27.6172         3.3583         0.0318         2.2143        89.7735      -999.2500         8.3451         2.4861     
 3548.0000        12.1158        12.2891        70.5862        -0.0055        99.8078        99.4543        78.5625         3.0502         2.7002         3.1533        27.4780         3.3313         0.0309         2.2138        87.8191      -999.2500         8.1428         2.4882     
 3548.5000        12.1094        12.2891        70.7960        -0.0059        99.4673        99.5048        77.1250         3.1063         2.7124         3.7608        25.4931         3.3091         0.0309         2.2162        89.1906      -999.2500         8.1962         2.6559     
 3549.0000        12.1094        12.2891        71.8262        -0.0051        97.7233        97.5233        79.1250         3.0517         2.6580         3.1317        24.3357         3.2791         0.0313         2.2240        90.9626      -999.2500         8.3522         2.7630     
 3549.5000        12.1094        12.2891        69.8600        -0.0038        96.1630        95.6944        78.2500         3.0596         2.6625         3.7840        23.7882         3.1539         0.0307         2.2273        88.5079      -999.2500         7.9794         2.6925     
 3550.0000        12.1094        12.2891        66.1342        -0.0057        95.3237        94.9554        76.9375         3.0018         2.6088         3.2371        24.3641         3.0439         0.0295         2.2237        83.9565      -999.2500         7.3893         2.5733     
 3550.5000        12.1094        12.2891        65.4351        -0.0094        94.8319        94.8761        73.1875         2.8576         2.5029         3.2766        24.6619         2.9812         0.0293         2.2152        82.7594      -999.2500         7.2629         2.5013     
 3551.0000        12.1094        12.2891        63.6412        -0.0129        94.7239        94.6239        67.0625         2.8265         2.5049         2.8152        24.5676         2.9929         0.0287         2.2129        80.6192      -999.2500         6.9618         2.4513     
 3551.5000        12.1094        12.2891        59.3242        -0.0115        94.9480        94.6000        67.0625         2.7748         2.4333         2.8706        24.2249         3.0416         0.0274         2.2180        75.0100      -999.2500         6.1904         2.2648     
