~Version Information Section
VERS.          2.0                                     : CWLS LOG ASCII Standard
WRAP.          NO                                      : One line per depth step
CREA.          27/11/15                                : LAS Creation Date
~Well Information Section
STRT.ft        3749.0000                               : Start Depth
STOP.ft        4349.0000                               : Stop Depth
STEP.ft        0.5000                                  : Step
NULL.          -999.2500                               : Null Value
COMP.          TEXACO                                  : Company
WELL.          13/22a-6                                : Well
FLD .          CAPTAIN                                 : Field
LOC .          MORAY FIRTH                             : Location
LOC1.                                                  : Location (UTM)
CTRY.          UK                                      : Country
PROV.          UKCS                                    : Province
UWI .          10763                                   : UWI Number
API .                                                  : API Number
SECT.                                                  : Section
TOWN.                                                  : Township
RNGE.                                                  : Range
PDAT.          MSL                                     : Perm Datum
EPD .ft        0.00                                    : Elevation
LMF .          RKB                                     : Log Measured From
DMF .          RKB                                     : Drill Measured From
APD .ft        81.00                                   : Above Perm Datum
EKB .ft        81.00                                   : Elev-Kelly Bushing
EDF .ft        80.00                                   : Elev-Drill Floor
EGL .ft        -364.00                                 : Elev-Ground Level (Water Depth)
TDD .ft        4400.00                                 : Total Depth (Driller)
SRVC.          ATLAS WIRELINE                          : Service Company
LATI.          58 19 25.50 N                           : Latitude
LONG.          01 42 58.94 W                           : Longitude
DATE.          APR-MAY-1990                            : Logging Date
PROJ.          UKCS                                    : Project
SET .          COMP WIRE                               : Set
~Curve Information Section
DEPTH.ft                                               : Depth Curve
AC.us/ft                                               : Acoustic Travel Time
CAL.in                                                 : Caliper
CNC.%                                                  : Compensated Neutron Porosity
GR.gAPI                                                : DIFL Gamma Ray
GRS.gAPI                                               : SL Gamma Ray
K.                                                     : Potassium
KTH.gAPI                                               : Uranium Stripped Gamma Ray
PE.B/e                                                 : Photo-electric
RD.ohmm                                                : Deep Laterolog Resistivity
RFOC.ohmm                                              : Logarithmic Resistivity from CFOC
RILD.ohmm                                              : Deep Induction Resistivity
RILM.ohmm                                              : Medium Induction Resistivity
RMLL.ohmm                                              : Microlaterolog Resistivity
RS.ohmm                                                : Shallow Laterolog Resistivity
SP.mV                                                  : Spontaneous Potential
TH.ppm                                                 : Thorium
U.ppm                                                  : Uranium
ZCOR.g/cc                                              : ZDL Density Correction
ZDEN.g/cc                                              : ZDL Bulk Density
~ASCII Log Data Section
# ...
 4100.0000        93.1510        13.1355        32.4313       110.6172        93.6766         2.2798        79.6442         3.2287         7.1540      -999.2500      -999.2500      -999.2500         9.8167         7.4148       160.7961        13.7253         3.1970         0.0044         2.3479     
 4100.5000        95.3449        13.1355        33.4711       115.7833        93.8441         2.5042        83.0549         3.4772         6.7783      -999.2500      -999.2500      -999.2500         8.6381         6.9535       160.3897        15.5448         2.6086        -0.0011         2.3402     
 4101.0000        98.4269        13.1355        35.0419       115.8658        92.1111         2.3508        79.7315         3.5448         6.5588      -999.2500      -999.2500      -999.2500         8.0265         6.6274       160.0956        15.7195         2.9696         0.0022         2.3183     
 4101.5000       100.8233        13.1355        35.4817       112.6855        92.1310         2.2484        76.3177         3.4612         6.6354      -999.2500      -999.2500      -999.2500         7.8735         6.5789       159.9366        14.6981         3.7736         0.0058         2.3010     
 4102.0000       101.7160        13.1355        35.3686       109.4668        93.0450         2.5160        78.2050         3.3563         6.9978      -999.2500      -999.2500      -999.2500         7.7924         6.8252       159.7419        12.5636         3.6757         0.0088         2.2957     
 4102.5000       100.6332        13.1355        34.6089       107.8153        92.8270         2.9540        82.0845         3.2516         7.4574      -999.2500      -999.2500      -999.2500         7.9531         7.2112       159.5560        10.5360         2.8430         0.0155         2.3024     
 4103.0000        97.5110        13.1355        32.8535       108.6972        93.9757         3.1953        86.0455         3.1551         7.7775      -999.2500      -999.2500      -999.2500         9.1390         7.4947       159.6986        10.8553         2.1576         0.0232         2.3217     
 4103.5000        93.7460        13.1355        30.7855       112.3370        98.7259         3.1803        91.0664         3.1350         7.8117      -999.2500      -999.2500      -999.2500        11.1434         7.5182       160.2278        12.9949         1.9960         0.0228         2.3511     
 4104.0000        91.3253        13.1351        29.7250       117.0800       102.4093         2.9132        90.2088         3.1531         7.4880      -999.2500      -999.2500      -999.2500        11.0063         7.2363       160.7866        13.1663         2.9843         0.0128         2.3788     
 4104.5000        91.3937        13.1375        30.3666       121.4288       103.0135         2.6030        84.0741         3.1565         6.9545      -999.2500      -999.2500      -999.2500         9.1947         6.7910       161.1018        12.4217         4.4942         0.0044         2.3922     
 4105.0000        93.8279        13.1032        32.2097       125.8166       103.8069         2.5754        84.0016         3.1596         6.5102      -999.2500      -999.2500      -999.2500         8.2136         6.4362       161.1306        14.4788         4.7710        -0.0018         2.3911     
 4105.5000        96.9423        13.0470        33.9436       130.4591       106.8363         2.8994        91.2693         3.1593         6.2764      -999.2500      -999.2500      -999.2500         7.9467         6.2672       160.9681        16.7105         3.9118        -0.0101         2.3814     
 4106.0000        98.7321        13.0392        35.0228       134.5444       109.7806         3.0332        94.9233         3.1483         6.2123      -999.2500      -999.2500      -999.2500         7.9160         6.2386       160.7574        15.2873         3.6553        -0.0086         2.3683     
 4106.5000        98.9025        13.0314        35.7027       135.5465       109.0234         2.6787        89.8834         3.1420         6.2495      -999.2500      -999.2500      -999.2500         8.1437         6.3044       160.7097        12.3503         4.3335         0.0060         2.3627     
 4107.0000        98.2367        12.9752        36.1987       131.8634       102.6725         2.2730        81.3369         3.1484         6.2568      -999.2500      -999.2500      -999.2500         8.2787         6.3686       160.9600        10.7403         4.5578         0.0122         2.3745     
 4107.5000        97.5111        12.9409        37.1231       123.6887        95.0749         2.3222        78.8892         3.1580         5.9268      -999.2500      -999.2500      -999.2500         8.1797         6.1466       161.3863        10.5727         3.6029         0.0082         2.3933     
 4108.0000        97.5159        12.9429        37.7419       112.9060        90.4576         2.5542        78.8083         3.1469         5.0417      -999.2500      -999.2500      -999.2500         7.9460         5.3647       161.6929        10.9271         2.8517         0.0156         2.3931     
 4108.5000        98.5585        12.9433        36.5349       102.0874        85.9047         2.4009        71.8478         3.1284         3.8964      -999.2500      -999.2500      -999.2500         6.5933         4.2441       161.8294        10.1833         3.5309         0.0343         2.3594     
 4109.0000       100.2309        12.9192        34.5672        93.1313        78.8728         1.9837        62.3352         3.1339         2.9973      -999.2500      -999.2500      -999.2500         4.3637         3.3081       161.7899         9.4979         4.0373         0.0426         2.3039     
 4109.5000       102.2263        12.8940        33.6922        86.2343        72.0206         1.7845        58.6496         3.1278         2.5754      -999.2500      -999.2500      -999.2500         2.9421         2.8294       161.4652         9.4563         3.1673         0.0279         2.2457     
 4110.0000       104.3971        12.9192        33.3606        81.7856        67.6460         1.8855        58.5053         3.1185         2.6530      -999.2500      -999.2500      -999.2500         2.3396         2.8285       161.0583         8.1470         2.2201         0.0048         2.1971     
 4110.5000       104.7171        12.9433        32.2189        79.3496        64.6922         2.0600        57.9898         3.1990         3.2692      -999.2500      -999.2500      -999.2500         2.1983         3.3324       160.8774         6.4180         1.7146        -0.0041         2.1690     
 4111.0000        99.9181        12.9426        29.4483        76.4438        62.7702         2.2484        59.2727         3.3317         4.3215      -999.2500      -999.2500      -999.2500         2.5125         4.2644       160.8212         7.2168         0.9586         0.0074         2.1788     
 4111.5000        91.0188        12.9429        24.8037        73.7783        62.6668         2.3976        60.3439         3.4510         4.8578      -999.2500      -999.2500      -999.2500         3.8965         4.7891       160.7923         7.7895         0.6728         0.0226         2.2376     
 4112.0000        83.9935        12.9429        20.6870        73.4269        63.8588         2.4483        59.9191         3.5771         4.1310      -999.2500      -999.2500      -999.2500         6.9770         4.1943       160.9980         5.6365         1.1311         0.0186         2.3270     
 4112.5000        83.2370        12.9426        19.6789        73.0239        65.4077         2.4617        60.0773         3.7210         3.1349      -999.2500      -999.2500      -999.2500         4.9168         3.2897       161.5132         3.3881         1.4894        -0.0073         2.3772     
 4113.0000        88.3147        12.9436        21.2887        70.6193        66.6450         2.5412        61.5160         3.7265         2.5186      -999.2500      -999.2500      -999.2500         2.4979         2.6961       162.0899         3.5544         1.4426        -0.0347         2.3284     
