~Version Information Section
VERS.          2.0                                     : CWLS LOG ASCII Standard
WRAP.          NO                                      : One line per depth step
CREA.          04/05/16                                : LAS Creation Date
~Well Information Section
STRT.ft        3300.000                                : Start Depth
STOP.ft        3900.0000                               : Stop Depth
STEP.ft        0.5000                                  : Step
NULL.          -999.2500                               : Null Value
COMP.          709                                     : Company
WELL.          13/22a-7                                : Well
FLD .          CAPTAIN                                 : Field
LOC .                                                  : Location
LOC1.                                                  : Location 1
CTRY.          UK                                      : Country
STAT.          INNER MORAY FIRTH                       : State
CNTY.          UKCS                                    : County
UWI .          10764                                   : UWI Number
API .                                                  : API Number
SECT.                                                  : Section
TOWN.                                                  : Township
RNGE.                                                  : Range
PDAT.          MSL                                     : Perm Datum
EPD .ft        82                                      : Elevation
LMF .          RKB                                     : Log Measured From
DMF .          RKB                                     : Drill Measured From
APD .ft        0                                       : Above Perm Datum
EKB .ft        82                                      : Elev-Kelly Bushing
EDF .ft        81                                      : Elev-Drill Floor
EGL .ft        -352                                    : Elev-Ground Level
SRVC.         SCHLUMBERGER                             : Service Company
DATE .        12/05/1990                               : Completion Date
LAT .         58 18 34.15 N                            : Latitude
LONG.         01 44 41.13 W                            : Longitude
TOOL.	      COMP WIRE                                : Tool
~Curve Information Section
DEPTH.ft                                                  : Depth Curve
CALI.in                                                : Caliper
CALS.in                                                : Sonic Caliper
CGR.gAPI                                               : Computed Gamma Ray From Thorium, Uranium, And Potassium
DRHO.g/cc                                              : Delta Rho
DTLF.us/ft                                             : Delta-T Long Spacing Far
DTLN.us/ft                                             : Delta-T Long Spacing Near
GR.gAPI                                                : Gamma Ray
LLD.Ohmm                                               : Latero-Log Deep (Resistivity)
LLS.Ohmm                                               : Latero-Log Shallow (Resistivity)
MSFL.Ohmm                                              : Msfl Resistivity
NPHI.%                                                 : Neutron Porosity
PEF.B/e                                                : Photo-Electric Factor
POTA.ppm                                               : Potassium
RHOB.g/cc                                              : Bulk Density
SGR.gAPI                                               : Spectroscopy Gamma-Ray
SP.mV                                                  : Spontaneous Potential
THOR.ppm                                               : Thorium
URAN.ppm                                               : Uranium
~ASCII Log Data Section
# ...
 3734.0000        12.4838        12.5613        75.9300         0.0009       110.2026       109.3486       120.3750         5.6822         5.4728         6.1797        42.0976         3.4560         0.0161         2.2696       128.3624      -999.2500        16.1551         7.5704     
 3734.5000        12.5156        12.5579        76.7161         0.0003       112.4775       111.6804       121.2500         5.5501         5.3654         6.7480        43.2729         3.3722         0.0164         2.2779       128.9851      -999.2500        16.2761         7.5468     
 3735.0000        12.5203        12.6073        83.7085         0.0011       111.8251       110.6739       126.3125         5.5182         5.3229         6.8430        43.0504         3.3314         0.0184         2.2948       138.4611      -999.2500        17.5413         7.9054     
 3735.5000        12.4955        12.6242        96.8166         0.0044       110.8243       109.6337       130.3750         5.4477         5.2760         6.3908        42.3806         3.3506         0.0186         2.3128       152.6631      -999.2500        21.4331         8.0634     
 3736.0000        12.4672        12.6246        97.1054         0.0068       109.9879       109.5121       131.8750         5.1691         5.0018         6.2251        41.8159         3.4808         0.0182         2.3155       153.1441      -999.2500        21.7181         8.0911     
 3736.5000        12.4796        12.6180        97.2579         0.0049       109.2210       109.6001       127.5625         5.1565         4.9922         5.8829        41.5557         3.6038         0.0182         2.3018       153.2044      -999.2500        21.7632         8.0778     
 3737.0000        12.4594        12.6229        96.3058         0.0012       109.4304       109.8698       124.0000         5.2377         5.0792         5.2078        40.7788         3.6988         0.0185         2.2775       152.1134      -999.2500        21.3470         8.0577     
 3737.5000        12.4422        12.5954        85.9113        -0.0013       110.7893       111.0799       118.6250         5.4308         5.2524         7.1455        39.9465         3.7133         0.0192         2.2626       139.2997      -999.2500        17.8646         7.7084     
 3738.0000        12.4876        12.5938        80.1733        -0.0054       109.8845       111.3255       112.8125         5.8839         5.6532         7.0442        39.8724         3.7987         0.0180         2.2653       130.9736      -999.2500        16.6209         7.3347     
 3738.5000        12.5344        12.5938        74.4591        -0.0007       108.6660       108.8832       106.5625         6.4022         6.0908         7.5255        39.0945         3.8625         0.0169         2.3030       123.3456      -999.2500        15.3909         7.0584     
 3739.0000        12.5469        12.5938        72.5885         0.0065       105.0048       104.7599       101.9375         6.6018         6.2530         7.9552        36.5739         3.7048         0.0165         2.3537       120.8197      -999.2500        14.9613         6.9638     
 3739.5000        12.5469        12.5938        73.1092         0.0066       102.2244       101.1139       102.0000         6.5255         6.2183         9.0156        34.0400         3.5338         0.0171         2.3725       122.2154      -999.2500        14.8707         7.0902     
 3740.0000        12.5469        12.5946        74.2033         0.0033       100.2824        99.7774       107.5625         6.4132         6.0838         6.3624        33.6208         3.4362         0.0178         2.3636       123.8158      -999.2500        14.8921         7.1633     
 3740.5000        12.5611        12.6094        75.1680         0.0031       101.6647       100.9214       114.0625         6.2495         5.9644         7.0602        34.7615         3.5162         0.0184         2.3441       125.7618      -999.2500        14.9301         7.3049     
 3741.0000        12.4705        12.6250        77.1869        -0.0005       104.9835       104.7835       113.2500         6.1185         5.8017         7.2948        35.8285         3.7217         0.0193         2.3253       128.7054      -999.2500        15.1617         7.4385     
 3741.5000        12.4063        12.6344        78.9384        -0.0022       107.2118       107.5915       110.1875         6.2323         5.8241         7.5724        37.1701         3.8970         0.0201         2.3169       130.9056      -999.2500        15.3649         7.5032     
 3742.0000        12.4063        12.5523        77.2958         0.0001       109.2762       109.5002       108.0000         6.2505         5.7373         7.9034        38.1587         3.9682         0.0197         2.3153       128.6311      -999.2500        15.0216         7.4120     
 3742.5000        12.4063        12.5460        78.2575         0.0016       111.1878       111.3118       112.1875         6.2155         5.6489         6.7638        38.9307         3.7963         0.0203         2.3110       130.4337      -999.2500        15.0768         7.5334     
 3743.0000        12.4063        12.5322        79.7041         0.0012       112.9042       112.9484       122.7500         6.0552         5.5116         6.3175        40.1736         3.6433         0.0208         2.2979       131.9577      -999.2500        15.2975         7.5446     
 3743.5000        12.4063        12.5322        94.9334        -0.0012       113.8444       113.0598       132.2500         5.8521         5.3231         6.5926        42.3426         3.7091         0.0258         2.2879       149.7105      -999.2500        17.7446         7.9090     
 3744.0000        12.4063        12.5450        97.6657        -0.0016       113.8558       113.2880       139.8750         5.8123         5.3231         6.5714        43.5648         3.7908         0.0267         2.2834       153.0608      -999.2500        18.1847         7.9982     
 3744.5000        12.4207        12.5340        97.9249         0.0048       114.4846       113.4162       139.1250         5.7603         5.3305         5.9064        41.8127         3.8753         0.0268         2.2740       153.6965      -999.2500        18.2286         8.0525     
 3745.0000        12.5020        12.5616        99.1367         0.0095       114.0079       113.1792       137.5000         5.5752         5.1646         6.6308        40.1078         3.9505         0.0272         2.2631       155.4481      -999.2500        18.4354         8.1305     
 3745.5000        12.5565        12.5795        94.8557         0.0111       113.9642       113.8924       130.1250         5.3800         4.9571         5.9803        39.7288         4.0226         0.0257         2.2513       149.0363      -999.2500        17.7608         7.8228     
 3746.0000        12.5722        12.6224        90.6012         0.0225       114.0382       114.1952       122.3125         5.2028         4.8338         5.2520        39.7219         4.0813         0.0239         2.2570       142.4863      -999.2500        17.2814         7.4914     
 3746.5000        12.5490        12.7331        88.9889         0.0377       115.2429       114.9166       119.3125         4.9859         4.6203         5.7446        39.4792         4.1243         0.0230         2.2505       139.3440      -999.2500        17.1615         7.2705     
 3747.0000        12.5798        12.7178        88.9282         0.0278       114.5076       115.1169       120.2500         4.9293         4.5421         5.8544        39.7597         4.1625         0.0227         2.2204       138.8557      -999.2500        17.2690         7.2087     
 3747.5000        12.5704        12.6821        85.6629         0.0250       114.0524       114.6405       120.0000         5.0827         4.6446         5.8917        41.4380         4.0711         0.0204         2.2154       134.0953      -999.2500        17.2756         6.9929     
