~Version Information Section
VERS.          2.0                                     : CWLS LOG ASCII Standard
WRAP.          NO                                      : One line per depth step
CREA.          04/05/16                                : LAS Creation Date
~Well Information Section
STRT.ft        3300.000                                : Start Depth
STOP.ft        3900.0000                               : Stop Depth
STEP.ft        0.5000                                  : Step
NULL.          -999.2500                               : Null Value
COMP.          709                                     : Company
WELL.          13/22a-7                                : Well
FLD .          CAPTAIN                                 : Field
LOC .                                                  : Location
LOC1.                                                  : Location 1
CTRY.          UK                                      : Country
STAT.          INNER MORAY FIRTH                       : State
CNTY.          UKCS                                    : County
UWI .          10764                                   : UWI Number
API .                                                  : API Number
SECT.                                                  : Section
TOWN.                                                  : Township
RNGE.                                                  : Range
PDAT.          MSL                                     : Perm Datum
EPD .ft        82                                      : Elevation
LMF .          RKB                                     : Log Measured From
DMF .          RKB                                     : Drill Measured From
APD .ft        0                                       : Above Perm Datum
EKB .ft        82                                      : Elev-Kelly Bushing
EDF .ft        81                                      : Elev-Drill Floor
EGL .ft        -352                                    : Elev-Ground Level
SRVC.         SCHLUMBERGER                             : Service Company
DATE .        12/05/1990                               : Completion Date
LAT .         58 18 34.15 N                            : Latitude
LONG.         01 44 41.13 W                            : Longitude
TOOL.	      COMP WIRE                                : Tool
~Curve Information Section
DEPTH.ft                                                  : Depth Curve
CALI.in                                                : Caliper
CALS.in                                                : Sonic Caliper
CGR.gAPI                                               : Computed Gamma Ray From Thorium, Uranium, And Potassium
DRHO.g/cc                                              : Delta Rho
DTLF.us/ft                                             : Delta-T Long Spacing Far
DTLN.us/ft                                             : Delta-T Long Spacing Near
GR.gAPI                                                : Gamma Ray
LLD.Ohmm                                               : Latero-Log Deep (Resistivity)
LLS.Ohmm                                               : Latero-Log Shallow (Resistivity)
MSFL.Ohmm                                              : Msfl Resistivity
NPHI.%                                                 : Neutron Porosity
PEF.B/e                                                : Photo-Electric Factor
POTA.ppm                                               : Potassium
RHOB.g/cc                                              : Bulk Density
SGR.gAPI                                               : Spectroscopy Gamma-Ray
SP.mV                                                  : Spontaneous Potential
THOR.ppm                                               : Thorium
URAN.ppm                                               : Uranium
~ASCII Log Data Section
# ...
 3846.0000        12.4155        12.5938        76.0945         0.0025        86.8269        87.0777        85.2793        11.4191        10.4202        17.1966        22.7446         3.8172         0.0303         2.5200        85.2764      -999.2500        10.0728         1.3257     
 3846.5000        12.4611        12.6036        78.2754         0.0089        88.6259        88.9592        88.5160        10.1112         9.4254        13.1932        26.0713         3.7761         0.0313         2.5075        88.5160      -999.2500        10.3166         1.4786     
 3847.0000        12.5092        12.6707        79.2017         0.0128        93.8544        93.5536        90.0786         9.0463         8.5187         7.0026        29.3728         3.7055         0.0318         2.4988        90.0786      -999.2500        10.3701         1.5705     
 3847.5000        12.5108        12.6830        78.9529         0.0149        94.1086        95.3570        89.4684         8.1980         7.8258         5.9864        30.4907         3.7328         0.0317         2.4995        89.4684      -999.2500        10.3345         1.5183     
 3848.0000        12.5229        12.6598        78.7843         0.0154        91.9355        94.1157        88.5464         7.9083         7.5072         8.5221        29.4486         3.8451         0.0316         2.5007        88.5464      -999.2500        10.3412         1.4095     
 3848.5000        12.5286        12.6616        79.6577         0.0135        92.0733        92.6612        89.9299         7.9931         7.5768         7.7528        29.5086         4.0537         0.0318         2.5044        89.9299      -999.2500        10.4851         1.4831     
 3849.0000        12.5129        12.6906        79.7861         0.0067        89.5989        89.5806        90.0833         8.7051         8.2410         6.1758        29.3587         4.0418         0.0316         2.5038        90.0833      -999.2500        10.6069         1.4867     
 3849.5000        12.4694        12.6424        80.1872         0.0063        85.0911        86.3163        90.3438         9.7452         8.9682         6.8451        26.8251         3.8679         0.0314         2.5101        90.3438      -999.2500        10.8444         1.4665     
 3850.0000        12.4144        12.6010        78.1262         0.0076        87.1925        85.7503        86.3818        10.5490         9.6810        18.8421        22.9009         3.6037         0.0299         2.5151        86.3818      -999.2500        10.8400         1.1920     
 3850.5000        12.4063        12.6040        76.6531         0.0070        87.4645        87.1654        83.3218        11.1383        10.2129        14.2540        22.9943         3.4719         0.0290         2.5147        83.3218      -999.2500        10.7956         0.9629     
 3851.0000        12.4173        12.5817        77.7905         0.0071        88.6410        88.4847        84.3014        10.6595         9.9498        11.9347        25.9007         3.5562         0.0290         2.5154        84.3014      -999.2500        11.1386         0.9401     
 3851.5000        12.4840        12.5944        82.7842         0.0072        93.2786        91.5475        91.2481         9.8338         9.1332         7.9997        29.2478         3.5473         0.0303         2.5201        91.2439      -999.2500        12.1089         1.2214     
 3852.0000        12.4177        12.6862        85.0488         0.0045        89.6901        89.2011        94.0384         9.9700         9.3207         6.5435        27.0516         3.6020         0.0310         2.5189        94.0384      -999.2500        12.5001         1.2980     
 3852.5000        12.4063        12.5925        85.0740         0.0049        87.6987        85.6136        94.4700        10.8434         9.9396        12.2137        24.2407         3.5961         0.0310         2.5275        94.4689      -999.2500        12.4876         1.3565     
 3853.0000        12.4063        12.5643        85.6294         0.0059        86.2219        87.0001        95.1304        11.5707        10.4221        15.8125        21.5783         3.7286         0.0312         2.5279        95.1304      -999.2500        12.5685         1.3718     
 3853.5000        12.4097        12.5661        81.6817         0.0062        88.7762        88.9456        89.7727        10.9687         9.9657        14.6975        23.8307         3.8744         0.0301         2.5187        89.7727      -999.2500        11.8548         1.1682     
 3854.0000        12.4262        12.6402        84.7498         0.0080        92.5175        92.6244        96.2206         9.5069         8.5838         9.4843        28.8985         3.8544         0.0334         2.4955        96.2206      -999.2500        11.3790         1.6562     
 3854.5000        12.4682        12.9742        84.9886         0.0104        95.0744        95.3359        97.0343         8.4006         7.5358         4.2836        31.1507         3.8456         0.0340         2.4822        97.0343      -999.2500        11.1922         1.7392     
 3855.0000        12.6460        12.9848        84.9705         0.0146        94.4743        95.6402        97.1269         8.0146         7.2152         3.4840        31.2926         3.8378         0.0342         2.4910        97.1269      -999.2500        11.0698         1.7552     
 3855.5000        12.5091        12.6790        79.6832         0.0188        90.9358        92.4934        90.0042         8.3414         7.5597         8.5215        28.0563         3.8432         0.0327         2.5259        90.0042      -999.2500        10.1235         1.4902     
 3856.0000        12.4134        12.5799        78.2749         0.0178        88.8185        89.0269        88.1198         9.2676         8.5660         8.1923        26.9099         3.6330         0.0322         2.5517        88.1198      -999.2500         9.9090         1.4215     
 3856.5000        12.4063        12.5386        78.6497         0.0139        85.7867        85.9607        89.2354        10.4964         9.7128        11.6497        23.9584         3.5195         0.0322         2.5647        89.2354      -999.2500        10.0373         1.5284     
 3857.0000        12.4063        12.5487        77.2033         0.0127        82.7152        83.8816        87.2955        11.6298        10.6996        12.8750        21.9948         3.5807         0.0313         2.5652        87.2955      -999.2500         9.9823         1.4572     
 3857.5000        12.4190        12.5781        76.9788         0.0166        82.5001        84.1733        87.3142        12.2180        11.3339        16.1057        21.0452         3.8450         0.0309         2.5566        87.3142      -999.2500        10.0697         1.4923     
 3858.0000        12.4796        12.6131        76.1809         0.0313        84.0251        84.5780        86.6909        11.7217        10.8685        13.2175        23.0886         3.9691         0.0303         2.5470        86.6897      -999.2500        10.1025         1.5173     
 3858.5000        12.6169        12.6838        77.1608         0.0357        88.4161        88.6260        88.6040        10.8989        10.0852         9.7974        24.9631         4.0296         0.0304         2.5172        88.6040      -999.2500        10.3684         1.6522     
 3859.0000        12.7734        12.8065        77.1312         0.0453        90.8627        93.0114        88.6779         9.9801         9.0884         5.3645        27.4612         4.0321         0.0302         2.5000        88.6770      -999.2500        10.4138         1.6670     
 3859.5000        12.7619        12.7629        78.0945         0.0500        95.9233        93.5935        89.8250         9.2146         8.3244         9.6862        28.2990         4.0104         0.0305         2.4856        89.8250      -999.2500        10.5932         1.6937     
