~Version Information Section
VERS.          2.0                                     : CWLS LOG ASCII Standard
WRAP.          NO                                      : One line per depth step
CREA.          04/05/16                                : LAS Creation Date
~Well Information Section
STRT.ft        3300.000                                : Start Depth
STOP.ft        3900.0000                               : Stop Depth
STEP.ft        0.5000                                  : Step
NULL.          -999.2500                               : Null Value
COMP.          709                                     : Company
WELL.          13/22a-7                                : Well
FLD .          CAPTAIN                                 : Field
LOC .                                                  : Location
LOC1.                                                  : Location 1
CTRY.          UK                                      : Country
STAT.          INNER MORAY FIRTH                       : State
CNTY.          UKCS                                    : County
UWI .          10764                                   : UWI Number
API .                                                  : API Number
SECT.                                                  : Section
TOWN.                                                  : Township
RNGE.                                                  : Range
PDAT.          MSL                                     : Perm Datum
EPD .ft        82                                      : Elevation
LMF .          RKB                                     : Log Measured From
DMF .          RKB                                     : Drill Measured From
APD .ft        0                                       : Above Perm Datum
EKB .ft        82                                      : Elev-Kelly Bushing
EDF .ft        81                                      : Elev-Drill Floor
EGL .ft        -352                                    : Elev-Ground Level
SRVC.         SCHLUMBERGER                             : Service Company
DATE .        12/05/1990                               : Completion Date
LAT .         58 18 34.15 N                            : Latitude
LONG.         01 44 41.13 W                            : Longitude
TOOL.	      COMP WIRE                                : Tool
~Curve Information Section
DEPTH.ft                                                  : Depth Curve
CALI.in                                                : Caliper
CALS.in                                                : Sonic Caliper
CGR.gAPI                                               : Computed Gamma Ray From Thorium, Uranium, And Potassium
DRHO.g/cc                                              : Delta Rho
DTLF.us/ft                                             : Delta-T Long Spacing Far
DTLN.us/ft                                             : Delta-T Long Spacing Near
GR.gAPI                                                : Gamma Ray
LLD.Ohmm                                               : Latero-Log Deep (Resistivity)
LLS.Ohmm                                               : Latero-Log Shallow (Resistivity)
MSFL.Ohmm                                              : Msfl Resistivity
NPHI.%                                                 : Neutron Porosity
PEF.B/e                                                : Photo-Electric Factor
POTA.ppm                                               : Potassium
RHOB.g/cc                                              : Bulk Density
SGR.gAPI                                               : Spectroscopy Gamma-Ray
SP.mV                                                  : Spontaneous Potential
THOR.ppm                                               : Thorium
URAN.ppm                                               : Uranium
~ASCII Log Data Section
# ...
 3384.0000        12.1094        12.2758        12.5721        -0.0008        85.6298        83.6586        15.2734         2.5247         2.2762         2.8156        20.4570         3.1592         0.0050         2.3107        16.9496      -999.2500         1.6871         0.6320     
 3384.5000        12.1094        12.2587        12.0385        -0.0028        94.0932        93.5589        16.3438         1.8466         1.6765         2.3045        25.8607         3.1450         0.0050         2.2223        16.5837      -999.2500         1.5100         0.6563     
 3385.0000        12.1094        12.2578        12.2690        -0.0017       101.3268       100.9461        17.5625         1.7006         1.5511         2.2037        28.1479         3.1054         0.0056         2.1739        17.2053      -999.2500         1.3004         0.7127     
 3385.5000        12.1094        12.2578        13.6374        -0.0027       102.1760       102.0824        17.4375         1.7294         1.5631         2.0647        28.8950         3.0842         0.0068         2.1642        19.6712      -999.2500         1.2204         0.8712     
 3386.0000        12.1094        12.2578        13.1823        -0.0068       103.5937       103.8620        16.9531         1.7648         1.5282         2.0181        29.3302         3.1415         0.0068         2.1527        19.3213      -999.2500         1.0673         0.8864     
 3386.5000        12.1094        12.2578        12.7331        -0.0097       104.9377       105.1253        15.0313         1.7705         1.5470         2.1342        29.4472         3.2004         0.0068         2.1494        18.7051      -999.2500         0.9413         0.8623     
 3387.0000        12.1094        12.2578        13.1376        -0.0106       105.3564       105.2626        14.7969         1.7797         1.5613         2.0954        29.2278         3.2701         0.0070         2.1450        19.1038      -999.2500         0.9518         0.8614     
 3387.5000        12.1094        12.2578        12.9096        -0.0116       105.1617       104.8925        13.6484         1.7726         1.5606         2.1163        28.7045         3.2199         0.0069         2.1412        18.4584      -999.2500         0.9381         0.8012     
 3388.0000        12.1094        12.2578        13.1233        -0.0107       105.8117       105.8359        14.3594         1.7538         1.5409         2.0462        27.9794         3.1409         0.0069         2.1378        18.6605      -999.2500         0.9909         0.7995     
 3388.5000        12.1094        12.2578        12.4402        -0.0111       106.6511       107.2594        14.4844         1.7213         1.5641         1.9697        27.8811         3.0877         0.0067         2.1336        17.8347      -999.2500         0.8777         0.7789     
 3389.0000        12.1094        12.2578        12.8391        -0.0095       106.7818       106.7550        14.0859         1.6971         1.4837         2.0532        28.1807         3.0821         0.0070         2.1307        18.5767      -999.2500         0.8867         0.8284     
 3389.5000        12.1094        12.2578        12.0582        -0.0082       106.6363       106.9242        13.0078         1.7094         1.4999         2.0426        28.3983         3.1160         0.0065         2.1287        17.9268      -999.2500         0.8664         0.8473     
 3390.0000        12.1094        12.2578        11.4663        -0.0074       107.0117       107.3977        12.8828         1.7108         1.4955         2.0173        28.5520         3.0646         0.0064         2.1311        17.3468      -999.2500         0.7148         0.8490     
 3390.5000        12.1094        12.2578        11.4757        -0.0074       107.5100       106.5320        14.2891         1.6947         1.4624         1.9578        28.3086         2.9742         0.0066         2.1322        17.4470      -999.2500         0.6505         0.8622     
 3391.0000        12.1094        12.2578        10.3564        -0.0056       106.8176       107.2764        15.9609         1.6944         1.4915         1.8990        28.1000         2.8571         0.0062         2.1437        16.1105      -999.2500         0.4633         0.8308     
 3391.5000        12.1094        12.2578        10.9941        -0.0045       107.6182       105.0512        17.5156         1.7061         1.4636         1.9309        28.0211         2.7959         0.0066         2.1506        17.1812      -999.2500         0.4818         0.8933     
 3392.0000        12.1094        12.2578        12.8455        -0.0042       105.9047       106.3185        16.9531         1.7020         1.4598         2.0908        28.9474         2.8543         0.0075         2.1510        19.9087      -999.2500         0.6734         1.0198     
 3392.5000        12.1094        12.2578        12.9848        -0.0046       105.5648       106.5885        16.4688         1.6945         1.4487         2.0647        30.4008         3.0145         0.0075         2.1444        20.1366      -999.2500         0.7296         1.0326     
 3393.0000        12.1094        12.2578        12.4405        -0.0040       104.8980       106.5077        13.8438         1.7155         1.4360         2.0088        30.7913         3.1191         0.0072         2.1428        19.4124      -999.2500         0.6687         1.0066     
 3393.5000        12.1094        12.2578        12.3257        -0.0039       105.6949       105.1374        13.9531         1.7283         1.4755         2.0825        29.9320         3.0623         0.0072         2.1469        19.2590      -999.2500         0.6518         1.0011     
 3394.0000        12.1094        12.2578        12.0935        -0.0050       106.4087       105.7372        15.2656         1.7204         1.4228         2.1105        28.7631         2.9268         0.0071         2.1466        19.1064      -999.2500         0.6059         1.0126     
 3394.5000        12.1094        12.2578        10.7120        -0.0059       105.7395       105.5960        18.5000         1.7247         1.4502         2.1226        28.4114         2.8633         0.0065         2.1432        17.4799      -999.2500         0.4400         0.9772     
 3395.0000        12.1094        12.2578        10.3342        -0.0069       105.6226       106.7701        18.3906         1.7408         1.5097         2.1266        28.8707         2.8921         0.0061         2.1390        17.3444      -999.2500         0.4886         1.0122     
 3395.5000        12.1098        12.2578        11.2709        -0.0086       105.7950       105.9669        17.4375         1.7203         1.4494         2.1267        29.0998         2.9092         0.0063         2.1346        18.9460      -999.2500         0.7055         1.1082     
 3396.0000        12.1155        12.2578        11.2646        -0.0087       104.3884       104.5607        15.4219         1.7250         1.5179         2.1554        28.6848         2.9010         0.0062         2.1345        18.8214      -999.2500         0.7681         1.0911     
 3396.5000        12.1107        12.2597        12.1734        -0.0095       104.2782       104.1929        14.6953         1.7525         1.5013         2.1999        28.3866         2.8648         0.0065         2.1386        19.8239      -999.2500         0.8827         1.1046     
 3397.0000        12.1097        12.2782        13.0930        -0.0107       103.8508       105.3016        14.4219         1.7659         1.5281         2.1938        28.3876         2.8639         0.0068         2.1446        20.7476      -999.2500         1.0229         1.1052     
 3397.5000        12.1155        12.3262        12.6745        -0.0098       102.5190       104.8298        16.3281         1.7952         1.5710         2.1936        28.2589         2.9458         0.0064         2.1509        19.8183      -999.2500         1.0960         1.0315     
