~Version Information Section
VERS.          2.0                                     : CWLS LOG ASCII Standard
WRAP.          NO                                      : One line per depth step
CREA.          04/05/16                                : LAS Creation Date
~Well Information Section
STRT.ft        3300.000                                : Start Depth
STOP.ft        3900.0000                               : Stop Depth
STEP.ft        0.5000                                  : Step
NULL.          -999.2500                               : Null Value
COMP.          709                                     : Company
WELL.          13/22a-7                                : Well
FLD .          CAPTAIN                                 : Field
LOC .                                                  : Location
LOC1.                                                  : Location 1
CTRY.          UK                                      : Country
STAT.          INNER MORAY FIRTH                       : State
CNTY.          UKCS                                    : County
UWI .          10764                                   : UWI Number
API .                                                  : API Number
SECT.                                                  : Section
TOWN.                                                  : Township
RNGE.                                                  : Range
PDAT.          MSL                                     : Perm Datum
EPD .ft        82                                      : Elevation
LMF .          RKB                                     : Log Measured From
DMF .          RKB                                     : Drill Measured From
APD .ft        0                                       : Above Perm Datum
EKB .ft        82                                      : Elev-Kelly Bushing
EDF .ft        81                                      : Elev-Drill Floor
EGL .ft        -352                                    : Elev-Ground Level
SRVC.         SCHLUMBERGER                             : Service Company
DATE .        12/05/1990                               : Completion Date
LAT .         58 18 34.15 N                            : Latitude
LONG.         01 44 41.13 W                            : Longitude
TOOL.	      COMP WIRE                                : Tool
~Curve Information Section
DEPTH.ft                                                  : Depth Curve
CALI.in                                                : Caliper
CALS.in                                                : Sonic Caliper
CGR.gAPI                                               : Computed Gamma Ray From Thorium, Uranium, And Potassium
DRHO.g/cc                                              : Delta Rho
DTLF.us/ft                                             : Delta-T Long Spacing Far
DTLN.us/ft                                             : Delta-T Long Spacing Near
GR.gAPI                                                : Gamma Ray
LLD.Ohmm                                               : Latero-Log Deep (Resistivity)
LLS.Ohmm                                               : Latero-Log Shallow (Resistivity)
MSFL.Ohmm                                              : Msfl Resistivity
NPHI.%                                                 : Neutron Porosity
PEF.B/e                                                : Photo-Electric Factor
POTA.ppm                                               : Potassium
RHOB.g/cc                                              : Bulk Density
SGR.gAPI                                               : Spectroscopy Gamma-Ray
SP.mV                                                  : Spontaneous Potential
THOR.ppm                                               : Thorium
URAN.ppm                                               : Uranium
~ASCII Log Data Section
# ...
 3496.0000        12.4572        12.4913        22.6593         0.0270        97.1617        96.0228        37.9688         3.0010         2.9358         3.6549        23.8324         4.9498         0.0065         2.4582        41.8277      -999.2500         4.0741         2.7676     
 3496.5000        12.4097        12.5110        21.4539         0.0213        93.4787        93.6360        34.8438         3.5576         3.4457         4.3042        23.8328         4.3600         0.0062         2.4623        40.2556      -999.2500         3.8426         2.7147     
 3497.0000        12.4063        12.5055        23.1534         0.0152        94.0777        94.5544        41.4063         3.9251         3.7127         6.2042        29.7326         3.8330         0.0066         2.4287        43.1343      -999.2500         4.2108         2.8849     
 3497.5000        12.4294        12.5303        30.9479         0.0154        96.8855        97.1093        56.6250         3.7621         3.7233         6.5097        36.9108         3.4630         0.0078         2.3597        55.2228      -999.2500         6.0461         3.5049     
 3498.0000        12.5684        12.5584        55.4673         0.0092       103.9342       104.3947        84.5000         3.1793         3.1399         4.5165        37.7847         3.4995         0.0099         2.3063        84.2634      -999.2500        12.6012         4.1577     
 3498.5000        12.6496        12.6121        74.3925         0.0064       107.0591       106.8958       111.1250         2.7729         2.7906         2.5365        31.9443         3.6150         0.0185         2.3129       127.4080      -999.2500        14.6477         7.6546     
 3499.0000        12.5383        12.6618        82.0878         0.0084       104.5509       104.5305       123.0625         2.8351         2.8177         2.6110        25.4592         3.6770         0.0222         2.3706       143.1639      -999.2500        15.3866         8.8184     
 3499.5000        12.5106        12.5634        72.3264         0.0071       100.4678       100.2550       122.1875         3.1018         2.9567         4.7511        22.9137         3.5212         0.0218         2.4223       131.4665      -999.2500        12.5828         8.5389     
 3500.0000        12.5174        12.5441        66.9904        -0.0022        91.4570        92.8160       109.2500         3.8352         3.6465         5.2629        22.9646         3.5016         0.0217         2.4217       123.7256      -999.2500        11.0163         8.1917     
 3500.5000        12.5302        12.5271        62.8555        -0.0060        88.1150        88.0908       103.2500         4.3522         3.9848         5.2676        24.3330         3.4199         0.0223         2.4064       117.1084      -999.2500         9.5155         7.8332     
 3501.0000        12.5141        12.5303        61.2020        -0.0017        89.6115        89.7495       102.0625         4.3371         3.9882         4.7222        26.2268         3.4701         0.0223         2.3812       114.5472      -999.2500         9.0120         7.7022     
 3501.5000        12.4206        12.5313        59.3178         0.0016        89.5358        90.6770       100.8750         4.2133         4.0232         4.5845        26.5452         3.3446         0.0219         2.3522       111.7758      -999.2500         8.5964         7.5741     
 3502.0000        12.4068        12.5331        59.6269         0.0009        89.6773        93.1573       104.3750         4.1715         3.9103         4.8318        25.1284         3.3771         0.0223         2.3189       112.3348      -999.2500         8.4953         7.6102     
 3502.5000        12.4063        12.5396        60.9391         0.0027        93.3358        94.6827       102.1875         4.2474         4.0411         4.6883        23.6396         3.3918         0.0232         2.3154       114.3423      -999.2500         8.5183         7.7106     
 3503.0000        12.4155        12.5055        61.6117         0.0056        93.5156        93.7625       101.5000         4.2572         4.0192         4.7707        24.0272         3.6118         0.0238         2.3284       115.3817      -999.2500         8.4847         7.7635     
 3503.5000        12.4718        12.5036        61.1596         0.0037        92.7505        93.8882        99.0000         4.2586         3.9356         4.5127        24.9940         3.6403         0.0238         2.3482       114.8052      -999.2500         8.3149         7.7456     
 3504.0000        12.5151        12.5303        57.4304        -0.0006        91.9191        91.8419        99.6250         4.2633         3.9102         4.7228        25.4939         3.6738         0.0228         2.3551       109.8125      -999.2500         7.6158         7.5631     
 3504.5000        12.5326        12.5520        61.0807        -0.0012        90.6590        90.5590       103.8750         4.1915         3.8494         4.7237        25.4885         3.6656         0.0247         2.3662       116.2213      -999.2500         7.8957         7.9614     
 3505.0000        12.5459        12.5547        62.2627        -0.0023        90.6227        90.5045       110.1875         4.1429         3.7823         4.6437        25.7718         3.7147         0.0253         2.3746       118.3710      -999.2500         8.0312         8.1011     
 3505.5000        12.5469        12.5547        61.7289        -0.0040        91.1046        90.6598       110.3750         4.1183         3.7130         4.3483        26.7354         3.7361         0.0248         2.3707       116.8248      -999.2500         8.0830         7.9550     
 3506.0000        12.5469        12.5556        78.7509        -0.0056        91.7639        92.0265       114.9375         4.0713         3.6786         4.7843        27.4069         3.7190         0.0273         2.3593       134.9250      -999.2500        12.1917         8.1107     
 3506.5000        12.5469        12.5616        81.9328        -0.0056        93.7233        93.9580       115.5000         3.9562         3.6286         4.4940        27.3106         3.5393         0.0281         2.3464       138.8005      -999.2500        12.7853         8.2108     
 3507.0000        12.5469        12.5625        81.2642        -0.0062        96.0801        95.1180       119.2500         3.9826         3.6515         4.4428        26.8639         3.3382         0.0281         2.3333       137.5656      -999.2500        12.6023         8.1290     
 3507.5000        12.5469        12.5625        76.9621        -0.0044        96.1808        96.4514       119.8750         4.0277         3.5996         4.7102        26.7783         3.2027         0.0276         2.3283       130.4389      -999.2500        11.4890         7.7212     
 3508.0000        12.5469        12.5580        72.2031        -0.0015        95.6786        94.9951       118.8125         4.1442         3.6854         4.6465        27.1811         3.1829         0.0267         2.3322       123.2345      -999.2500        10.4517         7.3681     
 3508.5000        12.5469        12.5279        72.1473         0.0028        93.0131        93.3296       115.7500         4.2723         3.8528         5.1728        26.6999         3.2549         0.0270         2.3466       123.3391      -999.2500        10.2997         7.3913     
 3509.0000        12.5469        12.5234        72.6873         0.0024        92.2213        92.1951       112.3750         4.4252         3.9702         5.5857        25.4635         3.3178         0.0274         2.3526       124.4791      -999.2500        10.3046         7.4779     
 3509.5000        12.5434        12.5243        72.4440         0.0021        90.1548        90.9901       106.9375         4.5578         4.1980         5.6221        24.3653         3.3032         0.0274         2.3542       124.5677      -999.2500        10.2004         7.5258     
