~Version Information Section
VERS.          2.0                                     : CWLS LOG ASCII Standard
WRAP.          NO                                      : One line per depth step
CREA.          27/11/15                                : LAS Creation Date
~Well Information Section
STRT.ft        3749.0000                               : Start Depth
STOP.ft        4349.0000                               : Stop Depth
STEP.ft        0.5000                                  : Step
NULL.          -999.2500                               : Null Value
COMP.          TEXACO                                  : Company
WELL.          13/22a-6                                : Well
FLD .          CAPTAIN                                 : Field
LOC .          MORAY FIRTH                             : Location
LOC1.                                                  : Location (UTM)
CTRY.          UK                                      : Country
PROV.          UKCS                                    : Province
UWI .          10763                                   : UWI Number
API .                                                  : API Number
SECT.                                                  : Section
TOWN.                                                  : Township
RNGE.                                                  : Range
PDAT.          MSL                                     : Perm Datum
EPD .ft        0.00                                    : Elevation
LMF .          RKB                                     : Log Measured From
DMF .          RKB                                     : Drill Measured From
APD .ft        81.00                                   : Above Perm Datum
EKB .ft        81.00                                   : Elev-Kelly Bushing
EDF .ft        80.00                                   : Elev-Drill Floor
EGL .ft        -364.00                                 : Elev-Ground Level (Water Depth)
TDD .ft        4400.00                                 : Total Depth (Driller)
SRVC.          ATLAS WIRELINE                          : Service Company
LATI.          58 19 25.50 N                           : Latitude
LONG.          01 42 58.94 W                           : Longitude
DATE.          APR-MAY-1990                            : Logging Date
PROJ.          UKCS                                    : Project
SET .          COMP WIRE                               : Set
~Curve Information Section
DEPTH.ft                                               : Depth Curve
AC.us/ft                                               : Acoustic Travel Time
CAL.in                                                 : Caliper
CNC.%                                                  : Compensated Neutron Porosity
GR.gAPI                                                : DIFL Gamma Ray
GRS.gAPI                                               : SL Gamma Ray
K.                                                     : Potassium
KTH.gAPI                                               : Uranium Stripped Gamma Ray
PE.B/e                                                 : Photo-electric
RD.ohmm                                                : Deep Laterolog Resistivity
RFOC.ohmm                                              : Logarithmic Resistivity from CFOC
RILD.ohmm                                              : Deep Induction Resistivity
RILM.ohmm                                              : Medium Induction Resistivity
RMLL.ohmm                                              : Microlaterolog Resistivity
RS.ohmm                                                : Shallow Laterolog Resistivity
SP.mV                                                  : Spontaneous Potential
TH.ppm                                                 : Thorium
U.ppm                                                  : Uranium
ZCOR.g/cc                                              : ZDL Density Correction
ZDEN.g/cc                                              : ZDL Bulk Density
~ASCII Log Data Section
# ...
 4208.0000       104.4474        12.9429        37.1585        59.7342        49.9235         1.4016        41.1910         3.5932         3.7681      -999.2500      -999.2500      -999.2500         3.5331         4.0050       161.2102         3.5446         2.1058         0.0771         2.3434     
 4208.5000       100.8647        12.9429        34.0410        59.3157        47.3130         1.1078        34.0683         3.4740         3.8347      -999.2500      -999.2500      -999.2500         4.2121         4.0591       161.1413         2.9536         3.0423         0.0581         2.3425     
 4209.0000        98.8018        12.9429        31.6396        60.4622        46.6803         0.9222        30.0597         3.2260         3.8394      -999.2500      -999.2500      -999.2500         4.7159         4.0248       160.8189         2.6460         3.6638         0.0342         2.3426     
 4209.5000        98.2045        12.9429        30.3775        57.6387        45.3106         0.9035        30.6970         3.0552         3.8396      -999.2500      -999.2500      -999.2500         4.6820         4.0002       160.2513         3.1063         3.1565         0.0270         2.3430     
 4210.0000        97.3366        12.9429        29.7334        58.2630        45.7480         0.9366        34.4198         2.9827         3.8580      -999.2500      -999.2500      -999.2500         4.4464         4.0122       159.6511         4.8657         2.4004         0.0263         2.3375     
 4210.5000        95.1889        12.9429        28.8375        68.7128        52.5532         1.0720        42.4232         2.9380         3.8847      -999.2500      -999.2500      -999.2500         4.4448         4.0293       159.5975         7.9094         2.1258         0.0235         2.3241     
 4211.0000        92.4147        12.9429        27.8591        78.4259        62.8359         1.3430        52.2906         2.8768         3.8633      -999.2500      -999.2500      -999.2500         4.5138         4.0005       160.3165        10.3582         2.2716         0.0236         2.3111     
 4211.5000        90.8958        12.9429        27.6259        75.7635        67.6856         1.5694        56.4540         2.8019         3.6972      -999.2500      -999.2500      -999.2500         4.2227         3.8515       161.1996        10.0115         2.5184         0.0288         2.3106     
 4212.0000        92.1344        12.9429        28.0964        64.9554        62.8854         1.6325        53.2542         2.8250         3.4121      -999.2500      -999.2500      -999.2500         3.3754         3.5778       161.7586         7.5656         2.2467         0.0414         2.3252     
 4212.5000        95.3737        12.9429        27.9995        54.0074        52.4182         1.5216        46.1469         3.0556         3.1895      -999.2500      -999.2500      -999.2500         2.7634         3.3211       162.2386         5.4152         1.5179         0.0552         2.3443     
 4213.0000        98.0700        12.9429        26.4031        45.4263        42.7857         1.2671        37.9241         3.3938         3.2448      -999.2500      -999.2500      -999.2500         2.6037         3.2917       162.7429         4.1443         1.1824         0.0509         2.3556     
 4213.5000        98.1412        12.9429        23.8174        41.5279        37.8404         1.0645        32.8348         3.6759         3.7219      -999.2500      -999.2500      -999.2500         2.6684         3.6204       162.8324         3.2521         1.1729         0.0254         2.3530     
 4214.0000        95.3016        12.9445        20.9246        44.1047        37.3123         1.0600        32.9186         3.8817         4.5880      -999.2500      -999.2500      -999.2500         2.6201         4.2895       162.3409         2.7062         1.0065         0.0052         2.3482     
 4214.5000        90.2967        12.9331        17.8120        49.0994        39.0670         1.0905        34.3062         4.0643         5.2609      -999.2500      -999.2500      -999.2500         2.7966         4.8889       161.6195         2.6969         1.0715         0.0084         2.3644     
 4215.0000        84.2731        12.9112        15.1609        50.8861        40.5314         0.9403        32.2009         4.2581         4.9518      -999.2500      -999.2500      -999.2500         3.9969         4.7251       161.1856         2.7899         1.7221         0.0152         2.4040     
 4215.5000        78.5053        12.9331        14.2837        47.3754        39.0502         0.7363        27.6016         4.4184         4.1133      -999.2500      -999.2500      -999.2500         6.4705         4.0376       161.3641         2.3423         2.2081         0.0016         2.4343     
 4216.0000        75.2031        12.9445        14.7067        42.0687        35.6296         0.7564        26.4210         4.3954         3.5909      -999.2500      -999.2500      -999.2500         6.5186         3.5499       161.8704         1.7343         1.8299        -0.0206         2.4179     
 4216.5000        76.0999        12.9429        15.3853        40.4730        33.7669         0.9687        29.0840         4.1291         3.5574      -999.2500      -999.2500      -999.2500         4.5605         3.4532       162.0993         1.8488         1.0459        -0.0229         2.3696     
 4217.0000        79.3394        12.9429        16.3388        42.6638        33.7687         1.1514        31.3184         3.7907         3.7195      -999.2500      -999.2500      -999.2500         3.3925         3.5478       162.0261         2.4518         0.6257        -0.0094         2.3290     
 4217.5000        81.1672        12.9429        16.5806        44.5690        33.9560         1.2702        31.6164         3.5674         3.5170      -999.2500      -999.2500      -999.2500         3.0983         3.3785       161.9581         2.6862         0.6607         0.0043         2.3146     
 4218.0000        80.4298        12.9429        15.5837        44.8058        34.8423         1.4210        32.1617         3.5098         2.9162      -999.2500      -999.2500      -999.2500         3.7472         2.8624       161.7476         2.4847         0.8197         0.0111         2.3253     
 4218.5000        78.9178        12.9429        14.9543        44.3103        37.2853         1.6331        34.6937         3.5084         2.3573      -999.2500      -999.2500      -999.2500         4.7707         2.3412       161.2658         2.4213         0.8334         0.0090         2.3427     
 4219.0000        78.4479        12.9429        15.7183        43.6272        39.9038         1.8680        37.8540         3.4989         2.0179      -999.2500      -999.2500      -999.2500         3.8499         1.9944       160.8155         2.3855         0.6848         0.0005         2.3344     
 4219.5000        80.1631        12.9429        17.4072        43.3029        41.0743         1.9589        39.2737         3.4603         1.8615      -999.2500      -999.2500      -999.2500         2.5490         1.8169       160.3510         2.0484         0.6051        -0.0062         2.2906     
 4220.0000        83.8383        12.9429        19.7335        43.1478        40.3898         1.7588        38.6108         3.3512         1.8052      -999.2500      -999.2500      -999.2500         1.9521         1.7465       159.6467         1.9832         0.5473        -0.0072         2.2381     
 4220.5000        87.7096        12.9429        21.3450        42.3678        39.3719         1.5696        38.1484         3.2453         1.7794      -999.2500      -999.2500      -999.2500         1.7894         1.7179       159.0123         2.5210         0.3734        -0.0033         2.2017     
 4221.0000        90.3327        12.9429        22.4116        42.1483        40.1876         1.7021        39.4829         3.1951         1.7400      -999.2500      -999.2500      -999.2500         1.8947         1.6847       158.9594         3.1753         0.2974         0.0009         2.1850     
