~Version Information Section
VERS.          2.0                                     : CWLS LOG ASCII Standard
WRAP.          NO                                      : One line per depth step
CREA.          04/05/16                                : LAS Creation Date
~Well Information Section
STRT.ft        3300.000                                : Start Depth
STOP.ft        3900.0000                               : Stop Depth
STEP.ft        0.5000                                  : Step
NULL.          -999.2500                               : Null Value
COMP.          709                                     : Company
WELL.          13/22a-7                                : Well
FLD .          CAPTAIN                                 : Field
LOC .                                                  : Location
LOC1.                                                  : Location 1
CTRY.          UK                                      : Country
STAT.          INNER MORAY FIRTH                       : State
CNTY.          UKCS                                    : County
UWI .          10764                                   : UWI Number
API .                                                  : API Number
SECT.                                                  : Section
TOWN.                                                  : Township
RNGE.                                                  : Range
PDAT.          MSL                                     : Perm Datum
EPD .ft        82                                      : Elevation
LMF .          RKB                                     : Log Measured From
DMF .          RKB                                     : Drill Measured From
APD .ft        0                                       : Above Perm Datum
EKB .ft        82                                      : Elev-Kelly Bushing
EDF .ft        81                                      : Elev-Drill Floor
EGL .ft        -352                                    : Elev-Ground Level
SRVC.         SCHLUMBERGER                             : Service Company
DATE .        12/05/1990                               : Completion Date
LAT .         58 18 34.15 N                            : Latitude
LONG.         01 44 41.13 W                            : Longitude
TOOL.	      COMP WIRE                                : Tool
~Curve Information Section
DEPTH.ft                                                  : Depth Curve
CALI.in                                                : Caliper
CALS.in                                                : Sonic Caliper
CGR.gAPI                                               : Computed Gamma Ray From Thorium, Uranium, And Potassium
DRHO.g/cc                                              : Delta Rho
DTLF.us/ft                                             : Delta-T Long Spacing Far
DTLN.us/ft                                             : Delta-T Long Spacing Near
GR.gAPI                                                : Gamma Ray
LLD.Ohmm                                               : Latero-Log Deep (Resistivity)
LLS.Ohmm                                               : Latero-Log Shallow (Resistivity)
MSFL.Ohmm                                              : Msfl Resistivity
NPHI.%                                                 : Neutron Porosity
PEF.B/e                                                : Photo-Electric Factor
POTA.ppm                                               : Potassium
RHOB.g/cc                                              : Bulk Density
SGR.gAPI                                               : Spectroscopy Gamma-Ray
SP.mV                                                  : Spontaneous Potential
THOR.ppm                                               : Thorium
URAN.ppm                                               : Uranium
~ASCII Log Data Section
# ...
 3776.0000        12.2500        12.4322        26.1032        -0.0193        82.8142        80.9122        35.8438         4.6516         3.9370       160.3898        13.3490         3.2423         0.0135         2.2316        39.8097      -999.2500         2.0921         1.9790     
 3776.5000        12.2963        12.4238        29.9451        -0.0163        90.2947        88.5606        41.9375         3.2284         2.8552         3.0669        20.9639         3.6162         0.0147         2.2071        44.4547      -999.2500         2.7573         2.0950     
 3777.0000        12.3114        12.4362        31.9380        -0.0123        92.8131        91.9042        42.1563         2.8209         2.5555         2.8103        24.9527         3.8747         0.0155         2.2197        46.9162      -999.2500         3.0082         2.1626     
 3777.5000        12.2308        12.4330        30.9740        -0.0073        93.5425        92.1632        43.4063         2.9254         2.6542         3.1053        24.2884         3.7729         0.0152         2.2099        45.0679      -999.2500         2.8498         2.0349     
 3778.0000        12.2395        12.3847        31.7143        -0.0051        95.0343        93.8563        40.7500         3.0037         2.7441         3.2502        23.4857         3.5350         0.0155         2.1845        46.0435      -999.2500         2.9418         2.0689     
 3778.5000        12.3121        12.3600        31.5500        -0.0066        96.5721        95.7297        38.2188         2.8902         2.7232         2.4254        24.5945         3.4712         0.0153         2.1610        45.6268      -999.2500         2.9928         2.0325     
 3779.0000        12.3358        12.4173        29.1357        -0.0066       100.5251        98.8388        34.1563         2.5939         2.5469         2.3009        26.1932         3.4696         0.0143         2.1601        41.7639      -999.2500         2.6782         1.8233     
 3779.5000        12.4301        12.4616        27.6928        -0.0050       102.8137        99.4690        31.5000         2.4074         2.3910         2.3185        27.1018         3.4883         0.0137         2.1680        39.7385      -999.2500         2.4956         1.7392     
 3780.0000        12.2900        12.6927        26.7787        -0.0044        99.6711        98.8218        31.9063         2.4059         2.3753         2.2473        27.2539         3.5693         0.0134         2.1728        38.4532      -999.2500         2.3764         1.6856     
 3780.5000        12.2657        12.4703        26.1229        -0.0045        98.3241        98.2001        32.2188         2.4332         2.4019         2.4461        27.0262         3.8590         0.0131         2.1833        37.5376      -999.2500         2.2927         1.6481     
 3781.0000        12.2515        12.3744        28.5453        -0.0008        96.6587        97.4588        33.8125         2.5913         2.5106         2.4635        27.7122         3.9387         0.0145         2.1935        40.8404      -999.2500         2.4255         1.7752     
 3781.5000        12.2505        12.3705        28.8182        -0.0011        94.2682        95.8625        35.1563         2.7810         2.6006         2.3941        26.4424         3.6602         0.0148         2.1871        41.5375      -999.2500         2.3722         1.8365     
 3782.0000        12.2565        12.4069        29.9525        -0.0028        94.6600        95.5382        38.2188         2.7933         2.5187         3.3148        27.4688         3.2192         0.0154         2.1658        43.3867      -999.2500         2.4566         1.9397     
 3782.5000        12.2507        12.4604        30.3415        -0.0063        97.0081        97.0350        36.9063         2.7614         2.4396         2.1472        29.9462         2.9565         0.0156         2.1486        44.2966      -999.2500         2.5019         2.0149     
 3783.0000        12.2530        12.5619        30.5113        -0.0049        97.3493        98.3852        35.4063         2.6187         2.2904         2.1305        30.6061         3.0181         0.0154         2.1605        45.1415      -999.2500         2.6448         2.1124     
 3783.5000        12.2754        12.4516        27.6331        -0.0065        96.1816        99.3735        32.7188         2.4214         2.1186         2.2215        30.0518         3.4903         0.0135         2.2118        41.6448      -999.2500         2.5858         2.0231     
 3784.0000        12.2534        12.4504        25.7146        -0.0026        93.4761        93.5867        31.3281         2.5849         2.2271         2.2207        27.6261         4.0781         0.0122         2.3132        39.1720      -999.2500         2.5642         1.9430     
 3784.5000        12.2642        12.4388        25.2255         0.0027        86.5213        85.9040        32.0625         3.2114         2.7042         2.6402        20.9545         4.7506         0.0115         2.4248        38.4113      -999.2500         2.7225         1.9038     
 3785.0000        12.3106        12.4476        25.4472         0.0045        77.6038        77.5234        32.4063         4.3019         3.5017         7.5761        14.6302         5.1436         0.0112         2.4880        38.6670      -999.2500         2.9196         1.9087     
 3785.5000        12.3802        12.5723        26.0593         0.0018        73.0565        70.5837        36.6250         6.1903         4.7979        23.3896        12.5247         5.4798         0.0110         2.4765        39.5610      -999.2500         3.1749         1.9494     
 3786.0000        12.6407        12.8116        26.5541         0.0181        71.3201        68.9921        37.7500         8.9799         6.7732         9.1220        12.7248         5.8528         0.0109         2.4425        40.2178      -999.2500         3.3912         1.9728     
 3786.5000        12.6072        12.5118        28.0337         0.0448        72.7112        70.3414        39.5000        10.0865         7.6324        19.4994        11.9415         5.8353         0.0110         2.3786        42.4002      -999.2500         3.7753         2.0743     
 3787.0000        12.9214        12.5609        27.9228         0.0626        78.8589        78.2807        36.7500         8.1332         6.3286        85.9546        13.5401         6.3660         0.0107         2.2830        42.3063      -999.2500         3.8706         2.0767     
 3787.5000        13.3555        12.7235        26.1834         0.0799        88.9719        87.3643        36.8125         6.4916         5.2340        15.7886        18.6791         6.6702         0.0099         2.2105        39.9292      -999.2500         3.6995         1.9847     
 3788.0000        13.7548        12.9982        26.0815         0.0797        89.3436        89.2073        35.4063         5.2191         4.3329         3.3813        28.6865         6.8963         0.0097         2.1546        40.2804      -999.2500         3.7656         2.0501     
 3788.5000        14.9152        13.2288        27.8991         0.0589        89.8142        91.3792        37.0625         4.3472         3.6456         1.3131        32.7684         6.6537         0.0101         2.1152        43.4744      -999.2500         4.1187         2.2488     
 3789.0000        16.0808        13.7627        26.0864         0.0288        87.7343        86.8094        35.0000         4.2048         3.5031         0.9557        33.7402         5.7518         0.0095         2.1095        40.7236      -999.2500         3.8368         2.1134     
 3789.5000        13.7616        14.2476        24.9081         0.0143        80.8830        80.5821        33.2188         4.6485         3.8004         1.1830        30.4924         5.3462         0.0091         2.1499        39.0139      -999.2500         3.6482         2.0367     
