~Version Information Section
VERS.          2.0                                     : CWLS LOG ASCII Standard
WRAP.          NO                                      : One line per depth step
CREA.          27/11/15                                : LAS Creation Date
~Well Information Section
STRT.ft        3749.0000                               : Start Depth
STOP.ft        4349.0000                               : Stop Depth
STEP.ft        0.5000                                  : Step
NULL.          -999.2500                               : Null Value
COMP.          TEXACO                                  : Company
WELL.          13/22a-6                                : Well
FLD .          CAPTAIN                                 : Field
LOC .          MORAY FIRTH                             : Location
LOC1.                                                  : Location (UTM)
CTRY.          UK                                      : Country
PROV.          UKCS                                    : Province
UWI .          10763                                   : UWI Number
API .                                                  : API Number
SECT.                                                  : Section
TOWN.                                                  : Township
RNGE.                                                  : Range
PDAT.          MSL                                     : Perm Datum
EPD .ft        0.00                                    : Elevation
LMF .          RKB                                     : Log Measured From
DMF .          RKB                                     : Drill Measured From
APD .ft        81.00                                   : Above Perm Datum
EKB .ft        81.00                                   : Elev-Kelly Bushing
EDF .ft        80.00                                   : Elev-Drill Floor
EGL .ft        -364.00                                 : Elev-Ground Level (Water Depth)
TDD .ft        4400.00                                 : Total Depth (Driller)
SRVC.          ATLAS WIRELINE                          : Service Company
LATI.          58 19 25.50 N                           : Latitude
LONG.          01 42 58.94 W                           : Longitude
DATE.          APR-MAY-1990                            : Logging Date
PROJ.          UKCS                                    : Project
SET .          COMP WIRE                               : Set
~Curve Information Section
DEPTH.ft                                               : Depth Curve
AC.us/ft                                               : Acoustic Travel Time
CAL.in                                                 : Caliper
CNC.%                                                  : Compensated Neutron Porosity
GR.gAPI                                                : DIFL Gamma Ray
GRS.gAPI                                               : SL Gamma Ray
K.                                                     : Potassium
KTH.gAPI                                               : Uranium Stripped Gamma Ray
PE.B/e                                                 : Photo-electric
RD.ohmm                                                : Deep Laterolog Resistivity
RFOC.ohmm                                              : Logarithmic Resistivity from CFOC
RILD.ohmm                                              : Deep Induction Resistivity
RILM.ohmm                                              : Medium Induction Resistivity
RMLL.ohmm                                              : Microlaterolog Resistivity
RS.ohmm                                                : Shallow Laterolog Resistivity
SP.mV                                                  : Spontaneous Potential
TH.ppm                                                 : Thorium
U.ppm                                                  : Uranium
ZCOR.g/cc                                              : ZDL Density Correction
ZDEN.g/cc                                              : ZDL Bulk Density
~ASCII Log Data Section
# ...
 4019.0000        89.0533        12.9429        24.6547        67.2404        57.6579         1.8524        48.3304         2.8044         2.8723      -999.2500      -999.2500      -999.2500         2.5884         2.6672       157.7530         4.2062         2.5173         0.0228         2.2327     
 4019.5000        85.6373        12.9442        23.8556        68.5918        57.7337         1.9254        50.8280         2.8143         3.5922      -999.2500      -999.2500      -999.2500         2.7517         3.2598       157.9035         5.8303         1.8912         0.0252         2.2423     
 4020.0000        79.9905        12.9338        22.0103        71.8653        57.6413         1.9930        50.3800         2.8084         4.0515      -999.2500      -999.2500      -999.2500         3.5363         3.7168       158.3308         4.8432         2.0341         0.0273         2.2735     
 4020.5000        76.0684        12.8868        19.8521        77.1568        58.6489         2.0963        49.6785         2.8855         3.5770      -999.2500      -999.2500      -999.2500         4.5239         3.3604       158.8351         3.2137         2.5960         0.0149         2.3191     
 4021.0000        76.2094        12.9086        19.0490        81.7996        62.6708         2.1931        51.4958         3.0416         2.8369      -999.2500      -999.2500      -999.2500         3.9179         2.7110       159.1528         3.5814         3.2758        -0.0072         2.3451     
 4021.5000        80.4523        12.9452        20.5791        83.7552        67.4393         2.2271        53.2860         3.0901         2.3739      -999.2500      -999.2500      -999.2500         2.9781         2.2833       159.2453         4.2983         4.1152        -0.0118         2.3255     
 4022.0000        87.3517        12.9426        23.9322        83.8822        69.5136         2.3416        54.4600         2.9444         2.1721      -999.2500      -999.2500      -999.2500         2.5859         2.0747       159.0931         4.2383         4.4835         0.0061         2.2756     
 4022.5000        93.4176        12.9429        27.4563        82.7301        69.6495         2.6033        57.3621         2.7385         2.1148      -999.2500      -999.2500      -999.2500         2.4210         1.9911       158.6556         4.2363         3.8375         0.0212         2.2305     
 4023.0000        96.1459        12.9429        29.3204        80.6699        68.4474         2.6126        57.7453         2.6530         2.1328      -999.2500      -999.2500      -999.2500         2.3294         1.9792       158.1862         4.2433         3.3318         0.0215         2.2057     
 4023.5000        96.5364        12.9429        29.4725        78.8420        66.5225         2.2396        53.6965         2.6793         2.1880      -999.2500      -999.2500      -999.2500         2.2700         2.0088       158.0314         4.2137         3.7152         0.0193         2.1966     
 4024.0000        96.3402        12.9429        29.3134        77.4417        65.9179         2.0129        52.9355         2.6945         2.2316      -999.2500      -999.2500      -999.2500         2.2800         2.0309       158.3011         5.3091         3.5211         0.0221         2.1956     
 4024.5000        96.0242        12.9429        29.4143        75.7395        66.5943         2.2891        59.0720         2.6868         2.2092      -999.2500      -999.2500      -999.2500         2.3849         2.0028       158.8560         6.5668         2.0958         0.0251         2.1987     
 4025.0000        95.7085        12.9429        29.4753        73.0770        65.8338         2.7191        62.9056         2.6999         2.1244      -999.2500      -999.2500      -999.2500         2.4006         1.9264       159.4665         6.5998         0.8962         0.0222         2.2026     
 4025.5000        95.6615        12.9429        29.0927        70.4536        63.9209         2.9251        60.9901         2.7199         2.0401      -999.2500      -999.2500      -999.2500         2.2353         1.8419       159.9294         6.0077         0.9822         0.0164         2.2027     
 4026.0000        96.0694        12.9429        28.7520        69.6467        62.1614         2.8200        58.0942         2.7283         1.9945      -999.2500      -999.2500      -999.2500         2.0650         1.7866       159.8778         5.3364         1.3716         0.0136         2.1970     
 4026.5000        96.8468        12.9429        29.3696        70.5223        61.1335         2.4803        55.9405         2.7382         1.9806      -999.2500      -999.2500      -999.2500         1.9619         1.7688       158.9402         4.4056         1.5930         0.0128         2.1885     
 4027.0000        97.8019        12.9429        30.5463        71.2710        60.9539         2.1055        52.8520         2.7587         1.9956      -999.2500      -999.2500      -999.2500         1.9010         1.7791       157.5285         3.5828         2.2271         0.0106         2.1818     
 4027.5000        98.7153        12.9429        31.1718        71.9135        61.3230         1.8983        49.8337         2.7840         2.0335      -999.2500      -999.2500      -999.2500         1.8996         1.8002       156.5854         3.0552         3.0098         0.0084         2.1788     
 4028.0000        99.5523        12.9429        31.2957        73.6429        62.4907         1.9031        51.4641         2.8125         2.0514      -999.2500      -999.2500      -999.2500         1.9761         1.8053       156.4877         3.4823         2.8265         0.0093         2.1781     
 4028.5000       100.2487        12.9429        31.5114        75.8498        63.9942         2.0874        57.5953         2.8347         2.0055      -999.2500      -999.2500      -999.2500         2.0637         1.7771       156.9994         5.5904         1.6565         0.0110         2.1767     
 4029.0000       100.4972        12.9429        31.8045        77.2427        63.9958         2.2604        59.6035         2.8440         1.9309      -999.2500      -999.2500      -999.2500         2.0521         1.7341       157.8322         6.6214         1.2002         0.0118         2.1727     
 4029.5000       100.2956        12.9429        32.0644        78.3139        63.3609         2.1423        55.3815         2.8139         1.9078      -999.2500      -999.2500      -999.2500         1.9539         1.7164       158.6305         5.2581         2.1875         0.0141         2.1666     
 4030.0000        99.9019        12.9429        32.4626        80.9915        65.7156         1.8415        52.7495         2.7339         1.9664      -999.2500      -999.2500      -999.2500         1.8823         1.7444       158.9383         4.9774         3.2359         0.0166         2.1605     
 4030.5000        99.3830        12.9429        32.9270        84.6340        69.9610         1.8170        58.1961         2.6750         2.0606      -999.2500      -999.2500      -999.2500         1.9169         1.8014       158.5526         7.7657         2.7693         0.0153         2.1576     
 4031.0000        98.7680        12.9429        33.0084        87.1212        72.4236         2.1014        64.8871         2.6645         2.1194      -999.2500      -999.2500      -999.2500         2.0598         1.8494       157.8025         9.8523         1.8653         0.0121         2.1600     
 4031.5000        98.3316        12.9429        32.6693        89.4990        73.4057         2.4427        67.4100         2.6640         2.1234      -999.2500      -999.2500      -999.2500         2.1924         1.8673       157.2146         8.8298         1.6024         0.0109         2.1659     
 4032.0000        98.3623        12.9429        32.4449        92.2193        75.6835         2.7709        70.3165         2.6674         2.0991      -999.2500      -999.2500      -999.2500         2.1666         1.8607       156.9765         7.3059         1.5085         0.0110         2.1690     
