~Version Information Section
VERS.          2.0                                     : CWLS LOG ASCII Standard
WRAP.          NO                                      : One line per depth step
CREA.          04/05/16                                : LAS Creation Date
~Well Information Section
STRT.ft        3300.000                                : Start Depth
STOP.ft        3900.0000                               : Stop Depth
STEP.ft        0.5000                                  : Step
NULL.          -999.2500                               : Null Value
COMP.          709                                     : Company
WELL.          13/22a-7                                : Well
FLD .          CAPTAIN                                 : Field
LOC .                                                  : Location
LOC1.                                                  : Location 1
CTRY.          UK                                      : Country
STAT.          INNER MORAY FIRTH                       : State
CNTY.          UKCS                                    : County
UWI .          10764                                   : UWI Number
API .                                                  : API Number
SECT.                                                  : Section
TOWN.                                                  : Township
RNGE.                                                  : Range
PDAT.          MSL                                     : Perm Datum
EPD .ft        82                                      : Elevation
LMF .          RKB                                     : Log Measured From
DMF .          RKB                                     : Drill Measured From
APD .ft        0                                       : Above Perm Datum
EKB .ft        82                                      : Elev-Kelly Bushing
EDF .ft        81                                      : Elev-Drill Floor
EGL .ft        -352                                    : Elev-Ground Level
SRVC.         SCHLUMBERGER                             : Service Company
DATE .        12/05/1990                               : Completion Date
LAT .         58 18 34.15 N                            : Latitude
LONG.         01 44 41.13 W                            : Longitude
TOOL.	      COMP WIRE                                : Tool
~Curve Information Section
DEPTH.ft                                                  : Depth Curve
CALI.in                                                : Caliper
CALS.in                                                : Sonic Caliper
CGR.gAPI                                               : Computed Gamma Ray From Thorium, Uranium, And Potassium
DRHO.g/cc                                              : Delta Rho
DTLF.us/ft                                             : Delta-T Long Spacing Far
DTLN.us/ft                                             : Delta-T Long Spacing Near
GR.gAPI                                                : Gamma Ray
LLD.Ohmm                                               : Latero-Log Deep (Resistivity)
LLS.Ohmm                                               : Latero-Log Shallow (Resistivity)
MSFL.Ohmm                                              : Msfl Resistivity
NPHI.%                                                 : Neutron Porosity
PEF.B/e                                                : Photo-Electric Factor
POTA.ppm                                               : Potassium
RHOB.g/cc                                              : Bulk Density
SGR.gAPI                                               : Spectroscopy Gamma-Ray
SP.mV                                                  : Spontaneous Potential
THOR.ppm                                               : Thorium
URAN.ppm                                               : Uranium
~ASCII Log Data Section
# ...
 3608.0000        12.2500        12.4068        74.0338        -0.0039       105.6434       105.2086        91.5000         3.5856         3.3169         3.7678        31.0081         3.3586         0.0286         2.2013       101.3589      -999.2500        10.1837         3.9453     
 3608.5000        12.2500        12.3979        73.9619        -0.0052       105.7783       105.4783        91.0625         3.4944         3.2256         3.6688        30.0986         3.3125         0.0284         2.1886       101.2744      -999.2500        10.2341         3.9435     
 3609.0000        12.2525        12.3843        71.4352        -0.0054       105.8000       105.6565        87.0000         3.3670         3.0673         3.7803        29.4893         3.1721         0.0274         2.1832        97.4060      -999.2500         9.9173         3.7498     
 3609.5000        12.2653        12.3921        71.0736        -0.0068       105.8762       105.5980        83.8750         3.3668         3.1056         3.4084        29.9488         3.0220         0.0273         2.1808        96.6157      -999.2500         9.8273         3.6879     
 3610.0000        12.3113        12.4238        71.9313        -0.0066       106.3581       106.0909        87.8750         3.4357         3.0729         3.7493        30.6048         2.8992         0.0277         2.1840        97.7322      -999.2500         9.9096         3.7252     
 3610.5000        12.3775        12.4815        75.6544        -0.0055       105.9110       105.9110        93.3750         3.7326         3.3373         4.3864        30.7005         2.9064         0.0292         2.1937       102.7371      -999.2500        10.3949         3.9103     
 3611.0000        12.3652        12.4990        80.6729        -0.0043       105.4329       105.6780       101.9375         4.0389         3.5340         4.4504        30.9077         2.9803         0.0313         2.2042       109.3671      -999.2500        11.0377         4.1430     
 3611.5000        12.3205        12.4991        82.7856        -0.0049       105.2110       105.2890       101.8125         4.1820         3.7331         4.9377        31.4298         3.0770         0.0322         2.2092       112.2497      -999.2500        11.2757         4.2541     
 3612.0000        12.2920        12.4844        83.0882        -0.0073       105.1220       104.8550       101.1250         4.2524         3.6826         4.9889        31.9673         3.1861         0.0324         2.1944       112.5077      -999.2500        11.2747         4.2477     
 3612.5000        12.2605        12.4697        81.1602        -0.0096       105.2110       104.9765        99.1875         4.1368         3.6419         4.7591        32.0148         3.2449         0.0318         2.1723       109.7397      -999.2500        10.9440         4.1264     
 3613.0000        12.2679        12.4688        80.2592        -0.0099       105.4000       106.1906        98.3125         3.9802         3.4162         4.2025        32.0572         3.2688         0.0318         2.1559       108.4771      -999.2500        10.7065         4.0742     
 3613.5000        12.3303        12.4688        78.0137        -0.0055       105.6663       106.1774        94.6250         3.7181         3.2840         3.9532        32.0243         3.1840         0.0311         2.1565       105.5531      -999.2500        10.2910         3.9763     
 3614.0000        12.3905        12.4688        75.7906        -0.0018       106.3116       106.3674        89.8750         3.5998         3.1473         3.8903        32.4912         3.0677         0.0304         2.1648       102.1381      -999.2500         9.9297         3.8042     
 3614.5000        12.4063        12.4697        75.6963         0.0004       106.2117       105.7776        89.0625         3.6081         3.1658         3.5278        33.3432         3.0047         0.0303         2.1724       102.3863      -999.2500         9.9415         3.8536     
 3615.0000        12.4399        12.4871        75.3733         0.0025       104.9556       105.5666        91.4375         3.6376         3.1898         4.0417        34.0802         2.9521         0.0302         2.1816       102.9770      -999.2500         9.8764         3.9855     
 3615.5000        12.5182        12.5455        78.0485         0.0032       105.1552       105.2223        90.5000         3.7691         3.3035         4.2773        33.6871         2.9256         0.0312         2.1903       108.0580      -999.2500        10.2777         4.3329     
 3616.0000        12.5156        12.5841        77.1326         0.0021       104.6445       105.0446        91.6875         3.9704         3.4396         4.0245        32.6107         2.9042         0.0310         2.1974       107.0390      -999.2500        10.0797         4.3180     
 3616.5000        12.4479        12.5933        75.6036         0.0015       104.4117       105.1777        92.1875         4.0466         3.5394         4.5537        32.1756         2.9902         0.0306         2.1950       104.7038      -999.2500         9.8003         4.2016     
 3617.0000        12.3618        12.5920        77.0872         0.0017       104.9884       105.2446        91.7500         4.0439         3.5552         4.7658        32.6745         3.1328         0.0313         2.1869       107.9465      -999.2500         9.9426         4.4556     
 3617.5000        12.2655        12.5625        70.9961         0.0018       105.6559       105.7006        88.6250         3.9733         3.5121         4.4466        33.1579         3.2083         0.0287         2.1754        99.7393      -999.2500         9.2226         4.1501     
 3618.0000        12.2500        12.5278        69.5890         0.0016       106.6992       106.7874        86.9375         3.7522         3.2739         3.8492        32.4698         3.1589         0.0281         2.1626        97.5396      -999.2500         9.0317         4.0356     
 3618.5000        12.2553        12.4405        67.7849        -0.0002       107.6766       107.1664        84.2500         3.3972         3.0106         3.6734        30.7234         3.0670         0.0274         2.1514        94.8913      -999.2500         8.7972         3.9137     
 3619.0000        12.3081        12.4002        66.1182        -0.0012       107.8224       107.2225        85.0000         3.1989         2.8929         3.2588        29.3295         3.0782         0.0268         2.1522        92.3309      -999.2500         8.5242         3.7847     
 3619.5000        12.4226        12.3945        65.7352         0.0009       107.8535       107.3662        83.4375         3.1850         2.8276         2.9271        30.5816         3.1183         0.0267         2.1710        91.5650      -999.2500         8.4790         3.7294     
 3620.0000        12.5004        12.4522        66.2355         0.0022       106.9795       107.1876        88.3750         3.3379         3.0294         3.4711        33.2544         3.1629         0.0267         2.1886        91.7370      -999.2500         8.6219         3.6820     
 3620.5000        12.4991        12.4987        74.1687         0.0008       106.4887       106.2905        90.9375         3.6418         3.2266         4.1839        35.0159         3.2685         0.0275         2.1907       102.1408      -999.2500        10.6883         4.0387     
 3621.0000        12.4241        12.5222        75.4649         0.0008       105.9891       105.9228        92.8125         3.9280         3.4603         4.2474        34.2745         3.3840         0.0279         2.1816       104.2302      -999.2500        10.8955         4.1533     
 3621.5000        12.3957        12.5234        69.8988         0.0018       105.4453       105.7774        89.1250         3.9623         3.4684         4.1436        32.8389         3.4338         0.0253         2.1748        95.6276      -999.2500        10.3395         3.7148     
