~Version Information Section
VERS.          2.0                                     : CWLS LOG ASCII Standard
WRAP.          NO                                      : One line per depth step
CREA.          27/11/15                                : LAS Creation Date
~Well Information Section
STRT.ft        3749.0000                               : Start Depth
STOP.ft        4349.0000                               : Stop Depth
STEP.ft        0.5000                                  : Step
NULL.          -999.2500                               : Null Value
COMP.          TEXACO                                  : Company
WELL.          13/22a-6                                : Well
FLD .          CAPTAIN                                 : Field
LOC .          MORAY FIRTH                             : Location
LOC1.                                                  : Location (UTM)
CTRY.          UK                                      : Country
PROV.          UKCS                                    : Province
UWI .          10763                                   : UWI Number
API .                                                  : API Number
SECT.                                                  : Section
TOWN.                                                  : Township
RNGE.                                                  : Range
PDAT.          MSL                                     : Perm Datum
EPD .ft        0.00                                    : Elevation
LMF .          RKB                                     : Log Measured From
DMF .          RKB                                     : Drill Measured From
APD .ft        81.00                                   : Above Perm Datum
EKB .ft        81.00                                   : Elev-Kelly Bushing
EDF .ft        80.00                                   : Elev-Drill Floor
EGL .ft        -364.00                                 : Elev-Ground Level (Water Depth)
TDD .ft        4400.00                                 : Total Depth (Driller)
SRVC.          ATLAS WIRELINE                          : Service Company
LATI.          58 19 25.50 N                           : Latitude
LONG.          01 42 58.94 W                           : Longitude
DATE.          APR-MAY-1990                            : Logging Date
PROJ.          UKCS                                    : Project
SET .          COMP WIRE                               : Set
~Curve Information Section
DEPTH.ft                                               : Depth Curve
AC.us/ft                                               : Acoustic Travel Time
CAL.in                                                 : Caliper
CNC.%                                                  : Compensated Neutron Porosity
GR.gAPI                                                : DIFL Gamma Ray
GRS.gAPI                                               : SL Gamma Ray
K.                                                     : Potassium
KTH.gAPI                                               : Uranium Stripped Gamma Ray
PE.B/e                                                 : Photo-electric
RD.ohmm                                                : Deep Laterolog Resistivity
RFOC.ohmm                                              : Logarithmic Resistivity from CFOC
RILD.ohmm                                              : Deep Induction Resistivity
RILM.ohmm                                              : Medium Induction Resistivity
RMLL.ohmm                                              : Microlaterolog Resistivity
RS.ohmm                                                : Shallow Laterolog Resistivity
SP.mV                                                  : Spontaneous Potential
TH.ppm                                                 : Thorium
U.ppm                                                  : Uranium
ZCOR.g/cc                                              : ZDL Density Correction
ZDEN.g/cc                                              : ZDL Bulk Density
~ASCII Log Data Section
# ...
 3830.0000        91.3856        12.9719        32.0694        28.0947        25.0626         0.6990        24.0923         2.7876         1.5061      -999.2500      -999.2500      -999.2500         1.9315         1.4705       163.1715         2.4290         0.2973         0.0022         2.1696     
 3830.5000        91.0490        12.9850        31.6205        20.9181        17.9310         0.6507        17.8472         2.6514         1.4056      -999.2500      -999.2500      -999.2500         1.7399         1.3835       162.0836         1.5465         0.2919        -0.0023         2.1549     
 3831.0000        90.6827        13.0304        31.0353        17.1619        14.5071         0.4995        13.7858         2.5789         1.3435      -999.2500      -999.2500      -999.2500         1.6502         1.3233       160.4659         0.8761         0.2966        -0.0045         2.1414     
 3831.5000        90.0170        13.0177        30.4334        15.4677        14.0925         0.3436        11.9870         2.5603         1.3278      -999.2500      -999.2500      -999.2500         1.6337         1.3003       159.3152         0.6754         0.4204        -0.0065         2.1329     
 3832.0000        88.3478        13.0065        30.1879        15.0632        14.6931         0.3019        11.0697         2.5781         1.3344      -999.2500      -999.2500      -999.2500         1.6208         1.3019       159.1562         0.6754         0.6949        -0.0067         2.1298     
 3832.5000        86.8133        12.9984        30.4566        15.0823        14.5444         0.3626        11.2169         2.6275         1.3393      -999.2500      -999.2500      -999.2500         1.6008         1.3071       159.6819         0.6751         0.7465        -0.0049         2.1279     
 3833.0000        87.4359        12.9973        30.8655        14.7776        14.1205         0.4497        11.8385         2.6660         1.3384      -999.2500      -999.2500      -999.2500         1.5858         1.3074       160.2132         0.7530         0.5975        -0.0015         2.1247     
 3833.5000        89.4094        13.0313        30.9719        14.7006        14.7533         0.5289        12.7662         2.6694         1.3387      -999.2500      -999.2500      -999.2500         1.5731         1.3042       160.4309         0.8542         0.5662         0.0029         2.1214     
 3834.0000        90.7163        13.0392        30.8507        15.9980        16.1707         0.6283        13.7290         2.6633         1.3487      -999.2500      -999.2500      -999.2500         1.5581         1.2973       160.5468         0.8336         0.7606         0.0048         2.1180     
 3834.5000        91.4299        13.0724        30.9565        18.7040        16.9562         0.7066        14.4366         2.6431         1.3643      -999.2500      -999.2500      -999.2500         1.5476         1.2886       160.6042         0.8542         0.8358         0.0014         2.1149     
 3835.0000        92.8502        13.1439        31.6254        21.3230        16.8469         0.6477        14.5090         2.6645         1.3786      -999.2500      -999.2500      -999.2500         1.5062         1.2846       160.3274         0.8336         0.7094        -0.0054         2.1152     
 3835.5000        95.6518        13.1197        32.7012        22.6287        18.3163         0.5949        16.0828         2.7879         1.3896      -999.2500      -999.2500      -999.2500         1.4320         1.2870       159.7896         1.1558         0.5751        -0.0099         2.1186     
 3836.0000        99.6692        13.0939        33.4858        22.7354        21.4456         0.7182        19.6885         2.9493         1.4036      -999.2500      -999.2500      -999.2500         1.4051         1.2966       159.3203         2.0144         0.4598        -0.0061         2.1220     
 3836.5000       103.7163        13.1188        33.5570        21.8609        23.3578         0.8028        21.6138         3.0773         1.4402      -999.2500      -999.2500      -999.2500         1.4453         1.3244       158.8809         2.3447         0.4666         0.0115         2.1286     
 3837.0000       105.9115        13.2359        33.3823        20.7457        22.7658         0.6131        19.4464         3.1857         1.5270      -999.2500      -999.2500      -999.2500         1.5022         1.3859       158.3495         1.7701         0.7530         0.0308         2.1424     
 3837.5000       104.2666        13.5764        33.5050        19.7368        20.7861         0.3764        16.3420         3.2758         1.6568      -999.2500      -999.2500      -999.2500         1.6098         1.4785       157.9648         1.8194         0.7860         0.0273         2.1574     
 3838.0000        98.9533        13.4926        33.7022        18.6465        18.2655         0.3474        16.3840         3.3181         1.7546      -999.2500      -999.2500      -999.2500         1.7326         1.5575       158.0151         2.6250         0.3333         0.0094         2.1604     
 3838.5000        93.4424        13.0719        33.3894        17.6439        16.3124         0.3936        15.9357         3.3426         1.7323      -999.2500      -999.2500      -999.2500         1.7333         1.5591       158.4613         2.7681         0.2935         0.0112         2.1448     
 3839.0000        90.6927        12.9350        32.4602        17.4509        16.1401         0.3785        15.1670         3.3866         1.5912      -999.2500      -999.2500      -999.2500         1.6467         1.4596       159.0786         2.4611         0.2970         0.0314         2.1217     
 3839.5000        90.8437        12.9443        31.2428        17.6586        16.7231         0.4177        15.3925         3.3606         1.4250      -999.2500      -999.2500      -999.2500         1.6196         1.3218       159.6830         2.3180         0.2996         0.0353         2.1084     
 3840.0000        92.7796        12.9429        30.1089        17.3589        16.4342         0.5670        15.1452         3.1532         1.3090      -999.2500      -999.2500      -999.2500         1.6301         1.2201       160.1859         1.8447         0.3516         0.0177         2.1089     
 3840.5000        94.8556        12.9429        29.5646        16.5188        15.0424         0.6517        13.7277         2.8827         1.2548      -999.2500      -999.2500      -999.2500         1.6740         1.1758       160.2842         0.9433         0.4267         0.0002         2.1158     
 3841.0000        95.6406        12.9429        29.8409        15.3139        14.1720         0.6403        12.7393         2.7441         1.2385      -999.2500      -999.2500      -999.2500         1.6803         1.1697       159.7185         0.2679         0.4739        -0.0058         2.1206     
 3841.5000        95.8692        12.9429        30.4522        14.2413        14.6977         0.6172        12.7135         2.7366         1.2362      -999.2500      -999.2500      -999.2500         1.6146         1.1765       158.8096         0.0398         0.6255        -0.0020         2.1204     
 3842.0000        97.2703        12.9429        30.8513        13.8432        15.9321         0.5743        13.0049         2.7545         1.2364      -999.2500      -999.2500      -999.2500         1.5496         1.1859       158.2413         0.2679         0.8522         0.0062         2.1196     
 3842.5000        99.8483        12.9429        30.9592        14.5700        16.4341         0.4530        12.4026         2.7542         1.2350      -999.2500      -999.2500      -999.2500         1.5604         1.1951       158.3104         0.8228         1.0201         0.0098         2.1209     
 3843.0000       102.4293        12.9429        31.0310        15.5853        16.5294         0.4013        11.9379         2.7457         1.2342      -999.2500      -999.2500      -999.2500         1.6020         1.2022       158.8901         1.1497         1.1095         0.0039         2.1220     
