~Version Information Section
VERS.          2.0                                     : CWLS LOG ASCII Standard
WRAP.          NO                                      : One line per depth step
CREA.          27/11/15                                : LAS Creation Date
~Well Information Section
STRT.ft        3749.0000                               : Start Depth
STOP.ft        4349.0000                               : Stop Depth
STEP.ft        0.5000                                  : Step
NULL.          -999.2500                               : Null Value
COMP.          TEXACO                                  : Company
WELL.          13/22a-6                                : Well
FLD .          CAPTAIN                                 : Field
LOC .          MORAY FIRTH                             : Location
LOC1.                                                  : Location (UTM)
CTRY.          UK                                      : Country
PROV.          UKCS                                    : Province
UWI .          10763                                   : UWI Number
API .                                                  : API Number
SECT.                                                  : Section
TOWN.                                                  : Township
RNGE.                                                  : Range
PDAT.          MSL                                     : Perm Datum
EPD .ft        0.00                                    : Elevation
LMF .          RKB                                     : Log Measured From
DMF .          RKB                                     : Drill Measured From
APD .ft        81.00                                   : Above Perm Datum
EKB .ft        81.00                                   : Elev-Kelly Bushing
EDF .ft        80.00                                   : Elev-Drill Floor
EGL .ft        -364.00                                 : Elev-Ground Level (Water Depth)
TDD .ft        4400.00                                 : Total Depth (Driller)
SRVC.          ATLAS WIRELINE                          : Service Company
LATI.          58 19 25.50 N                           : Latitude
LONG.          01 42 58.94 W                           : Longitude
DATE.          APR-MAY-1990                            : Logging Date
PROJ.          UKCS                                    : Project
SET .          COMP WIRE                               : Set
~Curve Information Section
DEPTH.ft                                               : Depth Curve
AC.us/ft                                               : Acoustic Travel Time
CAL.in                                                 : Caliper
CNC.%                                                  : Compensated Neutron Porosity
GR.gAPI                                                : DIFL Gamma Ray
GRS.gAPI                                               : SL Gamma Ray
K.                                                     : Potassium
KTH.gAPI                                               : Uranium Stripped Gamma Ray
PE.B/e                                                 : Photo-electric
RD.ohmm                                                : Deep Laterolog Resistivity
RFOC.ohmm                                              : Logarithmic Resistivity from CFOC
RILD.ohmm                                              : Deep Induction Resistivity
RILM.ohmm                                              : Medium Induction Resistivity
RMLL.ohmm                                              : Microlaterolog Resistivity
RS.ohmm                                                : Shallow Laterolog Resistivity
SP.mV                                                  : Spontaneous Potential
TH.ppm                                                 : Thorium
U.ppm                                                  : Uranium
ZCOR.g/cc                                              : ZDL Density Correction
ZDEN.g/cc                                              : ZDL Bulk Density
~ASCII Log Data Section
# ...
 4181.0000        96.8184        12.9429        41.6506       129.1724        97.2134         2.1719        76.2975         3.4334         5.6792      -999.2500      -999.2500      -999.2500         8.0982         6.0715       163.7282        14.6689         4.8541         0.0036         2.4063     
 4181.5000        97.9458        12.9429        43.4851       124.6561        95.4847         2.2638        75.6490         3.4119         5.5604      -999.2500      -999.2500      -999.2500         7.3385         5.9280       163.6290        12.6929         4.6617         0.0022         2.3971     
 4182.0000       100.2979        12.9429        45.6731       119.6771        93.1847         1.9543        68.8525         3.3983         5.6552      -999.2500      -999.2500      -999.2500         6.6226         5.9892       162.7829        10.1377         5.3314         0.0071         2.3784     
 4182.5000       102.6198        12.9429        47.2321       115.6546        90.2795         1.4784        59.1192         3.4122         5.8990      -999.2500      -999.2500      -999.2500         6.2252         6.2120       161.6421         9.3105         6.2614         0.0102         2.3558     
 4183.0000       104.1413        12.9429        48.3355       113.0750        86.6129         1.2453        53.2201         3.4653         6.1657      -999.2500      -999.2500      -999.2500         6.1565         6.4738       160.8274         9.9286         6.6080         0.0107         2.3332     
 4183.5000       104.6355        12.9429        48.8804       113.3577        83.9549         1.2993        52.3024         3.5641         6.3421      -999.2500      -999.2500      -999.2500         6.5689         6.6591       160.6891         9.8707         6.5731         0.0091         2.3182     
 4184.0000       104.0590        12.9429        48.2664       116.4636        85.5249         1.5034        55.1476         3.6793         6.3386      -999.2500      -999.2500      -999.2500         7.5437         6.6848       161.0599         8.7748         6.5654         0.0069         2.3179     
 4184.5000       102.9156        12.9429        46.9226       121.8835        92.8092         1.7272        62.4952         3.7761         6.1002      -999.2500      -999.2500      -999.2500         8.7417         6.4824       161.4547         8.7580         6.4876         0.0057         2.3321     
 4185.0000       102.1141        12.9429        45.9320       129.6909       102.6455         1.8755        72.2905         3.8333         5.7412      -999.2500      -999.2500      -999.2500         9.5444         6.1489       161.4311        11.2605         6.2785         0.0007         2.3472     
 4185.5000       102.5954        12.9429        46.3227       136.6024       109.3691         2.0214        81.1788         3.8279         5.4883      -999.2500      -999.2500      -999.2500         9.5776         5.9089       160.9115        14.4586         5.7924        -0.0045         2.3486     
 4186.0000       104.4798        12.9429        48.5714       138.3794       110.5137         2.1125        83.9320         3.7988         5.4439      -999.2500      -999.2500      -999.2500         8.5172         5.8679       160.4886        15.5500         5.5585        -0.0002         2.3378     
 4186.5000       106.5636        12.9429        51.4865       135.6046       106.9964         2.0151        78.2329         3.7614         5.5365      -999.2500      -999.2500      -999.2500         6.8879         5.9617       160.7387        14.1146         6.0901         0.0099         2.3239     
 4187.0000       107.7430        12.9429        53.2840       132.7437       102.4550         1.7783        67.9209         3.7063         5.6380      -999.2500      -999.2500      -999.2500         5.9528         6.0671       161.3035        11.6576         7.3270         0.0157         2.3109     
 4187.5000       108.1937        12.9429        53.4311       131.1151       100.5813         1.5571        60.5093         3.7117         5.6334      -999.2500      -999.2500      -999.2500         6.0235         6.0774       161.3586        10.5022         8.4025         0.0168         2.3019     
 4188.0000       108.1630        12.9429        52.8324       128.5273        99.8708         1.4429        59.8368         3.7518         5.4434      -999.2500      -999.2500      -999.2500         6.5026         5.9125       160.8840        11.4457         8.1639         0.0165         2.3007     
 4188.5000       107.7569        12.9429        52.1690       125.0401        98.3321         1.5475        66.5950         3.8015         5.1442      -999.2500      -999.2500      -999.2500         6.4688         5.6261       160.5978        13.5191         6.3767         0.0163         2.3068     
 4189.0000       107.4992        12.9429        51.5828       124.5986        97.8365         1.7246        73.5538         3.7826         4.8915      -999.2500      -999.2500      -999.2500         6.2904         5.3611       160.7954        14.3187         4.8628         0.0136         2.3144     
 4189.5000       107.5576        12.9429        51.6544       127.3808        99.1152         1.6953        72.5237         3.7677         4.7484      -999.2500      -999.2500      -999.2500         6.4406         5.1894       161.2663        12.9393         5.1898         0.0108         2.3172     
 4190.0000       107.7639        12.9429        52.0839       129.1880       100.7663         1.5534        65.9045         3.7383         4.6974      -999.2500      -999.2500      -999.2500         6.4403         5.1070       161.7979        10.1936         6.6650         0.0148         2.3139     
 4190.5000       108.3902        12.9429        52.8485       128.9298       102.7530         1.5762        64.1112         3.7214         4.7227      -999.2500      -999.2500      -999.2500         6.0529         5.0991       162.1701         8.8165         7.4718         0.0206         2.3082     
 4191.0000       109.2398        12.9429        53.8385       127.9436       103.0464         1.6254        66.8294         3.7263         4.8201      -999.2500      -999.2500      -999.2500         5.5685         5.1611       162.0911        10.1625         7.0759         0.0195         2.3043     
 4191.5000       109.6671        12.9429        54.0844       126.7864       100.3694         1.5778        68.0819         3.7351         4.9918      -999.2500      -999.2500      -999.2500         5.3977         5.2937       161.5381        12.0742         6.2692         0.0171         2.3056     
 4192.0000       109.5967        12.9429        52.6622       126.4905        97.8893         1.5898        67.2762         3.7390         5.2412      -999.2500      -999.2500      -999.2500         5.6665         5.5059       160.7197        12.2904         6.0758         0.0162         2.3108     
 4192.5000       109.1628        12.9429        50.2691       128.9357        98.5119         1.7863        67.8608         3.7471         5.5506      -999.2500      -999.2500      -999.2500         6.0914         5.7935       160.0032        11.5330         6.5165         0.0115         2.3142     
 4193.0000       108.2308        12.9429        48.2043       131.3897       101.2392         1.9352        69.6841         3.8126         5.8152      -999.2500      -999.2500      -999.2500         6.5576         6.0795       159.8610        11.3123         6.9427         0.0061         2.3153     
 4193.5000       106.7984        12.9429        46.2267       131.4133       104.0702         1.7509        68.6887         3.9626         5.8745      -999.2500      -999.2500      -999.2500         7.3957         6.2012       160.3690        11.4935         7.2791         0.0053         2.3210     
 4194.0000       104.9028        12.9429        43.9611       132.9331       107.2620         1.5437        68.8571         4.0753         5.7117      -999.2500      -999.2500      -999.2500         8.0793         6.0931       160.9240        12.3344         7.2892         0.0063         2.3332     
