~Version Information Section
VERS.          2.0                                     : CWLS LOG ASCII Standard
WRAP.          NO                                      : One line per depth step
CREA.          27/11/15                                : LAS Creation Date
~Well Information Section
STRT.ft        3749.0000                               : Start Depth
STOP.ft        4349.0000                               : Stop Depth
STEP.ft        0.5000                                  : Step
NULL.          -999.2500                               : Null Value
COMP.          TEXACO                                  : Company
WELL.          13/22a-6                                : Well
FLD .          CAPTAIN                                 : Field
LOC .          MORAY FIRTH                             : Location
LOC1.                                                  : Location (UTM)
CTRY.          UK                                      : Country
PROV.          UKCS                                    : Province
UWI .          10763                                   : UWI Number
API .                                                  : API Number
SECT.                                                  : Section
TOWN.                                                  : Township
RNGE.                                                  : Range
PDAT.          MSL                                     : Perm Datum
EPD .ft        0.00                                    : Elevation
LMF .          RKB                                     : Log Measured From
DMF .          RKB                                     : Drill Measured From
APD .ft        81.00                                   : Above Perm Datum
EKB .ft        81.00                                   : Elev-Kelly Bushing
EDF .ft        80.00                                   : Elev-Drill Floor
EGL .ft        -364.00                                 : Elev-Ground Level (Water Depth)
TDD .ft        4400.00                                 : Total Depth (Driller)
SRVC.          ATLAS WIRELINE                          : Service Company
LATI.          58 19 25.50 N                           : Latitude
LONG.          01 42 58.94 W                           : Longitude
DATE.          APR-MAY-1990                            : Logging Date
PROJ.          UKCS                                    : Project
SET .          COMP WIRE                               : Set
~Curve Information Section
DEPTH.ft                                               : Depth Curve
AC.us/ft                                               : Acoustic Travel Time
CAL.in                                                 : Caliper
CNC.%                                                  : Compensated Neutron Porosity
GR.gAPI                                                : DIFL Gamma Ray
GRS.gAPI                                               : SL Gamma Ray
K.                                                     : Potassium
KTH.gAPI                                               : Uranium Stripped Gamma Ray
PE.B/e                                                 : Photo-electric
RD.ohmm                                                : Deep Laterolog Resistivity
RFOC.ohmm                                              : Logarithmic Resistivity from CFOC
RILD.ohmm                                              : Deep Induction Resistivity
RILM.ohmm                                              : Medium Induction Resistivity
RMLL.ohmm                                              : Microlaterolog Resistivity
RS.ohmm                                                : Shallow Laterolog Resistivity
SP.mV                                                  : Spontaneous Potential
TH.ppm                                                 : Thorium
U.ppm                                                  : Uranium
ZCOR.g/cc                                              : ZDL Density Correction
ZDEN.g/cc                                              : ZDL Bulk Density
~ASCII Log Data Section
# ...
 4289.0000        78.0836        13.0392        18.8636        93.0487        89.3028         3.6548        85.2028         3.8440        13.6811      -999.2500      -999.2500      -999.2500        18.2170        14.9988       162.8889         7.0033         1.2205        -0.0049         2.5372     
 4289.5000        77.5103        13.0392        18.8057        84.3814        83.9380         3.5050        79.7348         3.8370        12.5799      -999.2500      -999.2500      -999.2500        16.3671        13.7464       163.4689         6.1972         1.2779        -0.0017         2.5355     
 4290.0000        78.0599        13.0392        19.0686        77.5108        78.6773         3.2197        73.2511         3.8220        11.2286      -999.2500      -999.2500      -999.2500        12.3596        12.2091       164.3303         5.5587         1.6468         0.0070         2.5239     
 4290.5000        79.1079        13.0392        18.7108        73.3178        74.4041         3.0309        68.0033         3.7691        10.4034      -999.2500      -999.2500      -999.2500         8.7935        11.2484       164.5737         5.4901         1.9787         0.0209         2.5036     
 4291.0000        79.1523        13.0408        17.9312        70.8237        71.1257         2.8635        63.8227         3.6945        10.5008      -999.2500      -999.2500      -999.2500         7.3673        11.2471       164.0314         5.9327         2.2914         0.0421         2.4912     
 4291.5000        77.7133        13.0294        17.0900        68.8045        68.1020         2.5556        59.5118         3.6637        11.8983      -999.2500      -999.2500      -999.2500         8.6021        12.5211       163.2822         6.1602         2.6013         0.0526         2.4985     
 4292.0000        75.2333        13.0075        15.7241        66.0085        64.2635         2.2312        55.9853         3.5698        15.0424      -999.2500      -999.2500      -999.2500        13.8014        15.4560       162.7853         5.8609         2.3576         0.0372         2.5163     
 4292.5000        71.7121        13.0294        13.6374        63.5596        60.2737         2.1104        55.3584         3.3634        19.7531      -999.2500      -999.2500      -999.2500        21.9741        19.8319       162.5124         5.8388         1.3472         0.0111         2.5305     
 4293.0000        67.8141        13.0405        11.5864        62.4430        58.3412         2.1792        56.2388         3.2234        24.0854      -999.2500      -999.2500      -999.2500        26.9367        23.7815       162.2960         6.2272         0.5810        -0.0021         2.5397     
 4293.5000        65.3146        13.0399        10.3798        61.9834        59.5522         2.3430        56.8800         3.2108        26.4055      -999.2500      -999.2500      -999.2500        35.8468        25.8150       162.0507         6.0015         0.7905        -0.0009         2.5475     
 4294.0000        64.8630        13.0147        10.1322        63.5685        62.7081         2.5928        58.5559         3.1939        26.8053      -999.2500      -999.2500      -999.2500        47.5457        26.1403       161.9310         5.2122         1.2872         0.0037         2.5499     
 4294.5000        65.4415        13.0147        10.6434        70.0863        65.7089         2.7745        61.1549         3.1166        24.9698      -999.2500      -999.2500      -999.2500        44.4473        24.5733       162.2661         5.2060         1.4345         0.0056         2.5433     
 4295.0000        66.2927        13.0399        11.8719        82.3333        70.0383         2.8804        65.0489         3.0298        20.7567      -999.2500      -999.2500      -999.2500        38.3424        20.9066       163.0191         5.8066         1.5409         0.0068         2.5331     
 4295.5000        67.9742        13.0388        13.2718        98.6811        80.4312         3.2182        73.9823         3.0359        16.0538      -999.2500      -999.2500      -999.2500        35.5096        16.6113       163.6558         5.9865         1.9456         0.0076         2.5266     
 4296.0000        71.5688        13.0392        14.7687       112.4512        97.0289         3.8722        88.9519         3.1713        12.7700      -999.2500      -999.2500      -999.2500        24.2163        13.4670       163.8386         6.4772         2.4236         0.0044         2.5237     
 4296.5000        76.8453        13.0392        17.2427       116.3891       109.8610         4.4705       102.2510         3.3799        11.1893      -999.2500      -999.2500      -999.2500        15.0475        11.8994       163.5961         8.2548         2.3053        -0.0000         2.5195     
 4297.0000        81.7177        13.0392        20.0907       111.1720       110.0670         4.6920       105.1234         3.5752        10.9116      -999.2500      -999.2500      -999.2500        12.1551        11.6309       163.0947         9.8469         1.5360        -0.0008         2.5130     
 4297.5000        84.0771        13.0392        21.4584       105.9114       102.8051         4.6143        99.8884         3.7269        11.3256      -999.2500      -999.2500      -999.2500        13.2607        12.1509       162.5754         9.8496         0.9412         0.0012         2.5091     
 4298.0000        83.7501        13.0392        20.6944       108.2959       101.0515         4.5635        98.8685         3.8100        11.5610      -999.2500      -999.2500      -999.2500        16.0612        12.6120       162.2686        10.0694         0.7084         0.0037         2.5095     
 4298.5000        82.5140        13.0392        19.7810       116.9894       108.3296         4.6554       107.6748         3.8405        11.1095      -999.2500      -999.2500      -999.2500        15.8832        12.3563       162.4108        12.3464         0.4079         0.0038         2.5092     
 4299.0000        82.4401        13.0392        20.3846       124.5637       116.2529         4.6532       116.2529         3.8693        10.3981      -999.2500      -999.2500      -999.2500        13.5306        11.7085       163.1062        14.5956         0.2799         0.0011         2.5069     
 4299.5000        83.9673        13.0392        21.8269       126.6919       117.1231         4.5297       115.0875         3.9030        10.0078      -999.2500      -999.2500      -999.2500        12.6399        11.3160       163.7627        12.9364         0.6581         0.0010         2.5108     
 4300.0000        85.8662        13.0392        23.0299       124.2628       113.0793         4.3169       104.9308         3.9292        10.1356      -999.2500      -999.2500      -999.2500        13.2423        11.4666       163.5025         7.9457         2.3339         0.0078         2.5288     
 4300.5000        86.7939        13.0392        23.9474       119.0684       109.1809         4.1782        97.2278         3.9426        10.7031      -999.2500      -999.2500      -999.2500        13.9233        12.1210       162.5500         4.6978         3.4728         0.0135         2.5583     
 4301.0000        86.2157        13.0408        24.2031       112.6444       106.2174         4.1926        96.5975         3.9538        11.5374      -999.2500      -999.2500      -999.2500        14.0601        13.0849       161.8208         5.7258         2.8411         0.0077         2.5858     
 4301.5000        84.6595        13.0294        23.9628       107.0184       102.7275         4.2617        97.5718         3.9738        12.3792      -999.2500      -999.2500      -999.2500        14.2675        14.0360       161.6084         7.6090         1.5523        -0.0026         2.5982     
 4302.0000        82.9827        13.0075        23.5097       104.5549        98.0857         4.2007        94.7519         3.9820        12.9514      -999.2500      -999.2500      -999.2500        14.7919        14.6325      -999.2500         7.1390         1.0195        -0.0026         2.5990     
