~Version Information Section
VERS.          2.0                                     : CWLS LOG ASCII Standard
WRAP.          NO                                      : One line per depth step
CREA.          27/11/15                                : LAS Creation Date
~Well Information Section
STRT.ft        3749.0000                               : Start Depth
STOP.ft        4349.0000                               : Stop Depth
STEP.ft        0.5000                                  : Step
NULL.          -999.2500                               : Null Value
COMP.          TEXACO                                  : Company
WELL.          13/22a-6                                : Well
FLD .          CAPTAIN                                 : Field
LOC .          MORAY FIRTH                             : Location
LOC1.                                                  : Location (UTM)
CTRY.          UK                                      : Country
PROV.          UKCS                                    : Province
UWI .          10763                                   : UWI Number
API .                                                  : API Number
SECT.                                                  : Section
TOWN.                                                  : Township
RNGE.                                                  : Range
PDAT.          MSL                                     : Perm Datum
EPD .ft        0.00                                    : Elevation
LMF .          RKB                                     : Log Measured From
DMF .          RKB                                     : Drill Measured From
APD .ft        81.00                                   : Above Perm Datum
EKB .ft        81.00                                   : Elev-Kelly Bushing
EDF .ft        80.00                                   : Elev-Drill Floor
EGL .ft        -364.00                                 : Elev-Ground Level (Water Depth)
TDD .ft        4400.00                                 : Total Depth (Driller)
SRVC.          ATLAS WIRELINE                          : Service Company
LATI.          58 19 25.50 N                           : Latitude
LONG.          01 42 58.94 W                           : Longitude
DATE.          APR-MAY-1990                            : Logging Date
PROJ.          UKCS                                    : Project
SET .          COMP WIRE                               : Set
~Curve Information Section
DEPTH.ft                                               : Depth Curve
AC.us/ft                                               : Acoustic Travel Time
CAL.in                                                 : Caliper
CNC.%                                                  : Compensated Neutron Porosity
GR.gAPI                                                : DIFL Gamma Ray
GRS.gAPI                                               : SL Gamma Ray
K.                                                     : Potassium
KTH.gAPI                                               : Uranium Stripped Gamma Ray
PE.B/e                                                 : Photo-electric
RD.ohmm                                                : Deep Laterolog Resistivity
RFOC.ohmm                                              : Logarithmic Resistivity from CFOC
RILD.ohmm                                              : Deep Induction Resistivity
RILM.ohmm                                              : Medium Induction Resistivity
RMLL.ohmm                                              : Microlaterolog Resistivity
RS.ohmm                                                : Shallow Laterolog Resistivity
SP.mV                                                  : Spontaneous Potential
TH.ppm                                                 : Thorium
U.ppm                                                  : Uranium
ZCOR.g/cc                                              : ZDL Density Correction
ZDEN.g/cc                                              : ZDL Bulk Density
~ASCII Log Data Section
# ...
 3978.5000        90.2062        12.9185        23.7538        82.4404        67.6940         1.7576        56.7185         3.1586         3.4334      -999.2500      -999.2500      -999.2500         3.7001         3.4486       156.5429         6.1322         2.4978         0.0128         2.2884     
 3979.0000        89.3917        12.9436        23.2513        83.5905        68.9840         1.7862        58.3714         3.1592         3.6060      -999.2500      -999.2500      -999.2500         4.3724         3.6036       156.6981         6.9686         2.4183         0.0108         2.2982     
 3979.5000        88.7181        12.9426        21.9196        84.0370        70.7312         2.0766        63.0510         3.1637         3.6494      -999.2500      -999.2500      -999.2500         5.2808         3.6609       157.0793         7.5343         1.8665         0.0112         2.3131     
 3980.0000        88.3849        12.9429        20.6846        83.3651        71.5385         2.2963        65.9130         3.1841         3.5492      -999.2500      -999.2500      -999.2500         5.0525         3.5906       157.5053         6.8002         1.4137         0.0096         2.3238     
 3980.5000        88.5658        12.9429        20.1853        82.8893        70.2186         2.3329        64.4245         3.1996         3.4243      -999.2500      -999.2500      -999.2500         4.2731         3.4867       157.5248         5.3630         1.4788         0.0099         2.3233     
 3981.0000        89.1503        12.9429        20.4673        84.8468        69.1091         2.4631        63.8487         3.1304         3.3613      -999.2500      -999.2500      -999.2500         3.8624         3.4277       157.0960         4.9386         1.4156         0.0161         2.3161     
 3981.5000        89.6888        12.9429        22.0518        87.9546        70.6598         2.5965        65.9474         2.9794         3.3854      -999.2500      -999.2500      -999.2500         3.8615         3.4358       156.6544         5.4848         1.2992         0.0223         2.3101     
 3982.0000        89.9335        12.9429        23.8321        88.1065        73.5439         2.4478        66.5702         2.8561         3.4736      -999.2500      -999.2500      -999.2500         3.9814         3.4987       156.4752         5.9733         1.8165         0.0205         2.3074     
 3982.5000        89.8968        12.9429        24.5093        85.8421        74.0368         2.0950        62.6041         2.8449         3.5681      -999.2500      -999.2500      -999.2500         4.0424         3.5625       156.5222         5.8758         2.7447         0.0163         2.3070     
 3983.0000        89.7451        12.9429        24.7762        85.5115        70.5220         1.8885        56.1943         2.9349         3.6472      -999.2500      -999.2500      -999.2500         4.2565         3.6075       156.7536         5.0213         3.4369         0.0177         2.3090     
 3983.5000        89.6671        12.9429        25.2438        87.4437        66.5178         1.8415        52.0209         3.0386         3.6469      -999.2500      -999.2500      -999.2500         4.4221         3.5946       157.0665         3.8112         3.5879         0.0224         2.3137     
 3984.0000        89.6315        12.9429        25.8015        86.7603        64.8652         1.7826        50.3898         3.0943         3.5215      -999.2500      -999.2500      -999.2500         4.3018         3.4793       157.1697         2.9303         3.5261         0.0273         2.3192     
 3984.5000        89.7131        12.9429        26.3819        80.9261        63.4719         1.7540        49.6902         3.0711         3.3657      -999.2500      -999.2500      -999.2500         4.2976         3.3295       156.8472         2.7087         3.3376         0.0311         2.3220     
 3985.0000        90.0323        12.9429        26.8845        74.5556        61.1575         1.8645        50.7333         2.9534         3.2415      -999.2500      -999.2500      -999.2500         4.1544         3.2101       156.3449         3.1587         2.6427         0.0296         2.3174     
 3985.5000        90.4485        12.9429        27.2075        73.4396        60.5435         2.1526        55.0411         2.8682         3.1350      -999.2500      -999.2500      -999.2500         3.7289         3.1097       156.1458         3.9596         1.4922         0.0239         2.3051     
 3986.0000        90.7097        12.9429        27.3309        76.6067        63.3334         2.4790        60.4577         2.8777         3.0763      -999.2500      -999.2500      -999.2500         3.5393         3.0467       156.3570         4.2312         0.8138         0.0185         2.2916     
 3986.5000        90.6012        12.9429        27.0854        79.0298        66.0460         2.5969        63.4477         2.9274         3.0242      -999.2500      -999.2500      -999.2500         3.5718         2.9924       156.5371         4.2919         0.7325         0.0131         2.2830     
 3987.0000        90.2874        12.9429        26.3957        79.2652        67.0128         2.4751        64.2908         2.9683         2.9068      -999.2500      -999.2500      -999.2500         3.5060         2.8812       156.4084         5.5732         0.7374         0.0108         2.2791     
 3987.5000        90.3725        12.9429        25.8588        79.1773        67.6767         2.4195        64.2424         2.9792         2.7683      -999.2500      -999.2500      -999.2500         3.3743         2.7496       156.2904         7.6440         0.9394         0.0128         2.2758     
 3988.0000        90.9433        12.9429        25.7735        80.9661        68.0847         2.4180        62.2267         2.9744         2.6654      -999.2500      -999.2500      -999.2500         3.1504         2.6520       156.4007         7.8285         1.6575         0.0140         2.2704     
 3988.5000        91.5633        12.9429        25.6107        84.2198        67.7621         2.2457        57.7619         2.9440         2.5942      -999.2500      -999.2500      -999.2500         2.9357         2.5806       156.4655         6.1184         2.7815         0.0153         2.2631     
 3989.0000        92.0674        12.9429        25.8626        85.4050        66.4799         1.9271        53.6171         2.9012         2.5443      -999.2500      -999.2500      -999.2500         2.9108         2.5241       156.3842         5.3664         3.3144         0.0188         2.2551     
 3989.5000        92.2911        12.9429        26.5756        82.7476        64.2542         1.6986        52.6398         2.8884         2.4883      -999.2500      -999.2500      -999.2500         2.9103         2.4707       156.3526         6.4828         2.7829         0.0184         2.2464     
 3990.0000        92.1629        12.9429        27.0718        79.0654        63.2511         1.7345        54.0292         2.8895         2.4114      -999.2500      -999.2500      -999.2500         2.7596         2.4061       156.3049         6.8906         2.2098         0.0126         2.2371     
 3990.5000        92.1368        12.9429        27.5217        77.8831        63.8140         1.9885        55.4048         2.8879         2.3632      -999.2500      -999.2500      -999.2500         2.6245         2.3573       156.0106         5.7014         2.1699         0.0081         2.2287     
 3991.0000        92.5157        12.9429        28.0523        78.5402        63.1093         2.2980        56.9199         2.8941         2.3745      -999.2500      -999.2500      -999.2500         2.6138         2.3537       155.5316         4.5146         1.7405         0.0063         2.2232     
 3991.5000        92.9153        12.9429        28.3365        79.9401        62.0062         2.5355        58.9692         2.8982         2.4167      -999.2500      -999.2500      -999.2500         2.6794         2.3836       155.2072         4.2734         0.9005         0.0051         2.2219     
