~Version Information Section
VERS.          2.0                                     : CWLS LOG ASCII Standard
WRAP.          NO                                      : One line per depth step
CREA.          04/05/16                                : LAS Creation Date
~Well Information Section
STRT.ft        3300.000                                : Start Depth
STOP.ft        3900.0000                               : Stop Depth
STEP.ft        0.5000                                  : Step
NULL.          -999.2500                               : Null Value
COMP.          709                                     : Company
WELL.          13/22a-7                                : Well
FLD .          CAPTAIN                                 : Field
LOC .                                                  : Location
LOC1.                                                  : Location 1
CTRY.          UK                                      : Country
STAT.          INNER MORAY FIRTH                       : State
CNTY.          UKCS                                    : County
UWI .          10764                                   : UWI Number
API .                                                  : API Number
SECT.                                                  : Section
TOWN.                                                  : Township
RNGE.                                                  : Range
PDAT.          MSL                                     : Perm Datum
EPD .ft        82                                      : Elevation
LMF .          RKB                                     : Log Measured From
DMF .          RKB                                     : Drill Measured From
APD .ft        0                                       : Above Perm Datum
EKB .ft        82                                      : Elev-Kelly Bushing
EDF .ft        81                                      : Elev-Drill Floor
EGL .ft        -352                                    : Elev-Ground Level
SRVC.         SCHLUMBERGER                             : Service Company
DATE .        12/05/1990                               : Completion Date
LAT .         58 18 34.15 N                            : Latitude
LONG.         01 44 41.13 W                            : Longitude
TOOL.	      COMP WIRE                                : Tool
~Curve Information Section
DEPTH.ft                                                  : Depth Curve
CALI.in                                                : Caliper
CALS.in                                                : Sonic Caliper
CGR.gAPI                                               : Computed Gamma Ray From Thorium, Uranium, And Potassium
DRHO.g/cc                                              : Delta Rho
DTLF.us/ft                                             : Delta-T Long Spacing Far
DTLN.us/ft                                             : Delta-T Long Spacing Near
GR.gAPI                                                : Gamma Ray
LLD.Ohmm                                               : Latero-Log Deep (Resistivity)
LLS.Ohmm                                               : Latero-Log Shallow (Resistivity)
MSFL.Ohmm                                              : Msfl Resistivity
NPHI.%                                                 : Neutron Porosity
PEF.B/e                                                : Photo-Electric Factor
POTA.ppm                                               : Potassium
RHOB.g/cc                                              : Bulk Density
SGR.gAPI                                               : Spectroscopy Gamma-Ray
SP.mV                                                  : Spontaneous Potential
THOR.ppm                                               : Thorium
URAN.ppm                                               : Uranium
~ASCII Log Data Section
# ...
 3888.0000        12.5469        12.6914        74.3602         0.0427      -999.2500      -999.2500        92.6899         9.8214         8.8653        10.6258        27.3869         3.9703         0.0290         2.5367        92.6899      -999.2500        10.0854         2.6465     
 3888.5000        12.5469        12.7060        76.9411         0.0285      -999.2500      -999.2500        96.3839         8.9577         8.0725        12.8931        27.8769         3.9993         0.0298         2.5363        96.3839      -999.2500        10.5306         2.8072     
 3889.0000        12.5469        12.7374        77.0992         0.0140      -999.2500      -999.2500        96.1406         9.1776         8.4260         9.9460        28.4151         4.0632         0.0300         2.5228        96.1406      -999.2500        10.4849         2.7493     
 3889.5000        12.5469        12.7422        78.5706         0.0093      -999.2500      -999.2500        98.3129         9.0505         8.3102         8.3133        29.3925         4.0380         0.0307         2.5046        98.3129      -999.2500        10.6540         2.8505     
 3890.0000        12.5469        12.7422        78.1939         0.0083      -999.2500      -999.2500        97.8651         9.2088         8.2967        10.0391        29.6949         3.9209         0.0305         2.4881        97.8651      -999.2500        10.6355         2.8402     
 3890.5000        12.5565        12.7451        74.6579         0.0072      -999.2500      -999.2500        93.3902         9.8532         8.7091         7.5772        29.0136         3.9082         0.0288         2.4770        93.3965      -999.2500        10.2920         2.7056     
 3891.0000        12.5625        12.7676        70.8176         0.0091      -999.2500      -999.2500        88.8679        10.1539         8.9449         9.7672        27.0442         3.9105         0.0267         2.4897        88.8679      -999.2500        10.0003         2.6062     
 3891.5000        12.5856        12.7999        71.3490         0.0121      -999.2500      -999.2500        90.1619        10.2631         9.2461         8.2106        27.7418         3.9784         0.0268         2.5091        90.1619      -999.2500        10.1520         2.7163     
 3892.0000        12.5336        12.8288        71.6456         0.0135      -999.2500      -999.2500        90.9888        11.2819        10.2715         9.0014        26.0266         3.8834         0.0267         2.5280        90.9888      -999.2500        10.2854         2.7929     
 3892.5000        12.5155        12.9274        71.1985         0.0138      -999.2500      -999.2500        90.4657        11.8612        10.7643        10.1350        24.7111         3.8123         0.0263         2.5360        90.4657      -999.2500        10.3112         2.7819     
 3893.0000        12.5434        12.6694        69.1181         0.0305      -999.2500      -999.2500        87.3401        13.0308        11.5785        23.8553        21.7612         3.9822         0.0252         2.5300        87.3401      -999.2500        10.1596         2.6310     
 3893.5000        12.5682        12.6934        67.1305         0.0586      -999.2500      -999.2500        84.5304        13.2896        11.5763        13.3727        20.8132         4.2365         0.0240         2.4998        84.5304      -999.2500        10.0504         2.5123     
 3894.0000        12.6152        12.7246        68.0104         0.0629      -999.2500      -999.2500        85.9951        11.2345         9.7352        26.2117        22.1746         4.5498         0.0243         2.4402        85.9951      -999.2500        10.1824         2.5967     
 3894.5000        12.6202        12.7735        69.2357         0.0499      -999.2500      -999.2500        87.7320         9.4033         8.4050        11.3876        26.9100         4.5941         0.0249         2.4017        87.7320      -999.2500        10.3368         2.6706     
 3895.0000        12.5736        12.7716        70.7306         0.0476      -999.2500      -999.2500        89.5601         9.0729         8.3361         4.9057        31.1396         4.3085         0.0255         2.4325        89.5601      -999.2500        10.5314         2.7187     
 3895.5000        12.5469        12.7138        70.6216         0.0425      -999.2500      -999.2500        89.1694         9.1293         8.3057         3.6537        30.6304         4.0839         0.0255         2.4860        89.1694      -999.2500        10.4699         2.6780     
 3896.0000        12.5889        12.7138        71.6048         0.0244      -999.2500      -999.2500        90.9567         9.3242         8.3841        11.3156        26.7633         4.1419         0.0260         2.5051        90.9567      -999.2500        10.5732         2.7941     
 3896.5000        12.6328        12.7499        73.5371         0.0190      -999.2500      -999.2500        93.8929         9.4444         8.4862        12.2146        27.1812         4.3888         0.0267         2.4849        93.8929      -999.2500        10.8299         2.9391     
 3897.0000        12.5417        12.8156        75.3970         0.0311      -999.2500      -999.2500        96.3960         8.8755         8.0125         8.2332        30.2906         4.4997         0.0275         2.4554        96.3940      -999.2500        11.0673         3.0316     
 3897.5000        12.4233        12.7676        76.1812         0.0512      -999.2500      -999.2500        97.6461         8.6999         7.9542         4.2485        31.3587         4.3231         0.0278         2.4452        97.6461      -999.2500        11.1743         3.0992     
 3898.0000        12.4097        12.7032        75.2722         0.0673      -999.2500      -999.2500        96.4807         8.4504         7.6461         5.8916        29.8984         3.9789         0.0275         2.4537        96.4807      -999.2500        11.0450         3.0622     
 3898.5000        12.3937        12.6200        74.6546         0.0685      -999.2500      -999.2500        95.6686         8.8777         8.0294        10.8597        29.3171         3.7800         0.0273         2.4731        95.6686      -999.2500        10.9211         3.0341     
 3899.0000        12.3771        12.6584        75.2672         0.0687      -999.2500      -999.2500        96.4406        10.1906         9.1503         4.2426        27.5229         3.8519         0.0276         2.5012        96.4406      -999.2500        10.9783         3.0571     
 3899.5000        12.3938        12.5644        74.1552         0.0799      -999.2500      -999.2500        95.1319        10.2975         9.3068        11.0722        25.2767         4.0502         0.0273         2.5214        95.1319      -999.2500        10.7770         3.0287     
 3900.0000        12.4078        12.5527        72.5630         0.0903      -999.2500      -999.2500        93.0946         9.7301         8.6971        21.9857        25.1143         4.1899         0.0268         2.4941        93.0946      -999.2500        10.4923         2.9644     
