~Version Information Section
VERS.          2.0                                     : CWLS LOG ASCII Standard
WRAP.          NO                                      : One line per depth step
CREA.          27/11/15                                : LAS Creation Date
~Well Information Section
STRT.ft        3749.0000                               : Start Depth
STOP.ft        4349.0000                               : Stop Depth
STEP.ft        0.5000                                  : Step
NULL.          -999.2500                               : Null Value
COMP.          TEXACO                                  : Company
WELL.          13/22a-6                                : Well
FLD .          CAPTAIN                                 : Field
LOC .          MORAY FIRTH                             : Location
LOC1.                                                  : Location (UTM)
CTRY.          UK                                      : Country
PROV.          UKCS                                    : Province
UWI .          10763                                   : UWI Number
API .                                                  : API Number
SECT.                                                  : Section
TOWN.                                                  : Township
RNGE.                                                  : Range
PDAT.          MSL                                     : Perm Datum
EPD .ft        0.00                                    : Elevation
LMF .          RKB                                     : Log Measured From
DMF .          RKB                                     : Drill Measured From
APD .ft        81.00                                   : Above Perm Datum
EKB .ft        81.00                                   : Elev-Kelly Bushing
EDF .ft        80.00                                   : Elev-Drill Floor
EGL .ft        -364.00                                 : Elev-Ground Level (Water Depth)
TDD .ft        4400.00                                 : Total Depth (Driller)
SRVC.          ATLAS WIRELINE                          : Service Company
LATI.          58 19 25.50 N                           : Latitude
LONG.          01 42 58.94 W                           : Longitude
DATE.          APR-MAY-1990                            : Logging Date
PROJ.          UKCS                                    : Project
SET .          COMP WIRE                               : Set
~Curve Information Section
DEPTH.ft                                               : Depth Curve
AC.us/ft                                               : Acoustic Travel Time
CAL.in                                                 : Caliper
CNC.%                                                  : Compensated Neutron Porosity
GR.gAPI                                                : DIFL Gamma Ray
GRS.gAPI                                               : SL Gamma Ray
K.                                                     : Potassium
KTH.gAPI                                               : Uranium Stripped Gamma Ray
PE.B/e                                                 : Photo-electric
RD.ohmm                                                : Deep Laterolog Resistivity
RFOC.ohmm                                              : Logarithmic Resistivity from CFOC
RILD.ohmm                                              : Deep Induction Resistivity
RILM.ohmm                                              : Medium Induction Resistivity
RMLL.ohmm                                              : Microlaterolog Resistivity
RS.ohmm                                                : Shallow Laterolog Resistivity
SP.mV                                                  : Spontaneous Potential
TH.ppm                                                 : Thorium
U.ppm                                                  : Uranium
ZCOR.g/cc                                              : ZDL Density Correction
ZDEN.g/cc                                              : ZDL Bulk Density
~ASCII Log Data Section
# ...
 3789.5000       108.8100        13.0294        39.2793        18.2456        15.7085         0.6658        15.5855         3.4329         1.1595      -999.2500      -999.2500      -999.2500         1.0591         1.0895       160.5302         1.1923         0.2935         0.0471         2.0790     
 3790.0000       108.2101        13.0408        39.2342        18.7635        17.1713         0.6002        15.6053         3.4732         1.1567      -999.2500      -999.2500      -999.2500         1.0598         1.0859       159.6808         1.3714         0.4120         0.0496         2.0722     
 3790.5000       107.3995        13.0392        38.2899        18.9608        18.2898         0.4391        13.5068         3.4342         1.1557      -999.2500      -999.2500      -999.2500         1.1275         1.0844       159.2975         1.1543         1.0983         0.0422         2.0804     
 3791.0000       106.7486        13.0408        36.9621        19.2943        18.2545         0.2955        11.6975         3.4013         1.1538      -999.2500      -999.2500      -999.2500         1.1891         1.0885       159.3215         1.4882         1.2796         0.0268         2.0939     
 3791.5000       106.4360        13.0294        36.1943        19.8681        18.5154         0.3497        14.4890         3.3649         1.1539      -999.2500      -999.2500      -999.2500         1.2416         1.0957       159.7711         2.6326         0.8110         0.0053         2.1022     
 3792.0000       106.1554        13.0075        36.3218        20.1084        19.0476         0.5560        18.6810         3.3276         1.1557      -999.2500      -999.2500      -999.2500         1.2861         1.1026       160.6197         3.7052         0.2928         0.0022         2.1050     
 3792.5000       105.7171        13.0294        36.1236        19.8391        18.7255         0.6639        18.7255         3.3198         1.1612      -999.2500      -999.2500      -999.2500         1.2912         1.1129       161.4142         3.6460         0.2803         0.0183         2.1033     
 3793.0000       105.2190        13.0408        35.6424        19.5355        18.4714         0.7075        18.3300         3.3180         1.1651      -999.2500      -999.2500      -999.2500         1.2917         1.1238       161.6743         2.5764         0.2969         0.0325         2.0968     
 3793.5000       104.7918        13.0388        35.0331        19.1158        19.0708         0.6366        17.4502         3.3188         1.1643      -999.2500      -999.2500      -999.2500         1.3066         1.1259       161.4352         1.6243         0.4204         0.0383         2.0874     
 3794.0000       104.4620        13.0395        34.1629        18.5620        19.1319         0.6361        17.0382         3.3192         1.1676      -999.2500      -999.2500      -999.2500         1.3097         1.1249       161.0244         1.3815         0.5457         0.0462         2.0824     
 3794.5000       104.2504        13.0154        33.0330        18.5196        18.4339         0.7597        17.5500         3.3899         1.1811      -999.2500      -999.2500      -999.2500         1.3014         1.1303       160.7222         1.4896         0.2991         0.0481         2.0874     
 3795.0000       104.1711        12.9903        31.9005        19.4041        18.3481         0.7548        17.7440         3.4501         1.1958      -999.2500      -999.2500      -999.2500         1.3496         1.1384       160.6702         1.3591         0.3047         0.0323         2.0994     
 3795.5000       104.0704        13.0154        31.1308        20.2100        18.4948         0.6103        16.8306         3.3379         1.2074      -999.2500      -999.2500      -999.2500         1.4490         1.1442       160.7952         0.9309         0.4130         0.0135         2.1099     
 3796.0000       103.7560        13.0395        30.7902        19.6527        18.0189         0.5529        15.8391         3.1701         1.2203      -999.2500      -999.2500      -999.2500         1.5124         1.1481       160.9732         0.8191         0.5186         0.0106         2.1164     
 3796.5000       103.5097        13.0388        30.5805        17.9054        17.0457         0.6172        15.9031         3.1013         1.2315      -999.2500      -999.2500      -999.2500         1.5354         1.1517       161.1702         1.0943         0.3223         0.0117         2.1185     
 3797.0000       103.5309        13.0392        30.2566        16.8593        16.1777         0.7146        15.9770         3.0612         1.2343      -999.2500      -999.2500      -999.2500         1.5394         1.1528       161.2881         1.2703         0.2931         0.0063         2.1200     
 3797.5000       103.5325        13.0392        29.7927        17.0337        16.0545         0.7757        15.8851         2.9727         1.2329      -999.2500      -999.2500      -999.2500         1.5241         1.1516       161.2477         1.3806         0.2930         0.0026         2.1226     
 3798.0000       103.3619        13.0392        29.1055        17.9148        16.3897         0.7769        15.5256         2.8767         1.2351      -999.2500      -999.2500      -999.2500         1.5067         1.1534       161.2121         1.3279         0.3146         0.0059         2.1240     
 3798.5000       103.1530        13.0392        28.4799        18.8047        16.2543         0.7945        14.8855         2.7927         1.2345      -999.2500      -999.2500      -999.2500         1.4927         1.1641       161.1569         0.8418         0.4923         0.0083         2.1225     
 3799.0000       102.9966        13.0392        28.2989        19.0485        15.0928         0.7855        13.9256         2.7310         1.2326      -999.2500      -999.2500      -999.2500         1.4836         1.1782       160.8156         0.4584         0.4378         0.0065         2.1202     
 3799.5000       102.9995        13.0392        28.5542        18.6358        14.1801         0.7001        13.3704         2.7285         1.2390      -999.2500      -999.2500      -999.2500         1.4986         1.1821       160.3278         0.5897         0.2995         0.0038         2.1191     
 3800.0000       103.0981        13.0392        29.2888        18.0054        14.6718         0.6261        13.7330         2.7873         1.2520      -999.2500      -999.2500      -999.2500         1.5336         1.1772       160.2381         0.7992         0.3019         0.0019         2.1195     
 3800.5000       103.1408        13.0392        30.0150        17.4048        16.3241         0.6651        15.1879         2.8596         1.2629      -999.2500      -999.2500      -999.2500         1.5546         1.1747       160.7803         1.1223         0.3430         0.0019         2.1199     
 3801.0000       103.0621        13.0392        30.0443        17.5308        17.5996         0.6722        15.8371         2.8731         1.2687      -999.2500      -999.2500      -999.2500         1.5439         1.1759       161.6886         1.3853         0.5206         0.0046         2.1198     
 3801.5000       102.9118        13.0392        29.8529        18.5398        18.1249         0.5843        15.1231         2.8607         1.2712      -999.2500      -999.2500      -999.2500         1.5156         1.1772       162.5454         1.3735         0.8189         0.0061         2.1208     
 3802.0000       102.7176        13.0392        30.1439        18.8346        18.0933         0.5662        14.4914         2.8688         1.2710      -999.2500      -999.2500      -999.2500         1.4954         1.1788       163.1296         1.2472         0.9873         0.0047         2.1210     
 3802.5000       102.5187        13.0392        30.5026        17.8888        17.6869         0.6574        14.6249         2.9648         1.2683      -999.2500      -999.2500      -999.2500         1.5035         1.1836       163.2734         1.0326         0.9446         0.0034         2.1187     
