~Version Information Section
VERS.          2.0                                     : CWLS LOG ASCII Standard
WRAP.          NO                                      : One line per depth step
CREA.          04/05/16                                : LAS Creation Date
~Well Information Section
STRT.ft        3300.000                                : Start Depth
STOP.ft        3900.0000                               : Stop Depth
STEP.ft        0.5000                                  : Step
NULL.          -999.2500                               : Null Value
COMP.          709                                     : Company
WELL.          13/22a-7                                : Well
FLD .          CAPTAIN                                 : Field
LOC .                                                  : Location
LOC1.                                                  : Location 1
CTRY.          UK                                      : Country
STAT.          INNER MORAY FIRTH                       : State
CNTY.          UKCS                                    : County
UWI .          10764                                   : UWI Number
API .                                                  : API Number
SECT.                                                  : Section
TOWN.                                                  : Township
RNGE.                                                  : Range
PDAT.          MSL                                     : Perm Datum
EPD .ft        82                                      : Elevation
LMF .          RKB                                     : Log Measured From
DMF .          RKB                                     : Drill Measured From
APD .ft        0                                       : Above Perm Datum
EKB .ft        82                                      : Elev-Kelly Bushing
EDF .ft        81                                      : Elev-Drill Floor
EGL .ft        -352                                    : Elev-Ground Level
SRVC.         SCHLUMBERGER                             : Service Company
DATE .        12/05/1990                               : Completion Date
LAT .         58 18 34.15 N                            : Latitude
LONG.         01 44 41.13 W                            : Longitude
TOOL.	      COMP WIRE                                : Tool
~Curve Information Section
DEPTH.ft                                                  : Depth Curve
CALI.in                                                : Caliper
CALS.in                                                : Sonic Caliper
CGR.gAPI                                               : Computed Gamma Ray From Thorium, Uranium, And Potassium
DRHO.g/cc                                              : Delta Rho
DTLF.us/ft                                             : Delta-T Long Spacing Far
DTLN.us/ft                                             : Delta-T Long Spacing Near
GR.gAPI                                                : Gamma Ray
LLD.Ohmm                                               : Latero-Log Deep (Resistivity)
LLS.Ohmm                                               : Latero-Log Shallow (Resistivity)
MSFL.Ohmm                                              : Msfl Resistivity
NPHI.%                                                 : Neutron Porosity
PEF.B/e                                                : Photo-Electric Factor
POTA.ppm                                               : Potassium
RHOB.g/cc                                              : Bulk Density
SGR.gAPI                                               : Spectroscopy Gamma-Ray
SP.mV                                                  : Spontaneous Potential
THOR.ppm                                               : Thorium
URAN.ppm                                               : Uranium
~ASCII Log Data Section
 3300.0000        12.1280        12.2897        31.7724         0.0091       110.8051       110.6132        36.6563         2.0734         2.1005         2.3662        36.0573         4.3109         0.0104         2.1767        43.3629      -999.2500         5.1623         1.6735     
 3300.5000        12.1919        12.2891        31.7293         0.0124       114.9991       115.4382        36.0625         2.1280         2.1189         2.2372        39.7184         4.4895         0.0104         2.1726        42.7239      -999.2500         5.1558         1.5875     
 3301.0000        12.2233        12.2891        32.4743         0.0158       118.9359       116.2751        35.1563         2.1145         2.0362         2.1818        42.6389         4.4205         0.0110         2.1826        43.4774      -999.2500         5.1115         1.5887     
 3301.5000        12.2432        12.2897        37.5906         0.0195       124.9059       118.1700        33.8438         2.0879         2.0699         2.3583        43.1625         4.3144         0.0139         2.1981        50.5440      -999.2500         5.4524         1.8703     
 3302.0000        12.2239        12.3008        38.2626         0.0179       153.6483       118.0876        38.3438         2.0738         2.1669         1.7999        43.6014         4.2139         0.0143         2.1994        51.5419      -999.2500         5.4726         1.9173     
 3302.5000        12.1804        12.3509        37.6910         0.0129       156.3489       118.7591        41.5625         2.0842         2.1340         1.9225        42.3047         4.1814         0.0142         2.1870        50.8599      -999.2500         5.3440         1.9014     
 3303.0000        12.2498        12.3965        37.7506         0.0098       149.4337       122.4943        46.0313         2.1721         2.1802         2.2374        41.5298         4.1120         0.0143         2.1655        51.1805      -999.2500         5.2987         1.9391     
 3303.5000        12.2220        12.4166        36.9774         0.0089       150.1382       124.3691        47.8438         2.3221         2.3276         2.2803        43.4652         4.0757         0.0141         2.1502        50.3377      -999.2500         5.1716         1.9290     
 3304.0000        12.2130        12.3822        36.8302         0.0088       150.3849       125.1958        48.0625         2.3548         2.3704         2.8637        45.1145         4.0339         0.0139         2.1557        50.3407      -999.2500         5.1980         1.9507     
 3304.5000        12.3153        12.3504        38.0102         0.0088       151.3525       126.8222        47.8750         2.5419         2.5455         2.3880        44.3134         3.9888         0.0143         2.1796        52.1295      -999.2500         5.3932         2.0386     
 3305.0000        12.2744        12.4477        37.1733         0.0092       149.2083       125.0048        45.0313         3.1060         3.0743         2.3152        41.0908         3.9491         0.0139         2.2096        50.9691      -999.2500         5.3033         1.9919     
 3305.5000        12.2641        12.4284        34.2496         0.0098       141.2274       121.9390        43.3750         3.6001         3.3555         4.7333        40.6561         4.0157         0.0125         2.2338        47.5042      -999.2500         5.0409         1.9137     
 3306.0000        12.3288        12.3901        31.2469         0.0045       134.2944       122.2630        40.3125         3.4415         3.1493         9.1853        42.6425         4.2990         0.0107         2.2756        44.5620      -999.2500         4.8883         1.9225     
 3306.5000        12.4084        12.4159        30.0345         0.0025       126.8534       115.7216        41.1250         3.1968         3.0040         4.6712        37.3627         4.7103         0.0103         2.3561        43.4820      -999.2500         4.6767         1.9416     
 3307.0000        12.3974        12.3926        25.8922         0.0093       105.0233       107.9661        37.5625         2.9653         2.9032         1.9188        27.9624         4.7504         0.0088         2.4570        38.2973      -999.2500         4.0583         1.7911     
 3307.5000        12.3389        12.3848        22.8366         0.0107        90.1478        98.0188        30.1406         3.1021         3.0935         2.3640        21.1498         4.2997         0.0071         2.4611        34.4825      -999.2500         3.8931         1.6815     
 3308.0000        12.2603        12.3978        19.3148        -0.0014        88.7389       100.5295        21.4219         4.2986         4.1110         3.2579        27.5751         3.7814         0.0046         2.3666        29.9209      -999.2500         3.9102         1.5313     
 3308.5000        12.3084        12.4056        17.7757        -0.0053        92.1035        98.3825        21.7500         6.0491         5.6890         3.7822        34.1053         3.4257         0.0037         2.3101        27.0041      -999.2500         3.8067         1.3324     
 3309.0000        12.3902        12.4063        23.5907         0.0002        93.4269        95.0906        29.2813         5.9943         5.6072         3.9021        32.9301         3.3657         0.0056         2.3385        30.8005      -999.2500         4.7475         1.0410     
 3309.5000        12.3983        12.4063        29.7939         0.0055        82.2186        91.3214        33.2188         4.7685         4.4930         6.0234        24.3875         3.3390         0.0082         2.4046        34.2441      -999.2500         5.5123         0.6425     
 3310.0000        12.3715        12.4063        27.2777         0.0040        74.3967        81.8133        29.6406         3.4591         3.4445        17.4075        18.0401         3.3637         0.0080         2.4056        30.3502      -999.2500         4.8629         0.4436     
 3310.5000        12.2944        12.4056        25.8774        -0.0002        72.5133        77.0195        22.1094         2.8462         2.7935        13.9445        18.5544         3.5567         0.0078         2.3418        27.8943      -999.2500         4.5147         0.2912     
 3311.0000        12.2512        12.3998        25.7967        -0.0029        82.8672        78.7995        19.2188         2.7336         2.5946        19.8210        21.2509         3.8745         0.0082         2.2661        27.4078      -999.2500         4.3207         0.2326     
 3311.5000        12.2525        12.4076        27.8733        -0.0015       125.4294        95.7282        21.2344         2.7501         2.6966         6.2047        25.5008         4.0659         0.0090         2.2284        30.2057      -999.2500         4.5995         0.3368     
 3312.0000        12.2911        12.4269        30.0770         0.0007       135.1198       103.1128        26.6094         2.8715         2.8733         4.1014        29.4425         3.9546         0.0097         2.2166        33.6148      -999.2500         4.9513         0.5108     
 3312.5000        12.2903        12.4170        33.3904         0.0003       129.9541       104.1635        33.2188         2.9269         2.9048         3.1511        30.5529         3.8306         0.0107         2.2110        38.4895      -999.2500         5.5346         0.7362     
 3313.0000        12.1462        12.3649        35.7997         0.0011       131.3263       106.4053        35.7813         2.8631         2.8153         3.4164        32.0008         3.8309         0.0114         2.2003        42.0728      -999.2500         5.9875         0.9057     
 3313.5000        12.1204        12.3545        36.6347         0.0019       133.8908       107.8322        36.6250         2.8539         2.7564         3.6015        32.5054         3.7822         0.0115         2.1965        43.5298      -999.2500         6.1992         0.9956     
