~Version Information Section
VERS.          2.0                                     : CWLS LOG ASCII Standard
WRAP.          NO                                      : One line per depth step
CREA.          27/11/15                                : LAS Creation Date
~Well Information Section
STRT.ft        3749.0000                               : Start Depth
STOP.ft        4349.0000                               : Stop Depth
STEP.ft        0.5000                                  : Step
NULL.          -999.2500                               : Null Value
COMP.          TEXACO                                  : Company
WELL.          13/22a-6                                : Well
FLD .          CAPTAIN                                 : Field
LOC .          MORAY FIRTH                             : Location
LOC1.                                                  : Location (UTM)
CTRY.          UK                                      : Country
PROV.          UKCS                                    : Province
UWI .          10763                                   : UWI Number
API .                                                  : API Number
SECT.                                                  : Section
TOWN.                                                  : Township
RNGE.                                                  : Range
PDAT.          MSL                                     : Perm Datum
EPD .ft        0.00                                    : Elevation
LMF .          RKB                                     : Log Measured From
DMF .          RKB                                     : Drill Measured From
APD .ft        81.00                                   : Above Perm Datum
EKB .ft        81.00                                   : Elev-Kelly Bushing
EDF .ft        80.00                                   : Elev-Drill Floor
EGL .ft        -364.00                                 : Elev-Ground Level (Water Depth)
TDD .ft        4400.00                                 : Total Depth (Driller)
SRVC.          ATLAS WIRELINE                          : Service Company
LATI.          58 19 25.50 N                           : Latitude
LONG.          01 42 58.94 W                           : Longitude
DATE.          APR-MAY-1990                            : Logging Date
PROJ.          UKCS                                    : Project
SET .          COMP WIRE                               : Set
~Curve Information Section
DEPTH.ft                                               : Depth Curve
AC.us/ft                                               : Acoustic Travel Time
CAL.in                                                 : Caliper
CNC.%                                                  : Compensated Neutron Porosity
GR.gAPI                                                : DIFL Gamma Ray
GRS.gAPI                                               : SL Gamma Ray
K.                                                     : Potassium
KTH.gAPI                                               : Uranium Stripped Gamma Ray
PE.B/e                                                 : Photo-electric
RD.ohmm                                                : Deep Laterolog Resistivity
RFOC.ohmm                                              : Logarithmic Resistivity from CFOC
RILD.ohmm                                              : Deep Induction Resistivity
RILM.ohmm                                              : Medium Induction Resistivity
RMLL.ohmm                                              : Microlaterolog Resistivity
RS.ohmm                                                : Shallow Laterolog Resistivity
SP.mV                                                  : Spontaneous Potential
TH.ppm                                                 : Thorium
U.ppm                                                  : Uranium
ZCOR.g/cc                                              : ZDL Density Correction
ZDEN.g/cc                                              : ZDL Bulk Density
~ASCII Log Data Section
 3749.0000       103.4891        12.9429        29.3759        16.6561        15.5141         0.4849        12.7278         2.8383         1.2057      -999.2500      -999.2500      -999.2500         1.5038         1.1759       158.4679         0.5054         0.7169         0.0178         2.1358     
 3749.5000       103.7738        12.9429        29.3622        15.8031        16.5673         0.4862        14.0542         2.8325         1.2026      -999.2500      -999.2500      -999.2500         1.5080         1.1671       158.8741         0.7986         0.5994         0.0204         2.1340     
 3750.0000       104.0737        12.9429        29.6169        15.2479        17.5395         0.5039        15.3308         2.8138         1.1990      -999.2500      -999.2500      -999.2500         1.5058         1.1607       159.2053         1.1625         0.5119         0.0185         2.1327     
 3750.5000       104.2360        12.9429        30.0461        15.0364        17.5902         0.4754        15.3366         2.8186         1.1968      -999.2500      -999.2500      -999.2500         1.5044         1.1615       159.4823         1.6084         0.5096         0.0155         2.1309     
 3751.0000       104.2119        12.9429        30.2377        15.0360        16.8043         0.4085        14.0346         2.8224         1.1951      -999.2500      -999.2500      -999.2500         1.5100         1.1668       159.5485         1.5453         0.5987         0.0122         2.1283     
 3751.5000       103.9680        12.9429        30.1983        15.1960        16.0564         0.4343        13.0742         2.8248         1.1959      -999.2500      -999.2500      -999.2500         1.5038         1.1672       159.3024         0.8451         0.6784         0.0077         2.1251     
 3752.0000       103.6009        12.9429        29.8838        15.4795        16.0593         0.5884        14.2068         2.8260         1.1991      -999.2500      -999.2500      -999.2500         1.4845         1.1629       158.9762         0.4910         0.5098         0.0059         2.1226     
 3752.5000       103.3134        12.9429        29.2382        15.4960        16.7194         0.6599        15.6733         2.8327         1.2039      -999.2500      -999.2500      -999.2500         1.4782         1.1582       158.8133         0.9341         0.3064         0.0099         2.1219     
 3753.0000       103.1777        12.9429        29.2780        15.2206        17.1675         0.5548        15.6387         2.8138         1.2101      -999.2500      -999.2500      -999.2500         1.5001         1.1545       158.7105         1.1853         0.3710         0.0146         2.1225     
 3753.5000       103.1359        12.9429        30.2884        15.1954        16.9896         0.4370        14.3436         2.7727         1.2110      -999.2500      -999.2500      -999.2500         1.5300         1.1547       158.5197         0.7287         0.5535         0.0163         2.1240     
 3754.0000       103.1186        12.9429        31.2716        15.2941        16.8195         0.4106        13.4273         2.7584         1.2047      -999.2500      -999.2500      -999.2500         1.5399         1.1597       158.4374         0.1818         0.6836         0.0171         2.1263     
 3754.5000       102.9857        12.9429        31.5466        15.5257        17.0378         0.4415        13.6469         2.7506         1.1997      -999.2500      -999.2500      -999.2500         1.5262         1.1621       158.7683         0.1815         0.7174         0.0172         2.1288     
 3755.0000       102.7325        12.9429        31.1881        16.1349        17.1173         0.5180        14.8661         2.7429         1.1965      -999.2500      -999.2500      -999.2500         1.5135         1.1594       159.4644         0.6318         0.5425         0.0137         2.1307     
 3755.5000       102.5618        12.9429        30.7122        16.8076        17.0490         0.6122        16.4228         2.7427         1.1889      -999.2500      -999.2500      -999.2500         1.5206         1.1553       160.1920         1.1223         0.2959         0.0080         2.1320     
 3756.0000       102.5244        12.9429        30.5185        16.7677        17.2635         0.6567        17.2014         2.7441         1.1866      -999.2500      -999.2500      -999.2500         1.5346         1.1524       160.6186         1.2694         0.2914         0.0051         2.1327     
 3756.5000       102.5016        12.9429        30.4476        16.1727        17.4241         0.6649        16.9962         2.7368         1.1961      -999.2500      -999.2500      -999.2500         1.5359         1.1522       160.5327         1.0239         0.2947         0.0058         2.1328     
 3757.0000       102.4673        12.9429        30.1905        15.8059        17.0457         0.7435        16.1267         2.7278         1.2000      -999.2500      -999.2500      -999.2500         1.5258         1.1545       160.0230         0.5967         0.3245         0.0077         2.1323     
 3757.5000       102.5262        12.9429        30.0035        15.6362        16.9641         0.8396        15.5993         2.7245         1.1890      -999.2500      -999.2500      -999.2500         1.5191         1.1532       159.4923         0.2246         0.4792         0.0091         2.1325     
 3758.0000       102.7096        12.9429        30.2363        15.7495        17.8408         0.7962        15.8389         2.7242         1.1812      -999.2500      -999.2500      -999.2500         1.5182         1.1460       159.1846         0.1980         0.6553         0.0115         2.1345     
 3758.5000       102.9166        12.9429        30.6974        16.1788        18.3817         0.6521        16.1977         2.7261         1.1859      -999.2500      -999.2500      -999.2500         1.5166         1.1439       159.0912         0.6844         0.5958         0.0141         2.1370     
 3759.0000       103.0400        12.9429        30.9762        16.3068        17.1538         0.5179        15.5178         2.7284         1.1920      -999.2500      -999.2500      -999.2500         1.5114         1.1515       159.2233         1.3874         0.3899         0.0140         2.1376     
 3759.5000       103.0680        12.9429        30.9242        15.5231        15.4995         0.4408        13.8984         2.7294         1.1952      -999.2500      -999.2500      -999.2500         1.5080         1.1596       159.5847         1.7590         0.3803         0.0118         2.1359     
 3760.0000       103.0325        12.9429        30.5853        14.9501        14.9392         0.4476        13.1184         2.7235         1.2024      -999.2500      -999.2500      -999.2500         1.5125         1.1627       160.0023         1.7387         0.4621         0.0102         2.1340     
 3760.5000       102.9839        12.9429        29.9894        15.2000        14.7836         0.4757        12.9972         2.7099         1.2152      -999.2500      -999.2500      -999.2500         1.5203         1.1642       160.1925         1.4659         0.4738         0.0109         2.1344     
 3761.0000       102.9778        12.9429        29.5053        15.1867        14.6230         0.4938        12.4831         2.7120         1.2244      -999.2500      -999.2500      -999.2500         1.5198         1.1643       159.9223         0.9683         0.5906         0.0144         2.1364     
 3761.5000       103.0112        12.9429        29.6047        14.6357        15.0765         0.5976        12.8971         2.7389         1.2247      -999.2500      -999.2500      -999.2500         1.5066         1.1618       159.2039         0.6899         0.6780         0.0170         2.1363     
 3762.0000       103.0305        12.9429        30.3270        14.1164        15.5664         0.6884        14.3288         2.7543         1.2200      -999.2500      -999.2500      -999.2500         1.4906         1.1572       158.2651         1.2417         0.4638         0.0142         2.1329     
