~Version Information Section
VERS.          2.0                                     : CWLS LOG ASCII Standard
WRAP.          NO                                      : One line per depth step
CREA.          27/11/15                                : LAS Creation Date
~Well Information Section
STRT.ft        3749.0000                               : Start Depth
STOP.ft        4349.0000                               : Stop Depth
STEP.ft        0.5000                                  : Step
NULL.          -999.2500                               : Null Value
COMP.          TEXACO                                  : Company
WELL.          13/22a-6                                : Well
FLD .          CAPTAIN                                 : Field
LOC .          MORAY FIRTH                             : Location
LOC1.                                                  : Location (UTM)
CTRY.          UK                                      : Country
PROV.          UKCS                                    : Province
UWI .          10763                                   : UWI Number
API .                                                  : API Number
SECT.                                                  : Section
TOWN.                                                  : Township
RNGE.                                                  : Range
PDAT.          MSL                                     : Perm Datum
EPD .ft        0.00                                    : Elevation
LMF .          RKB                                     : Log Measured From
DMF .          RKB                                     : Drill Measured From
APD .ft        81.00                                   : Above Perm Datum
EKB .ft        81.00                                   : Elev-Kelly Bushing
EDF .ft        80.00                                   : Elev-Drill Floor
EGL .ft        -364.00                                 : Elev-Ground Level (Water Depth)
TDD .ft        4400.00                                 : Total Depth (Driller)
SRVC.          ATLAS WIRELINE                          : Service Company
LATI.          58 19 25.50 N                           : Latitude
LONG.          01 42 58.94 W                           : Longitude
DATE.          APR-MAY-1990                            : Logging Date
PROJ.          UKCS                                    : Project
SET .          COMP WIRE                               : Set
~Curve Information Section
DEPTH.ft                                               : Depth Curve
AC.us/ft                                               : Acoustic Travel Time
CAL.in                                                 : Caliper
CNC.%                                                  : Compensated Neutron Porosity
GR.gAPI                                                : DIFL Gamma Ray
GRS.gAPI                                               : SL Gamma Ray
K.                                                     : Potassium
KTH.gAPI                                               : Uranium Stripped Gamma Ray
PE.B/e                                                 : Photo-electric
RD.ohmm                                                : Deep Laterolog Resistivity
RFOC.ohmm                                              : Logarithmic Resistivity from CFOC
RILD.ohmm                                              : Deep Induction Resistivity
RILM.ohmm                                              : Medium Induction Resistivity
RMLL.ohmm                                              : Microlaterolog Resistivity
RS.ohmm                                                : Shallow Laterolog Resistivity
SP.mV                                                  : Spontaneous Potential
TH.ppm                                                 : Thorium
U.ppm                                                  : Uranium
ZCOR.g/cc                                              : ZDL Density Correction
ZDEN.g/cc                                              : ZDL Bulk Density
~ASCII Log Data Section
# ...
 3897.5000        98.0773        12.9445        29.6101        77.0998        67.8547         2.1622        54.7477         2.9351         2.1106      -999.2500      -999.2500      -999.2500         1.9623         1.8903       159.7706         2.2718         3.4880         0.0136         2.1683     
 3898.0000        96.9384        12.9331        29.1706        76.4684        65.1070         1.9861        51.1060         2.9296         2.0963      -999.2500      -999.2500      -999.2500         1.9158         1.8944       159.7518         2.3956         3.6874         0.0169         2.1710     
 3898.5000        95.3480        12.9109        29.1786        75.5147        63.8799         1.8724        50.1997         2.9239         2.0893      -999.2500      -999.2500      -999.2500         1.9664         1.9016       160.0594         2.4138         3.4686         0.0190         2.1743     
 3899.0000        93.6835        12.9338        29.5396        74.5718        63.5817         1.9860        54.7368         2.9143         2.0731      -999.2500      -999.2500      -999.2500         2.0073         1.9017       160.5832         3.2886         2.2107         0.0158         2.1734     
 3899.5000        92.1232        12.9201        30.0550        74.5285        64.1344         1.9944        58.5991         2.9105         2.0598      -999.2500      -999.2500      -999.2500         1.9501         1.8993       161.3025         4.9292         1.3359         0.0117         2.1664     
 3900.0000        90.8590        12.9185        30.4736        75.6998        65.7080         1.8991        58.5757         2.9065         2.0804      -999.2500      -999.2500      -999.2500         1.8261         1.9177       161.8615         6.2773         1.6877         0.0085         2.1543     
 3900.5000        90.8024        12.9436        30.6740        78.0394        66.8857         1.9303        56.8652         2.8893         2.1516      -999.2500      -999.2500      -999.2500         1.7187         1.9714       161.7459         6.5836         2.4914         0.0068         2.1404     
 3901.0000        92.8277        12.9426        31.0274        79.5683        66.1689         1.9666        54.1672         2.8814         2.2486      -999.2500      -999.2500      -999.2500         1.6716         2.0458       160.9457         5.8462         3.1442         0.0088         2.1281     
 3901.5000        96.0016        12.9429        31.7524        78.7904        66.2668         1.9484        53.6955         2.8829         2.3615      -999.2500      -999.2500      -999.2500         1.6788         2.1330       159.9914         5.1728         3.2556         0.0119         2.1201     
 3902.0000        98.0393        12.9429        32.1298        78.8370        68.7514         2.0077        56.9128         2.8786         2.5764      -999.2500      -999.2500      -999.2500         1.7013         2.2904       159.3701         4.9073         2.9587         0.0104         2.1190     
 3902.5000        96.6872        12.9429        31.3236        81.5402        69.5181         2.1462        58.6201         2.8725         3.0088      -999.2500      -999.2500      -999.2500         1.7252         2.5998       159.2621         3.7977         2.7598         0.0108         2.1321     
 3903.0000        90.2480        12.9429        29.0724        85.5332        68.1160         2.2549        58.2279         2.9089         3.6369      -999.2500      -999.2500      -999.2500         1.8911         3.0747       159.7545         2.7350         2.5957         0.0191         2.1766     
 3903.5000        80.2403        12.9429        25.5863        90.4333        68.7175         2.3858        60.6978         3.0668         4.1100      -999.2500      -999.2500      -999.2500         2.6043         3.5423       160.5996         3.5136         2.1571         0.0248         2.2601     
 3904.0000        72.4216        12.9429        22.4109        93.7367        71.1794         2.6099        65.4095         3.3222         3.9735      -999.2500      -999.2500      -999.2500         4.5951         3.6436       161.1593         5.1556         1.6042         0.0167         2.3466     
 3904.5000        71.6510        12.9429        21.4928        93.1961        71.5041         2.7922        67.3130         3.5231         3.4115      -999.2500      -999.2500      -999.2500         5.6720         3.3107       161.1835         5.8333         1.2163        -0.0018         2.3744     
 3905.0000        77.2205        12.9429        23.2722        90.4411        69.7443         2.6726        64.7568         3.4724         2.9364      -999.2500      -999.2500      -999.2500         3.8522         2.9269       160.8749         5.4572         1.4377        -0.0075         2.3354     
 3905.5000        84.3777        12.9429        26.3312        88.6503        68.9874         2.3176        58.8407         3.2117         2.6957      -999.2500      -999.2500      -999.2500         2.8687         2.7103       160.4759         4.6536         2.7881         0.0022         2.2770     
 3906.0000        89.0448        12.9429        28.0373        87.8025        70.5649         2.2323        56.1227         2.9919         2.6332      -999.2500      -999.2500      -999.2500         2.6101         2.6575       160.1831         4.6030         4.0151         0.0123         2.2357     
 3906.5000        90.7723        12.9426        27.9478        87.2109        74.4264         2.6502        62.7073         2.9721         2.6671      -999.2500      -999.2500      -999.2500         2.7221         2.6986       160.0851         5.8381         3.4791         0.0136         2.2193     
 3907.0000        91.2319        12.9436        27.2531        87.0391        77.7518         2.9065        69.2130         3.1006         2.7167      -999.2500      -999.2500      -999.2500         2.8446         2.7512       160.1047         6.8727         2.5332         0.0130         2.2193     
 3907.5000        91.4573        12.9185        26.8598        87.8916        76.2971         2.5357        65.9445         3.2199         2.7192      -999.2500      -999.2500      -999.2500         2.8146         2.7548       160.2049         6.5054         2.8322         0.0161         2.2256     
 3908.0000        91.6786        12.9185        26.8959        88.1736        71.0224         2.2278        59.2173         3.2329         2.6397      -999.2500      -999.2500      -999.2500         2.8681         2.6796       160.2332         5.2079         3.1347         0.0188         2.2339     
 3908.5000        92.3107        12.9436        27.0900        86.4937        68.4097         2.5631        59.7542         3.1934         2.4569      -999.2500      -999.2500      -999.2500         2.9601         2.5113       159.9140         4.1779         2.5552         0.0187         2.2400     
 3909.0000        93.5973        12.9426        27.4372        83.9411        70.6105         3.0910        62.6006         3.1098         2.2351      -999.2500      -999.2500      -999.2500         2.6872         2.3044       159.3427         3.6155         2.6767         0.0171         2.2369     
 3909.5000        95.1692        12.9429        28.2926        81.9940        73.4740         3.1608        63.6699         3.0043         2.0824      -999.2500      -999.2500      -999.2500         2.2945         2.1518       159.0029         3.4340         3.2840         0.0152         2.2230     
 3910.0000        96.3796        12.9429        29.3790        81.9386        73.4933         2.9453        64.5955         2.9252         2.0436      -999.2500      -999.2500      -999.2500         2.0771         2.0944       159.2682         3.2424         2.7388         0.0152         2.2073     
 3910.5000        96.9405        12.9429        29.6057        84.6249        70.9134         2.8956        66.9434         2.8940         2.1109      -999.2500      -999.2500      -999.2500         2.0443         2.1370       159.9518         3.9532         1.1705         0.0196         2.1984     
