~Version Information Section
VERS.          2.0                                     : CWLS LOG ASCII Standard
WRAP.          NO                                      : One line per depth step
CREA.          27/11/15                                : LAS Creation Date
~Well Information Section
STRT.ft        3749.0000                               : Start Depth
STOP.ft        4349.0000                               : Stop Depth
STEP.ft        0.5000                                  : Step
NULL.          -999.2500                               : Null Value
COMP.          TEXACO                                  : Company
WELL.          13/22a-6                                : Well
FLD .          CAPTAIN                                 : Field
LOC .          MORAY FIRTH                             : Location
LOC1.                                                  : Location (UTM)
CTRY.          UK                                      : Country
PROV.          UKCS                                    : Province
UWI .          10763                                   : UWI Number
API .                                                  : API Number
SECT.                                                  : Section
TOWN.                                                  : Township
RNGE.                                                  : Range
PDAT.          MSL                                     : Perm Datum
EPD .ft        0.00                                    : Elevation
LMF .          RKB                                     : Log Measured From
DMF .          RKB                                     : Drill Measured From
APD .ft        81.00                                   : Above Perm Datum
EKB .ft        81.00                                   : Elev-Kelly Bushing
EDF .ft        80.00                                   : Elev-Drill Floor
EGL .ft        -364.00                                 : Elev-Ground Level (Water Depth)
TDD .ft        4400.00                                 : Total Depth (Driller)
SRVC.          ATLAS WIRELINE                          : Service Company
LATI.          58 19 25.50 N                           : Latitude
LONG.          01 42 58.94 W                           : Longitude
DATE.          APR-MAY-1990                            : Logging Date
PROJ.          UKCS                                    : Project
SET .          COMP WIRE                               : Set
~Curve Information Section
DEPTH.ft                                               : Depth Curve
AC.us/ft                                               : Acoustic Travel Time
CAL.in                                                 : Caliper
CNC.%                                                  : Compensated Neutron Porosity
GR.gAPI                                                : DIFL Gamma Ray
GRS.gAPI                                               : SL Gamma Ray
K.                                                     : Potassium
KTH.gAPI                                               : Uranium Stripped Gamma Ray
PE.B/e                                                 : Photo-electric
RD.ohmm                                                : Deep Laterolog Resistivity
RFOC.ohmm                                              : Logarithmic Resistivity from CFOC
RILD.ohmm                                              : Deep Induction Resistivity
RILM.ohmm                                              : Medium Induction Resistivity
RMLL.ohmm                                              : Microlaterolog Resistivity
RS.ohmm                                                : Shallow Laterolog Resistivity
SP.mV                                                  : Spontaneous Potential
TH.ppm                                                 : Thorium
U.ppm                                                  : Uranium
ZCOR.g/cc                                              : ZDL Density Correction
ZDEN.g/cc                                              : ZDL Bulk Density
~ASCII Log Data Section
# ...
 3938.0000        96.7175        12.9429        26.3673        95.4376        70.6698         1.5812        48.2810         2.6596         2.0345      -999.2500      -999.2500      -999.2500         2.1240         1.8281       160.6951         5.6299         5.3980         0.0244         2.1969     
 3938.5000        96.6204        12.9429        26.9193       101.7314        72.0842         1.7804        54.1528         2.6647         2.1107      -999.2500      -999.2500      -999.2500         2.0969         1.8971       160.2900         7.5647         4.4409         0.0208         2.2000     
 3939.0000        96.4952        12.9429        26.5991       102.8184        75.1885         2.1948        62.0075         2.7470         2.1881      -999.2500      -999.2500      -999.2500         2.2242         1.9659       159.5925         7.7749         3.4326         0.0201         2.2086     
 3939.5000        96.2430        12.9429        26.1634       100.5347        80.9553         2.5689        67.4509         2.8667         2.2738      -999.2500      -999.2500      -999.2500         2.3755         2.0439       159.0013         6.3660         3.6481         0.0195         2.2194     
 3940.0000        95.7873        12.9429        26.2062        99.5920        86.8534         2.7876        72.1118         2.9511         2.3488      -999.2500      -999.2500      -999.2500         2.3883         2.1159       159.0076         6.2780         4.0100         0.0175         2.2251     
 3940.5000        95.2832        12.9445        26.2453        98.6956        89.6873         2.7609        75.0341         3.0090         2.3762      -999.2500      -999.2500      -999.2500         2.4297         2.1491       159.5986         6.5850         3.8119         0.0156         2.2279     
 3941.0000        94.9640        12.9331        25.9467        94.7640        87.7267         2.5936        73.5991         3.0703         2.3350      -999.2500      -999.2500      -999.2500         2.5851         2.1279       160.3398         5.1917         3.4724         0.0131         2.2315     
 3941.5000        94.8748        12.9112        25.7432        89.6921        82.5025         2.3285        66.8212         3.1268         2.2795      -999.2500      -999.2500      -999.2500         2.6376         2.0904       160.8563         3.4600         3.7413         0.0103         2.2313     
 3942.0000        94.9577        12.9331        26.0251        88.2299        77.9836         2.0029        58.2030         3.1721         2.3177      -999.2500      -999.2500      -999.2500         2.5002         2.1197       160.8102         3.5028         4.7048         0.0099         2.2248     
 3942.5000        94.8926        12.9445        26.4887        91.2768        77.1718         1.9078        54.6402         3.1920         2.5126      -999.2500      -999.2500      -999.2500         2.4099         2.2719       159.9084         4.5021         5.5569         0.0131         2.2194     
 3943.0000        94.0876        12.9429        26.5959        95.7959        79.0516         2.0528        57.0267         3.1917         2.8572      -999.2500      -999.2500      -999.2500         2.6569         2.5515       158.4339         5.0682         5.6218         0.0189         2.2260     
 3943.5000        92.4676        12.9429        26.1471        99.6190        80.6674         2.1550        60.9915         3.1888         3.2462      -999.2500      -999.2500      -999.2500         3.3869         2.8897       157.1937         5.2099         4.9206         0.0231         2.2501     
 3944.0000        90.6684        12.9429        25.5835       100.6166        80.8480         2.1839        64.5798         3.1815         3.3942      -999.2500      -999.2500      -999.2500         4.1230         3.0742       156.5782         5.9787         3.9376         0.0228         2.2832     
 3944.5000        89.4908        12.9429        25.3827        96.3939        79.4925         2.2862        65.9062         3.1669         3.1279      -999.2500      -999.2500      -999.2500         4.1572         2.9188       156.3178         6.4315         3.3821         0.0197         2.3056     
 3945.0000        89.6313        12.9429        25.5610        88.8404        76.9636         2.3296        62.9645         3.1370         2.7146      -999.2500      -999.2500      -999.2500         3.8255         2.5963       156.2025         5.5078         3.6591         0.0133         2.3060     
 3945.5000        91.1317        12.9429        25.9815        82.9681        74.0809         2.3537        60.4917         3.1053         2.4067      -999.2500      -999.2500      -999.2500         3.2569         2.3262       156.3596         4.6890         3.6865         0.0036         2.2900     
 3946.0000        93.0822        12.9429        26.5949        79.7192        72.1507         2.5014        62.8944         3.0821         2.2500      -999.2500      -999.2500      -999.2500         2.6864         2.1754       156.7204         5.1347         2.5723        -0.0017         2.2687     
 3946.5000        94.2155        12.9445        27.2684        78.4676        71.2263         2.6893        65.5968         3.0498         2.2090      -999.2500      -999.2500      -999.2500         2.4154         2.1362       157.0306         5.5594         1.6134         0.0017         2.2497     
 3947.0000        93.9653        12.9331        27.6188        78.8991        69.4671         2.6402        64.9742         2.9831         2.2185      -999.2500      -999.2500      -999.2500         2.3864         2.1598       157.1526         6.9358         1.3017         0.0076         2.2381     
 3947.5000        92.8244        12.9128        27.4120        79.5831        65.3228         2.3647        61.9980         2.9590         2.2255      -999.2500      -999.2500      -999.2500         2.4587         2.1882       157.1033         8.7721         0.9383         0.0136         2.2364     
 3948.0000        91.8052        12.9232        26.9114        79.8994        60.8578         2.1485        57.3142         2.9630         2.2198      -999.2500      -999.2500      -999.2500         2.5208         2.2025       157.0169         7.9648         0.9828         0.0199         2.2402     
 3948.5000        91.5242        12.9128        26.5390        81.9406        60.2140         2.1694        52.8116         2.9620         2.2122      -999.2500      -999.2500      -999.2500         2.4866         2.2083       157.0310         5.2291         2.1517         0.0214         2.2417     
 3949.0000        92.2241        12.9331        26.5126        85.9989        63.3748         2.2806        52.6611         2.9704         2.2450      -999.2500      -999.2500      -999.2500         2.4369         2.2397       157.1250         3.8584         3.2004         0.0194         2.2395     
 3949.5000        93.4855        12.9445        26.8693        90.0840        67.9453         2.3354        56.0858         2.9314         2.3623      -999.2500      -999.2500      -999.2500         2.4637         2.3391       157.2620         4.5989         3.4403         0.0193         2.2378     
 3950.0000        94.2129        12.9429        27.3235        92.9133        72.9220         2.2429        58.2477         2.8702         2.5242      -999.2500      -999.2500      -999.2500         2.5343         2.4815       157.3972         5.6832         4.0157         0.0205         2.2378     
 3950.5000        94.0031        12.9429        27.4670        93.9922        75.8233         2.0798        56.7879         2.8811         2.6209      -999.2500      -999.2500      -999.2500         2.7620         2.5759       157.2283         5.8077         4.9993         0.0210         2.2400     
 3951.0000        93.5849        12.9429        27.4765        94.1804        74.5179         2.0565        56.1865         2.8622         2.6291      -999.2500      -999.2500      -999.2500         3.1319         2.6042       156.6430         5.3465         4.7794         0.0208         2.2470     
