~Version Information Section
VERS.          2.0                                     : CWLS LOG ASCII Standard
WRAP.          NO                                      : One line per depth step
CREA.          27/11/15                                : LAS Creation Date
~Well Information Section
STRT.ft        3749.0000                               : Start Depth
STOP.ft        4349.0000                               : Stop Depth
STEP.ft        0.5000                                  : Step
NULL.          -999.2500                               : Null Value
COMP.          TEXACO                                  : Company
WELL.          13/22a-6                                : Well
FLD .          CAPTAIN                                 : Field
LOC .          MORAY FIRTH                             : Location
LOC1.                                                  : Location (UTM)
CTRY.          UK                                      : Country
PROV.          UKCS                                    : Province
UWI .          10763                                   : UWI Number
API .                                                  : API Number
SECT.                                                  : Section
TOWN.                                                  : Township
RNGE.                                                  : Range
PDAT.          MSL                                     : Perm Datum
EPD .ft        0.00                                    : Elevation
LMF .          RKB                                     : Log Measured From
DMF .          RKB                                     : Drill Measured From
APD .ft        81.00                                   : Above Perm Datum
EKB .ft        81.00                                   : Elev-Kelly Bushing
EDF .ft        80.00                                   : Elev-Drill Floor
EGL .ft        -364.00                                 : Elev-Ground Level (Water Depth)
TDD .ft        4400.00                                 : Total Depth (Driller)
SRVC.          ATLAS WIRELINE                          : Service Company
LATI.          58 19 25.50 N                           : Latitude
LONG.          01 42 58.94 W                           : Longitude
DATE.          APR-MAY-1990                            : Logging Date
PROJ.          UKCS                                    : Project
SET .          COMP WIRE                               : Set
~Curve Information Section
DEPTH.ft                                               : Depth Curve
AC.us/ft                                               : Acoustic Travel Time
CAL.in                                                 : Caliper
CNC.%                                                  : Compensated Neutron Porosity
GR.gAPI                                                : DIFL Gamma Ray
GRS.gAPI                                               : SL Gamma Ray
K.                                                     : Potassium
KTH.gAPI                                               : Uranium Stripped Gamma Ray
PE.B/e                                                 : Photo-electric
RD.ohmm                                                : Deep Laterolog Resistivity
RFOC.ohmm                                              : Logarithmic Resistivity from CFOC
RILD.ohmm                                              : Deep Induction Resistivity
RILM.ohmm                                              : Medium Induction Resistivity
RMLL.ohmm                                              : Microlaterolog Resistivity
RS.ohmm                                                : Shallow Laterolog Resistivity
SP.mV                                                  : Spontaneous Potential
TH.ppm                                                 : Thorium
U.ppm                                                  : Uranium
ZCOR.g/cc                                              : ZDL Density Correction
ZDEN.g/cc                                              : ZDL Bulk Density
~ASCII Log Data Section
# ...
 3870.5000        87.7695        12.9429        22.2090        79.3493        59.1678         1.3530        43.8230         3.5768         4.4941      -999.2500      -999.2500      -999.2500         5.5588         5.2062       160.3848         8.0343         3.7676         0.0170         2.3461     
 3871.0000        88.0424        12.9429        22.4102        81.1533        61.1194         1.5860        48.5186         3.6708         4.3758      -999.2500      -999.2500      -999.2500         4.4015         5.0501       160.1429         7.3987         3.1454        -0.0054         2.3134     
 3871.5000        87.8015        12.9429        22.8613        80.4742        64.1908         1.9022        53.8338         3.5830         4.2528      -999.2500      -999.2500      -999.2500         4.2409         4.8916       160.2064         6.4986         2.6811         0.0041         2.2950     
 3872.0000        87.6033        12.9429        22.7066        78.9051        64.6346         1.9601        54.6664         3.5440         4.0320      -999.2500      -999.2500      -999.2500         4.9681         4.6457       160.5538         5.6798         2.5724         0.0191         2.2987     
 3872.5000        87.6139        12.9429        22.7236        78.3414        62.9193         2.0316        55.5482         3.5284         3.7718      -999.2500      -999.2500      -999.2500         5.3854         4.3447       160.6708         6.0621         1.9460         0.0171         2.3081     
 3873.0000        88.7312        12.9429        23.6997        78.0276        62.5230         2.2507        58.7964         3.4906         3.6529      -999.2500      -999.2500      -999.2500         4.6411         4.1731       160.1429         6.7786         1.0308         0.0092         2.3052     
 3873.5000        91.2698        12.9429        25.0715        77.6376        65.1850         2.3905        61.7031         3.3771         3.7405      -999.2500      -999.2500      -999.2500         3.9251         4.2170       159.3906         6.0955         0.9592         0.0133         2.2936     
 3874.0000        94.0014        12.9429        25.8970        79.9110        69.6674         2.3936        63.8995         3.2748         3.9443      -999.2500      -999.2500      -999.2500         3.9239         4.3924       159.0537         4.7652         1.5063         0.0222         2.2905     
 3874.5000        95.5363        12.9429        26.2221        86.1611        73.6035         2.3015        64.5631         3.2476         4.0696      -999.2500      -999.2500      -999.2500         4.4314         4.4974       159.1803         4.4916         2.2436         0.0232         2.2995     
 3875.0000        95.7594        12.9429        26.7192        94.5076        76.0779         2.1129        63.2537         3.1784         3.9582      -999.2500      -999.2500      -999.2500         4.9116         4.3602       159.5918         5.6849         3.0611         0.0176         2.3077     
 3875.5000        95.7672        12.9429        28.1451       104.0903        78.1783         1.9178        63.1663         2.9882         3.6557      -999.2500      -999.2500      -999.2500         4.7772         4.0120       160.3782         8.2505         3.4394         0.0145         2.3075     
 3876.0000        96.6330        12.9429        30.4753       113.6512        83.8450         1.7206        66.7581         2.8586         3.3165      -999.2500      -999.2500      -999.2500         3.7514         3.6088       161.4455        11.6272         3.5919         0.0154         2.3066     
 3876.5000        98.4466        12.9429        33.2355       119.3593        93.3602         1.4880        69.2280         3.0022         3.0671      -999.2500      -999.2500      -999.2500         2.7002         3.2910       162.2999        13.6348         4.5409         0.0280         2.3154     
 3877.0000       100.5825        12.9429        35.6861       120.4842        98.3767         1.3317        65.4548         3.3932         3.0015      -999.2500      -999.2500      -999.2500         2.1951         3.1607       162.5088        13.1585         5.9831         0.0618         2.3279     
 3877.5000       102.3556        12.9429        37.5040       118.8439        93.7675         1.5091        62.4266         3.7700         3.1950      -999.2500      -999.2500      -999.2500         2.1544         3.2859       162.0764        10.8368         6.2593         0.0925         2.3359     
 3878.0000       102.9413        12.9429        37.9118       113.9400        86.8586         1.8665        62.7663         3.8890         3.7054      -999.2500      -999.2500      -999.2500         2.5323         3.7114       161.3181         8.2927         5.4316         0.0922         2.3518     
 3878.5000       101.1768        12.9429        35.5258       105.4945        82.2688         1.9984        61.6052         3.7498         4.5069      -999.2500      -999.2500      -999.2500         3.2980         4.4107       160.5831         6.4456         4.8789         0.0695         2.3726     
 3879.0000        96.4395        12.9429        30.9016        96.9475        76.2791         1.6122        52.2294         3.4919         5.3513      -999.2500      -999.2500      -999.2500         4.3702         5.1686       160.2150         5.2966         5.4144         0.0516         2.3870     
 3879.5000        90.3311        12.9429        25.8220        91.6744        71.4864         1.1691        42.5332         3.2647         5.8009      -999.2500      -999.2500      -999.2500         6.1414         5.6052       160.4980         5.1620         6.0279         0.0436         2.4020     
 3880.0000        85.7509        12.9429        23.2620        90.6434        73.1490         1.3074        46.8316         3.2501         5.5711      -999.2500      -999.2500      -999.2500         9.3361         5.4292       161.3660         5.3860         5.5109         0.0326         2.4201     
 3880.5000        84.2254        12.9429        22.1117        91.4755        77.1228         1.8996        58.7864         3.4579         4.8589      -999.2500      -999.2500      -999.2500         9.5388         4.7609       162.2606         5.2470         4.2446         0.0155         2.4215     
 3881.0000        85.7222        12.9429        21.0383        89.0748        76.5658         2.2645        63.0120         3.5673         4.1522      -999.2500      -999.2500      -999.2500         6.5294         4.0592       162.6188         4.7625         3.4096         0.0065         2.3942     
 3881.5000        89.4713        12.9429        23.2178        82.4734        73.3444         2.3693        63.4319         3.3786         3.6509      -999.2500      -999.2500      -999.2500         4.7537         3.5433       162.3869         5.6876         2.6190         0.0085         2.3477     
 3882.0000        93.3676        12.9429        24.9644        76.9261        71.5033         2.4140        66.1383         3.1355         3.3159      -999.2500      -999.2500      -999.2500         4.0058         3.1963       161.9778         8.0761         1.4312         0.0114         2.3035     
 3882.5000        95.1985        12.9429        25.0342        74.1252        69.7148         2.2934        65.6327         3.0512         3.0653      -999.2500      -999.2500      -999.2500         3.7681         2.9457       161.7028         8.8983         1.0614         0.0126         2.2765     
 3883.0000        94.6619        12.9429        24.6076        71.6323        66.9208         2.2263        60.9409         3.0434         2.8562      -999.2500      -999.2500      -999.2500         3.5531         2.7432       161.4509         6.8964         1.5831         0.0160         2.2646     
 3883.5000        93.2233        12.9429        24.4183        69.1371        65.4577         2.4258        58.9891         3.0490         2.7065      -999.2500      -999.2500      -999.2500         3.2356         2.5910       161.2198         4.6370         1.8494         0.0186         2.2560     
