~Version Information Section
VERS.          2.0                                     : CWLS LOG ASCII Standard
WRAP.          NO                                      : One line per depth step
CREA.          04/05/16                                : LAS Creation Date
~Well Information Section
STRT.ft        3300.000                                : Start Depth
STOP.ft        3900.0000                               : Stop Depth
STEP.ft        0.5000                                  : Step
NULL.          -999.2500                               : Null Value
COMP.          709                                     : Company
WELL.          13/22a-7                                : Well
FLD .          CAPTAIN                                 : Field
LOC .                                                  : Location
LOC1.                                                  : Location 1
CTRY.          UK                                      : Country
STAT.          INNER MORAY FIRTH                       : State
CNTY.          UKCS                                    : County
UWI .          10764                                   : UWI Number
API .                                                  : API Number
SECT.                                                  : Section
TOWN.                                                  : Township
RNGE.                                                  : Range
PDAT.          MSL                                     : Perm Datum
EPD .ft        82                                      : Elevation
LMF .          RKB                                     : Log Measured From
DMF .          RKB                                     : Drill Measured From
APD .ft        0                                       : Above Perm Datum
EKB .ft        82                                      : Elev-Kelly Bushing
EDF .ft        81                                      : Elev-Drill Floor
EGL .ft        -352                                    : Elev-Ground Level
SRVC.         SCHLUMBERGER                             : Service Company
DATE .        12/05/1990                               : Completion Date
LAT .         58 18 34.15 N                            : Latitude
LONG.         01 44 41.13 W                            : Longitude
TOOL.	      COMP WIRE                                : Tool
~Curve Information Section
DEPTH.ft                                                  : Depth Curve
CALI.in                                                : Caliper
CALS.in                                                : Sonic Caliper
CGR.gAPI                                               : Computed Gamma Ray From Thorium, Uranium, And Potassium
DRHO.g/cc                                              : Delta Rho
DTLF.us/ft                                             : Delta-T Long Spacing Far
DTLN.us/ft                                             : Delta-T Long Spacing Near
GR.gAPI                                                : Gamma Ray
LLD.Ohmm                                               : Latero-Log Deep (Resistivity)
LLS.Ohmm                                               : Latero-Log Shallow (Resistivity)
MSFL.Ohmm                                              : Msfl Resistivity
NPHI.%                                                 : Neutron Porosity
PEF.B/e                                                : Photo-Electric Factor
POTA.ppm                                               : Potassium
RHOB.g/cc                                              : Bulk Density
SGR.gAPI                                               : Spectroscopy Gamma-Ray
SP.mV                                                  : Spontaneous Potential
THOR.ppm                                               : Thorium
URAN.ppm                                               : Uranium
~ASCII Log Data Section
# ...
 3454.0000        12.1094        12.2578        16.5261        -0.0082       101.1989       101.0013        14.7266         1.7671         1.4865         2.1074        29.7589         3.2418         0.0068         2.1370        21.5430      -999.2500         2.0989         0.7244     
 3454.5000        12.1094        12.2578        16.1706        -0.0085       100.9010       100.8995        14.4844         1.7930         1.5369         2.1347        29.5527         3.1100         0.0064         2.1358        21.1676      -999.2500         2.1408         0.7215     
 3455.0000        12.1094        12.2578        15.4219        -0.0073       101.0007       100.6018        14.4844         1.8001         1.4627         2.1504        29.3876         3.0505         0.0060         2.1408        20.2069      -999.2500         2.1180         0.6909     
 3455.5000        12.1100        12.2578        15.4193        -0.0081       101.6000       101.3000        15.7891         1.7982         1.5640         2.2070        29.2692         3.0743         0.0059         2.1423        20.0813      -999.2500         2.1508         0.6731     
 3456.0000        12.1210        12.2578        15.8741        -0.0078       101.1000       101.0000        16.3750         1.8190         1.5278         2.2168        29.3057         3.1124         0.0059         2.1447        20.5099      -999.2500         2.2702         0.6693     
 3456.5000        12.1129        12.2578        14.8795        -0.0078       100.6000       100.7000        15.9688         1.8369         1.5495         2.1348        29.2499         3.1277         0.0054         2.1431        18.9625      -999.2500         2.1889         0.5895     
 3457.0000        12.1094        12.2578        14.8330        -0.0078       100.5000       100.6000        16.3906         1.8229         1.6364         2.1543        29.5281         3.1365         0.0054         2.1433        18.8112      -999.2500         2.1832         0.5744     
 3457.5000        12.1094        12.2578        15.6406        -0.0094       100.3014       100.4006        15.8047         1.8273         1.5475         2.2400        28.9981         3.0958         0.0059         2.1413        19.8358      -999.2500         2.2050         0.6057     
 3458.0000        12.1094        12.2578        15.2285        -0.0100       100.9996       100.6010        16.0938         1.8184         1.6187         2.1642        28.0431         3.0796         0.0060         2.1404        19.2447      -999.2500         2.0574         0.5799     
 3458.5000        12.1094        12.2578        15.8478        -0.0114       101.4986       101.3969        16.2813         1.8273         1.6250         2.2012        27.4791         3.0693         0.0065         2.1400        20.3181      -999.2500         2.0309         0.6454     
 3459.0000        12.1095        12.2578        15.6518        -0.0121       101.3995       100.9014        16.6563         1.8403         1.5365         2.2401        27.7185         3.0512         0.0067         2.1379        20.4851      -999.2500         1.8586         0.6979     
 3459.5000        12.1151        12.2578        15.7804        -0.0104       101.1000       100.9991        16.8281         1.8331         1.6305         2.2245        28.5161         3.0601         0.0069         2.1367        21.2644      -999.2500         1.8021         0.7918     
 3460.0000        12.1114        12.2578        15.5342        -0.0094       100.8000       100.7996        16.0938         1.8713         1.6168         2.1758        28.9629         3.1524         0.0071         2.1363        21.2165      -999.2500         1.6743         0.8204     
 3460.5000        12.1094        12.2578        15.6041        -0.0094       100.5029       100.5029        16.7969         1.8433         1.5496         2.1408        28.5776         3.1742         0.0075         2.1366        21.2857      -999.2500         1.4885         0.8203     
 3461.0000        12.1094        12.2578        14.8917        -0.0091       100.8019       100.7995        16.6094         1.8473         1.5374         2.1424        28.8822         3.2036         0.0078         2.1341        19.9609      -999.2500         1.1636         0.7319     
 3461.5000        12.1094        12.2578        14.4691        -0.0095       101.4956       101.0011        17.3594         1.8366         1.5265         2.0989        28.5940         3.1534         0.0079         2.1325        19.5253      -999.2500         0.9730         0.7300     
 3462.0000        12.1094        12.2578        13.3557        -0.0101       101.4000       101.3961        17.5469         1.8199         1.5020         2.2817        29.5196         3.1754         0.0073         2.1315        18.5777      -999.2500         0.9003         0.7540     
 3462.5000        12.1094        12.2578        12.0657        -0.0092       101.2981       101.1038        17.8594         1.8320         1.5246         2.2052        29.1108         3.1572         0.0066         2.1346        17.3157      -999.2500         0.7974         0.7580     
 3463.0000        12.1094        12.2578        12.8961        -0.0099       100.9051       101.3956        18.7813         1.8470         1.5990         2.1395        29.7250         3.0919         0.0070         2.1323        19.3423      -999.2500         0.9117         0.9307     
 3463.5000        12.1094        12.2578        14.1508        -0.0115       101.2936       101.0014        19.5469         1.8474         1.5883         2.2004        29.8394         3.0506         0.0075         2.1295        21.4977      -999.2500         1.0754         1.0608     
 3464.0000        12.1199        12.2578        15.1928        -0.0105       100.8020       100.7986        19.5313         1.8401         1.5262         2.1608        29.6518         2.9570         0.0078         2.1373        23.0435      -999.2500         1.2415         1.1335     
 3464.5000        12.1146        12.2578        13.9903        -0.0110       100.5052       100.4026        17.9688         1.8596         1.6343         2.2015        29.5195         2.9024         0.0075         2.1416        20.9720      -999.2500         1.0227         1.0080     
 3465.0000        12.1094        12.2578        13.4963        -0.0111       100.7971       100.3018        17.4844         1.8444         1.5462         2.2767        28.8665         2.8905         0.0076         2.1437        19.9106      -999.2500         0.8253         0.9261     
 3465.5000        12.1094        12.2578        13.6620        -0.0111       100.7981       100.3991        15.9531         1.8651         1.6099         2.2823        28.4878         2.9727         0.0076         2.1393        20.1675      -999.2500         0.8736         0.9393     
 3466.0000        12.1094        12.2578        13.8583        -0.0091       100.6058       100.4075        16.1719         1.8676         1.5345         2.1937        28.2744         3.0619         0.0073         2.1370        20.6408      -999.2500         1.0521         0.9793     
 3466.5000        12.1094        12.2578        13.8125        -0.0083       100.9929       101.1888        15.5859         1.8435         1.6101         2.1335        28.7747         3.1130         0.0070         2.1367        20.7752      -999.2500         1.1785         1.0053     
 3467.0000        12.1094        12.2578        13.1423        -0.0077       100.7084       100.9003        17.0469         1.8547         1.5224         2.1407        29.5922         3.0841         0.0067         2.1372        19.5697      -999.2500         1.0930         0.9280     
 3467.5000        12.1094        12.2578        13.3240        -0.0059       101.1956       100.6066        15.9141         1.8614         1.5918         2.1571        29.4333         3.0626         0.0069         2.1429        19.2586      -999.2500         1.0897         0.8569     
