~Version Information Section
VERS.          2.0                                     : CWLS LOG ASCII Standard
WRAP.          NO                                      : One line per depth step
CREA.          27/11/15                                : LAS Creation Date
~Well Information Section
STRT.ft        3749.0000                               : Start Depth
STOP.ft        4349.0000                               : Stop Depth
STEP.ft        0.5000                                  : Step
NULL.          -999.2500                               : Null Value
COMP.          TEXACO                                  : Company
WELL.          13/22a-6                                : Well
FLD .          CAPTAIN                                 : Field
LOC .          MORAY FIRTH                             : Location
LOC1.                                                  : Location (UTM)
CTRY.          UK                                      : Country
PROV.          UKCS                                    : Province
UWI .          10763                                   : UWI Number
API .                                                  : API Number
SECT.                                                  : Section
TOWN.                                                  : Township
RNGE.                                                  : Range
PDAT.          MSL                                     : Perm Datum
EPD .ft        0.00                                    : Elevation
LMF .          RKB                                     : Log Measured From
DMF .          RKB                                     : Drill Measured From
APD .ft        81.00                                   : Above Perm Datum
EKB .ft        81.00                                   : Elev-Kelly Bushing
EDF .ft        80.00                                   : Elev-Drill Floor
EGL .ft        -364.00                                 : Elev-Ground Level (Water Depth)
TDD .ft        4400.00                                 : Total Depth (Driller)
SRVC.          ATLAS WIRELINE                          : Service Company
LATI.          58 19 25.50 N                           : Latitude
LONG.          01 42 58.94 W                           : Longitude
DATE.          APR-MAY-1990                            : Logging Date
PROJ.          UKCS                                    : Project
SET .          COMP WIRE                               : Set
~Curve Information Section
DEPTH.ft                                               : Depth Curve
AC.us/ft                                               : Acoustic Travel Time
CAL.in                                                 : Caliper
CNC.%                                                  : Compensated Neutron Porosity
GR.gAPI                                                : DIFL Gamma Ray
GRS.gAPI                                               : SL Gamma Ray
K.                                                     : Potassium
KTH.gAPI                                               : Uranium Stripped Gamma Ray
PE.B/e                                                 : Photo-electric
RD.ohmm                                                : Deep Laterolog Resistivity
RFOC.ohmm                                              : Logarithmic Resistivity from CFOC
RILD.ohmm                                              : Deep Induction Resistivity
RILM.ohmm                                              : Medium Induction Resistivity
RMLL.ohmm                                              : Microlaterolog Resistivity
RS.ohmm                                                : Shallow Laterolog Resistivity
SP.mV                                                  : Spontaneous Potential
TH.ppm                                                 : Thorium
U.ppm                                                  : Uranium
ZCOR.g/cc                                              : ZDL Density Correction
ZDEN.g/cc                                              : ZDL Bulk Density
~ASCII Log Data Section
# ...
 4329.5000        75.3892        13.0379        19.3196       100.9456        98.1203         2.5635        73.9344         3.0760        14.2582      -999.2500      -999.2500      -999.2500        18.1232        13.4115      -999.2500         5.7558         5.8494         0.0063         2.5067     
 4330.0000        75.5731        13.0392        20.0556       106.7133       101.3806         3.1825        86.6144         3.1371      -999.2500      -999.2500      -999.2500      -999.2500        18.1012      -999.2500      -999.2500         8.2899         3.8356         0.0117         2.5065     
 4330.5000        75.7792        13.0392        21.4983       112.7915       100.6451         3.5713        92.1680         3.2480      -999.2500      -999.2500      -999.2500      -999.2500        17.6828      -999.2500      -999.2500         8.6964         2.3144         0.0164         2.5141     
 4331.0000        76.5144        13.0392        23.4156       114.4132        98.5023         3.5671        91.5923         3.4466      -999.2500      -999.2500      -999.2500      -999.2500        17.3467      -999.2500      -999.2500         7.3976         1.8822         0.0149         2.5299     
 4331.5000        77.6993        13.0392        24.5654       114.1989        99.4175         3.4446        90.8430         3.5990      -999.2500      -999.2500      -999.2500      -999.2500        17.4224      -999.2500      -999.2500         6.3614         2.2508         0.0075         2.5442     
 4332.0000        78.9392        13.0392        25.3079       115.2890       101.2710         3.4745        91.3302         3.6294      -999.2500      -999.2500      -999.2500      -999.2500        17.4450      -999.2500      -999.2500         6.4086         2.6236         0.0044         2.5502     
 4332.5000        79.8447        13.0392        26.2172       115.6593       101.0074         3.6269        90.9716         3.6588      -999.2500      -999.2500      -999.2500      -999.2500        16.8475      -999.2500      -999.2500         6.5745         2.7714         0.0098         2.5516     
 4333.0000        80.3652        13.0392        26.7818       113.1695        99.3672         3.7639        88.7516         3.6928      -999.2500      -999.2500      -999.2500      -999.2500        16.0988      -999.2500      -999.2500         5.8887         3.0947         0.0140         2.5528     
 4333.5000      -999.2500        13.0392        26.4546       111.3236        97.4747         3.8757        86.7781         3.7242      -999.2500      -999.2500      -999.2500      -999.2500        15.8065      -999.2500      -999.2500         4.5337         3.2333         0.0121         2.5518     
 4334.0000      -999.2500        13.0392        25.6009       112.0927        95.1520         3.8371        85.7501         3.7422      -999.2500      -999.2500      -999.2500      -999.2500        15.8605      -999.2500      -999.2500         3.8199         2.8311         0.0071         2.5487     
 4334.5000      -999.2500        13.0392        24.8176       111.9926        94.6324         3.5641        84.6346         3.7040      -999.2500      -999.2500      -999.2500      -999.2500        15.5426      -999.2500      -999.2500         4.2162         2.8433         0.0021         2.5469     
 4335.0000      -999.2500        13.0392        24.4076       111.0044        97.1848         3.2031        82.8414         3.6668      -999.2500      -999.2500      -999.2500      -999.2500        15.1629      -999.2500      -999.2500         4.8069         3.7719        -0.0030         2.5463     
 4335.5000      -999.2500        13.0392        24.6331       112.7411        99.7539         3.0137        81.3010         3.6678      -999.2500      -999.2500      -999.2500      -999.2500        15.3164      -999.2500      -999.2500         4.3246         4.6684        -0.0038         2.5464     
 4336.0000      -999.2500        13.0392        24.9126       115.3702        99.1356         3.2266        81.8141         3.7587      -999.2500      -999.2500      -999.2500      -999.2500        15.8002      -999.2500      -999.2500         2.8449         4.5572         0.0017         2.5484     
 4336.5000      -999.2500        13.0392        24.1424       115.9175        96.5811         3.7092        83.5586         3.8664      -999.2500      -999.2500      -999.2500      -999.2500        15.7154      -999.2500      -999.2500         1.7830         3.7733         0.0100         2.5511     
 4337.0000      -999.2500        13.0392        23.2088       114.0464        95.1951         4.0018        84.5502         3.8953      -999.2500      -999.2500      -999.2500      -999.2500        15.1573      -999.2500      -999.2500         1.8894         3.3196         0.0143         2.5506     
 4337.5000      -999.2500        13.0392        23.0970       109.6058        94.7773         3.9292        83.9183         3.9182      -999.2500      -999.2500      -999.2500      -999.2500        14.9232      -999.2500      -999.2500         2.5048         3.3713         0.0105         2.5472     
 4338.0000      -999.2500        13.0392        22.7298       103.8813        92.3110         3.7306        81.7798         3.9465      -999.2500      -999.2500      -999.2500      -999.2500        15.4370      -999.2500      -999.2500         2.7699         3.2014         0.0000         2.5434     
 4338.5000      -999.2500        13.0392        22.1532        99.4925        87.7676         3.4672        78.0867         3.9846      -999.2500      -999.2500      -999.2500      -999.2500        16.5164      -999.2500      -999.2500         2.7902         2.8704        -0.0100         2.5382     
 4339.0000      -999.2500        13.0392        21.7507        96.9791        84.8069         3.1291        74.1359         3.7719      -999.2500      -999.2500      -999.2500      -999.2500        17.6394      -999.2500      -999.2500         3.0896         3.0173        -0.0137         2.5318     
 4339.5000      -999.2500        13.0392        21.6411        96.7729        84.1669         2.8856        72.0428         3.4465      -999.2500      -999.2500      -999.2500      -999.2500        18.3672      -999.2500      -999.2500         3.6044         3.2938        -0.0096         2.5268     
 4340.0000      -999.2500        13.0392        21.8703        98.5789        83.7624         2.8909        72.1801         3.2704      -999.2500      -999.2500      -999.2500      -999.2500        18.1655      -999.2500      -999.2500         3.6146         3.1454        -0.0042         2.5232     
 4340.5000      -999.2500        13.0392        22.2934        99.6315        82.7751         2.9572        72.3136         3.3280      -999.2500      -999.2500      -999.2500      -999.2500        17.7748      -999.2500      -999.2500         3.1683         2.8848        -0.0026         2.5209     
 4341.0000      -999.2500        13.0392        22.3023        97.1725        82.4017         2.8321        71.8831         3.5686      -999.2500      -999.2500      -999.2500      -999.2500        17.9855      -999.2500      -999.2500         3.2082         2.7975        -0.0067         2.5209     
 4341.5000      -999.2500        13.0392        22.0163        94.4662        84.4891         2.7271        73.6174         3.6902      -999.2500      -999.2500      -999.2500      -999.2500        18.3923      -999.2500      -999.2500         3.6734         2.7444        -0.0134         2.5214     
 4342.0000      -999.2500        13.0392        22.3007        95.5034        89.0679         2.9960        77.7789         3.6496      -999.2500      -999.2500      -999.2500      -999.2500        18.3116      -999.2500      -999.2500         3.4522         2.9417        -0.0139         2.5223     
 4342.5000      -999.2500        13.0392        22.8883        98.6550        93.2627         3.3820        80.1542         3.6457      -999.2500      -999.2500      -999.2500      -999.2500        17.9290      -999.2500      -999.2500         2.7242         3.7074        -0.0030         2.5277     
