~Version Information Section
VERS.          2.0                                     : CWLS LOG ASCII Standard
WRAP.          NO                                      : One line per depth step
CREA.          04/05/16                                : LAS Creation Date
~Well Information Section
STRT.ft        3300.000                                : Start Depth
STOP.ft        3900.0000                               : Stop Depth
STEP.ft        0.5000                                  : Step
NULL.          -999.2500                               : Null Value
COMP.          709                                     : Company
WELL.          13/22a-7                                : Well
FLD .          CAPTAIN                                 : Field
LOC .                                                  : Location
LOC1.                                                  : Location 1
CTRY.          UK                                      : Country
STAT.          INNER MORAY FIRTH                       : State
CNTY.          UKCS                                    : County
UWI .          10764                                   : UWI Number
API .                                                  : API Number
SECT.                                                  : Section
TOWN.                                                  : Township
RNGE.                                                  : Range
PDAT.          MSL                                     : Perm Datum
EPD .ft        82                                      : Elevation
LMF .          RKB                                     : Log Measured From
DMF .          RKB                                     : Drill Measured From
APD .ft        0                                       : Above Perm Datum
EKB .ft        82                                      : Elev-Kelly Bushing
EDF .ft        81                                      : Elev-Drill Floor
EGL .ft        -352                                    : Elev-Ground Level
SRVC.         SCHLUMBERGER                             : Service Company
DATE .        12/05/1990                               : Completion Date
LAT .         58 18 34.15 N                            : Latitude
LONG.         01 44 41.13 W                            : Longitude
TOOL.	      COMP WIRE                                : Tool
~Curve Information Section
DEPTH.ft                                                  : Depth Curve
CALI.in                                                : Caliper
CALS.in                                                : Sonic Caliper
CGR.gAPI                                               : Computed Gamma Ray From Thorium, Uranium, And Potassium
DRHO.g/cc                                              : Delta Rho
DTLF.us/ft                                             : Delta-T Long Spacing Far
DTLN.us/ft                                             : Delta-T Long Spacing Near
GR.gAPI                                                : Gamma Ray
LLD.Ohmm                                               : Latero-Log Deep (Resistivity)
LLS.Ohmm                                               : Latero-Log Shallow (Resistivity)
MSFL.Ohmm                                              : Msfl Resistivity
NPHI.%                                                 : Neutron Porosity
PEF.B/e                                                : Photo-Electric Factor
POTA.ppm                                               : Potassium
RHOB.g/cc                                              : Bulk Density
SGR.gAPI                                               : Spectroscopy Gamma-Ray
SP.mV                                                  : Spontaneous Potential
THOR.ppm                                               : Thorium
URAN.ppm                                               : Uranium
~ASCII Log Data Section
# ...
 3650.0000        12.4063        12.5625        69.0099        -0.0031       103.4087       103.6483        82.4375         4.3927         4.1311         4.6502        32.0180         3.1352         0.0255         2.1859        92.0685      -999.2500         9.9847         3.3293     
 3650.5000        12.4063        12.5625        67.1139        -0.0040       103.5033       103.8428        77.1875         4.3007         3.9747         4.5471        31.6510         3.2352         0.0249         2.1925        89.9043      -999.2500         9.6885         3.2906     
 3651.0000        12.4063        12.5625        62.2481        -0.0028       102.9669       103.0273        75.2500         4.2260         3.9422         4.1938        29.3519         3.3204         0.0229         2.2146        83.0713      -999.2500         9.0395         3.0065     
 3651.5000        12.4191        12.5625        61.1722        -0.0027       101.2221       101.3342        72.6250         4.3223         4.0930         4.2762        27.3193         3.3020         0.0224         2.2517        81.1875      -999.2500         8.9330         2.8899     
 3652.0000        12.4504        12.5631        60.8891        -0.0027        97.7448        98.0448        72.6875         4.8868         4.4449         4.3381        24.0476         3.2252         0.0224         2.2833        80.7404      -999.2500         8.8720         2.8662     
 3652.5000        12.4623        12.5853        63.5632        -0.0036        95.2512        95.7028        70.0000         5.5361         4.9631         6.4378        24.5196         3.0563         0.0232         2.2835        84.1815      -999.2500         9.3260         2.9770     
 3653.0000        12.4661        12.5861        65.6959        -0.0062        95.2574        95.4848        70.0625         5.9095         5.3958         8.9838        26.5082         2.9297         0.0239         2.2571        87.5443      -999.2500         9.6802         3.1546     
 3653.5000        12.4941        12.5936        67.3370        -0.0085        96.8427        96.4035        75.8750         6.0403         5.5808         7.3562        29.1592         2.8486         0.0242         2.2343        90.2427      -999.2500        10.0316         3.3072     
 3654.0000        12.5013        12.5938        68.1450        -0.0069       100.1003        99.2639        82.1875         5.6537         5.2197         5.8844        30.9149         2.7850         0.0242         2.2321        92.8939      -999.2500        10.2690         3.5733     
 3654.5000        12.4987        12.5938        70.7800        -0.0018       103.1255       101.9809        89.9375         5.1987         4.8556         6.0437        31.8675         2.8072         0.0243         2.2350        98.7165      -999.2500        11.0640         4.0336     
 3655.0000        12.4947        12.5938        70.6915         0.0011       103.4676       103.4096        94.1875         5.1100         4.7113         6.2963        32.0035         2.8997         0.0241         2.2318        99.2959      -999.2500        11.0908         4.1300     
 3655.5000        12.4602        12.5938        71.7176         0.0013       105.0972       105.2633        97.4375         4.9895         4.6089         6.0799        32.8943         2.9889         0.0252         2.2251       111.0959      -999.2500        10.9550         5.6856     
 3656.0000        12.4244        12.5938        74.0826         0.0026       107.1978       106.7926       100.3750         4.7686         4.4079         6.0505        33.4594         2.9909         0.0265         2.2229       120.6617      -999.2500        11.0823         6.7253     
 3656.5000        12.4063        12.5938        71.7276         0.0031       107.1556       107.1947       102.0625         4.7731         4.4361         4.9569        35.2786         2.8669         0.0256         2.2261       117.7262      -999.2500        10.7754         6.6415     
 3657.0000        12.4063        12.5931        69.8338         0.0003       107.8618       108.1374       105.9375         4.7579         4.4735         5.1866        34.1832         2.8383         0.0247         2.2324       115.6183      -999.2500        10.5802         6.6106     
 3657.5000        12.4063        12.5632        59.7671        -0.0029       105.8931       106.2906       105.2500         4.9150         4.6362         5.7060        32.7868         2.8359         0.0201         2.2495       103.5980      -999.2500         9.4962         6.3285     
 3658.0000        12.4063        12.5625        58.1061        -0.0055       102.5195       103.3631       101.5000         5.3800         5.0283         5.8664        29.8600         2.9097         0.0195         2.2670       101.1606      -999.2500         9.2773         6.2164     
 3658.5000        12.4063        12.5625        57.1885        -0.0072       100.6435       100.6880        92.1250         5.8145         5.4605         6.4929        28.2429         2.9549         0.0191         2.2781        99.4973      -999.2500         9.1649         6.1087     
 3659.0000        12.4063        12.5625        57.4709        -0.0089        98.0268        98.3922        85.7500         6.1899         5.8153         7.2007        29.3435         2.9286         0.0192         2.2708        99.5885      -999.2500         9.1821         6.0811     
 3659.5000        12.4063        12.5625        58.4986        -0.0112        98.3510        98.5244        80.6875         6.3618         5.9758         8.0951        30.5257         2.9233         0.0196         2.2545       101.0270      -999.2500         9.3386         6.1404     
 3660.0000        12.4063        12.5625        60.8786        -0.0107        99.0460        99.2605        86.4375         6.4421         6.0976         7.8566        32.3365         2.9237         0.0203         2.2419       104.6214      -999.2500         9.7804         6.3158     
 3660.5000        12.4063        12.5625        62.0960        -0.0085       100.6245       100.5469        92.7500         6.5950         6.2619         7.2568        32.9130         2.9419         0.0206         2.2342       106.6534      -999.2500         9.9904         6.4334     
 3661.0000        12.4063        12.5625        59.9413        -0.0074       102.2672       102.5427       100.5625         6.6207         6.2406         8.8089        33.0897         2.9626         0.0194         2.2294       103.5223      -999.2500         9.8573         6.2924     
 3661.5000        12.4063        12.5624        67.9321        -0.0086       102.6597       103.1985       106.4375         6.4685         6.0944         9.4219        33.7726         2.9639         0.0205         2.2255       114.3502      -999.2500        11.8158         6.7020     
 3662.0000        12.4063        12.5548        66.3274        -0.0069       103.6649       104.0527       108.6875         6.2229         5.8876         8.3869        32.2573         3.0075         0.0197         2.2321       112.0042      -999.2500        11.6888         6.5950     
 3662.5000        12.4063        12.5543        64.8463        -0.0049       103.8033       103.9157       106.1250         5.9697         5.7137         6.2586        31.4729         2.9936         0.0192         2.2428       109.7970      -999.2500        11.4274         6.4902     
 3663.0000        12.4063        12.5316        61.1218        -0.0050       102.6860       102.6105        99.3125         5.8271         5.5899         6.5741        30.5557         2.9974         0.0182         2.2412       104.2083      -999.2500        10.7296         6.2210     
 3663.5000        12.4063        12.5313        54.3709        -0.0056       102.0600       101.9723        94.0000         6.0208         5.7357         7.5396        31.5709         3.0848         0.0184         2.2229        94.2415      -999.2500         8.5897         5.7567     
