~Version Information Section
VERS.          2.0                                     : CWLS LOG ASCII Standard
WRAP.          NO                                      : One line per depth step
CREA.          27/11/15                                : LAS Creation Date
~Well Information Section
STRT.ft        2800.0000                               : Start Depth
STOP.ft        3400.0000                               : Stop Depth
STEP.ft        0.5000                                  : Step
NULL.          -999.2500                               : Null Value
COMP.          TEXACO                                  : Company
WELL.          13/22a-9A                               : Well
FLD .          CAPTAIN                                 : Field
LOC .          MORAY FIRTH                             : Location
LOC1.                                                  : Location (UTM)
CTRY.          UK                                      : Country
PROV.          UKCS                                    : Province
UWI .          17698                                   : UWI Number
API .                                                  : API Number
SECT.                                                  : Section
TOWN.                                                  : Township
RNGE.                                                  : Range
PDAT.          MSL                                     : Perm Datum
EPD .ft        0.00                                    : Elevation
LMF .          DF                                      : Log Measured From
DMF .          DF                                      : Drill Measured From
APD .ft        80.00                                   : Above Perm Datum
EKB .ft        -                                       : Elev-Kelly Bushing
EDF .ft        80.00                                   : Elev-Drill Floor
EGL .ft        -362.00                                 : Elev-Ground Level (Water Depth)
TDD .ft        3651.00                                 : Total Depth (Driller)
SRVC.          SCHLUMBERGER                            : Service Company
LATI.          58 18 30.945 N                          : Latitude
LONG.          01 42 58.729 W                          : Longitude
DATE.          FEB-MAR-1993                            : Logging Date
PROJ.          UKCS                                    : Project
SET .          COMP WIRE                               : Set
~Curve Information Section
DEPTH.ft                                               : Depth Curve
CALI.in                                                : Caliper
CGR.gAPI                                               : Computed Gamma Ray
DRHO.g/c3                                              : Density Correction
DTLF.us/ft                                             : Delta-T Long Spacing Far
DTLN.us/ft                                             : Delta-T Long Spacing Near
GR.gAPI                                                : Gamma Ray
LLD.ohmm                                               : Laterolog Deep Resistivity
LLS.ohmm                                               : Laterolog Shallow Resistivity
MSFL.ohmm                                              : Microspherically Focused log Resistivity
NPHI.%                                                 : Neutron Porosity
PEF.B/e                                                : Photo-Electric Factor
POTA.                                                  : Potassium
RHOB.g/c3                                              : Bulk Density
SGR.gAPI                                               : Spectroscopy Gamma-Ray
SP.mV                                                  : Spontaneous Potential
THOR.ppm                                               : Thorium
URAN.ppm                                               : Uranium
~ASCII Log Data Section
# ...
 3385.0000        12.4425        76.3134         0.0076        98.1549        97.7353        71.9073         6.2449         5.1874         6.8809        28.3198         5.9486         0.0358         2.4337        93.6221        -4.0582         8.3447         2.5616     
 3385.5000        12.1609        65.8304         0.0053       101.2115       100.6077        65.6406         5.7104         4.7795         5.7529        28.7475         5.7202         0.0336         2.3898        82.3889        -3.7039         5.9874         2.4505     
 3386.0000        11.9674        54.7493         0.0086       101.2102       103.6021        57.9482         5.0381         4.2966         4.6482        29.6252         5.2663         0.0305         2.3500        68.9158        -2.9321         3.9058         2.0966     
 3386.5000        11.9453        49.7203         0.0073       101.6923       105.3000        49.8858         4.3201         3.7736         3.5008        28.9552         5.0190         0.0281         2.3042        62.0251        -2.1775         3.3558         1.8210     
 3387.0000        11.9453        44.4871         0.0021       105.4967       105.7157        42.6986         3.7122         3.3062         2.7266        29.0470         5.1503         0.0250         2.2578        55.0466        -1.3593         3.0489         1.5627     
 3387.5000        11.9500        39.3331         0.0022       107.3808       107.9192        40.4171         3.3100         2.9377         2.6340        29.1404         5.3577         0.0213         2.2235        47.6542        -1.1013         3.0669         1.2315     
 3388.0000        11.9485        37.1864         0.0025       108.9674       111.1898        41.6843         3.0969         2.7293         2.4975        30.4581         5.3759         0.0196         2.2030        44.4294        -0.8979         3.1203         1.0719     
 3388.5000        11.9453        37.1658         0.0022       110.2192       111.8154        43.3127         3.0368         2.6549         2.6706        30.0563         5.2141         0.0196         2.2003        44.2994        -0.7482         3.1303         1.0557     
 3389.0000        11.9453        38.1708         0.0014       108.7397       110.3125        43.5630         3.0442         2.6888         2.7001        29.3793         5.0506         0.0198         2.2030        45.7298        -0.8557         3.3475         1.1187     
 3389.5000        11.9453        38.9817        -0.0003       105.7758       107.6412        43.6158         3.0727         2.7219         2.7961        29.7318         4.9202         0.0200         2.2014        46.9259        -0.8647         3.5265         1.1757     
 3390.0000        11.9453        40.5391        -0.0005       101.9308       102.6231        46.4603         3.2175         2.8625         2.7091        30.4489         5.0494         0.0206         2.2119        49.1374        -1.0281         3.7507         1.2725     
 3390.5000        11.9779        50.1989         0.0025        99.9614        98.8039        52.9217         3.6480         3.2186         3.5766        29.4644         5.5709         0.0250         2.2649        59.6047        -1.2532         4.8536         1.3920     
 3391.0000        12.0978        60.5129         0.0065        99.7000        99.5875        60.8610         4.1203         3.5400         6.1319        27.3573         5.9730         0.0298         2.3513        70.6412        -1.8776         5.9791         1.4989     
 3391.5000        12.2107        68.4589         0.0083       100.7392       100.3190        64.8223         4.3835         3.6689         6.3563        27.3310         5.7720         0.0346         2.4103        80.0238        -2.1963         6.4115         1.7115     
 3392.0000        12.1164        67.8113         0.0038       102.4577        99.5654        62.9111         4.4970         3.7578         3.7636        29.5505         5.4266         0.0348         2.3889        78.6234        -2.2610         6.1214         1.6001     
 3392.5000        11.9800        54.8659        -0.0060       101.4102        99.7082        55.7945         4.3517         3.7007         3.1465        30.6286         5.0758         0.0272         2.3209        63.1995        -2.1913         5.3692         1.2333     
 3393.0000        11.9453        48.4023        -0.0121       100.1615        99.6846        49.9856         4.0985         3.5365         3.3828        29.6897         4.9569         0.0233         2.2802        55.9293        -2.0238         5.0279         1.1139     
 3393.5000        11.9453        48.7866        -0.0109        99.7614        98.4151        48.3715         4.1230         3.5254         3.6099        27.3576         4.9343         0.0237         2.2752        56.3290        -2.0367         4.9843         1.1162     
 3394.0000        11.9453        49.7280        -0.0082        98.9115        97.6385        49.8870         4.4307         3.7585         4.0638        26.5968         5.0262         0.0243         2.2852        57.5412        -1.8727         5.0193         1.1563     
 3394.5000        11.9453        49.9804        -0.0064        98.4923        98.3154        52.6779         4.7794         4.0184         4.5705        25.9574         5.1885         0.0246         2.2909        57.6729        -1.6745         4.9628         1.1384     
 3395.0000        11.9500        53.7913        -0.0024       100.2500        99.8615        54.7771         4.8392         4.1011         4.2731        26.3645         5.2501         0.0259         2.3062        62.2724        -1.6403         5.5973         1.2551     
 3395.5000        12.0090        59.6335         0.0012       100.9963       102.2677        55.7058         4.3514         3.7593         4.5230        25.9754         4.9741         0.0279         2.3131        71.3404        -1.2821         6.5224         1.7325     
 3396.0000        11.9863        53.9717        -0.0007       101.8738       103.5804        52.0552         3.6985         3.2371         2.6318        26.9688         4.7248         0.0270         2.2856        64.1048        -0.5795         5.1548         1.4996     
 3396.5000        11.9453        46.4044        -0.0056       103.9692       102.9115        46.1611         3.2064         2.8090         2.4151        29.5022         4.5993         0.0247         2.2364        53.0173        -0.3727         3.7733         0.9787     
 3397.0000        11.9453        40.9220        -0.0100       104.3425       103.6039        40.5858         2.8859         2.5093         2.4660        32.0203         4.6973         0.0215         2.1942        46.5050        -0.2220         3.4668         0.8262     
 3397.5000        11.9453        38.7999        -0.0123       104.4544       103.6963        38.1174         2.8438         2.4838         2.4636        32.6607         4.8074         0.0201         2.1816        44.5248        -0.2135         3.4083         0.8472     
 3398.0000        11.9453        37.7397        -0.0112       103.4190       103.0497        38.6609         3.0788         2.6647         2.4809        30.7716         4.9296         0.0197         2.1920        42.6393        -0.1659         3.2322         0.7251     
 3398.5000        11.9453        41.2636        -0.0042       102.7692       102.3385        45.2644         3.5717         3.0625         2.9082        29.1789         5.3357         0.0207         2.2376        48.4236        -0.3780         3.9394         1.0596     
 3399.0000        11.9919        53.8102         0.0070       102.0326       101.6285        57.0155         4.2336         3.5576         4.3373        25.9412         5.3577         0.0267         2.3159        66.7645        -0.6700         5.2535         1.9171     
 3399.5000        12.1166        64.5727         0.0200       100.6769       100.2846        68.6274         4.6839         3.8765         4.6744        25.5310         5.2261         0.0325         2.3618        82.0298        -0.9043         6.1004         2.5835     
