~Version Information Section
VERS.          2.0                                     : CWLS LOG ASCII Standard
WRAP.          NO                                      : One line per depth step
CREA.          27/11/15                                : LAS Creation Date
~Well Information Section
STRT.ft        2800.0000                               : Start Depth
STOP.ft        3400.0000                               : Stop Depth
STEP.ft        0.5000                                  : Step
NULL.          -999.2500                               : Null Value
COMP.          TEXACO                                  : Company
WELL.          13/22a-9A                               : Well
FLD .          CAPTAIN                                 : Field
LOC .          MORAY FIRTH                             : Location
LOC1.                                                  : Location (UTM)
CTRY.          UK                                      : Country
PROV.          UKCS                                    : Province
UWI .          17698                                   : UWI Number
API .                                                  : API Number
SECT.                                                  : Section
TOWN.                                                  : Township
RNGE.                                                  : Range
PDAT.          MSL                                     : Perm Datum
EPD .ft        0.00                                    : Elevation
LMF .          DF                                      : Log Measured From
DMF .          DF                                      : Drill Measured From
APD .ft        80.00                                   : Above Perm Datum
EKB .ft        -                                       : Elev-Kelly Bushing
EDF .ft        80.00                                   : Elev-Drill Floor
EGL .ft        -362.00                                 : Elev-Ground Level (Water Depth)
TDD .ft        3651.00                                 : Total Depth (Driller)
SRVC.          SCHLUMBERGER                            : Service Company
LATI.          58 18 30.945 N                          : Latitude
LONG.          01 42 58.729 W                          : Longitude
DATE.          FEB-MAR-1993                            : Logging Date
PROJ.          UKCS                                    : Project
SET .          COMP WIRE                               : Set
~Curve Information Section
DEPTH.ft                                               : Depth Curve
CALI.in                                                : Caliper
CGR.gAPI                                               : Computed Gamma Ray
DRHO.g/c3                                              : Density Correction
DTLF.us/ft                                             : Delta-T Long Spacing Far
DTLN.us/ft                                             : Delta-T Long Spacing Near
GR.gAPI                                                : Gamma Ray
LLD.ohmm                                               : Laterolog Deep Resistivity
LLS.ohmm                                               : Laterolog Shallow Resistivity
MSFL.ohmm                                              : Microspherically Focused log Resistivity
NPHI.%                                                 : Neutron Porosity
PEF.B/e                                                : Photo-Electric Factor
POTA.                                                  : Potassium
RHOB.g/c3                                              : Bulk Density
SGR.gAPI                                               : Spectroscopy Gamma-Ray
SP.mV                                                  : Spontaneous Potential
THOR.ppm                                               : Thorium
URAN.ppm                                               : Uranium
~ASCII Log Data Section
# ...
 3235.0000        12.2266        81.4227        -0.0015       117.3304       117.8768        90.8146         3.6926         3.7847         3.9491        36.1047         4.4397         0.0295         2.1561       106.3118        -6.8646        12.6804         3.6834     
 3235.5000        12.2266        81.1122        -0.0045       118.9686       118.8844        92.6702         3.5123         3.6163         3.8987        37.2534         4.4437         0.0289         2.1283       104.0985        -6.9117        12.8211         3.4018     
 3236.0000        12.2266        82.2253        -0.0044       118.8574       119.4188        93.4393         3.4696         3.5442         3.8559        37.0644         4.4190         0.0292         2.1208       105.0371        -6.9379        13.0481         3.3760     
 3236.5000        12.1893        81.6500        -0.0031       118.0881       119.2198        90.9188         3.5321         3.5936         3.9820        36.6211         4.3846         0.0290         2.1255       103.9531        -7.0324        12.9440         3.3007     
 3237.0000        12.1175        80.9257        -0.0036       117.7773       119.6802        88.2624         3.5576         3.6046         4.0085        34.7940         4.4151         0.0289         2.1270       102.8700        -7.0629        12.7705         3.2476     
 3237.5000        12.0859        82.1800        -0.0047       118.0228       119.1505        90.8677         3.5277         3.5748         3.9039        33.8364         4.4208         0.0294         2.1220       104.4534        -7.2050        12.9366         3.2963     
 3238.0000        12.0859        83.2749        -0.0051       118.8516       120.0347        96.8993         3.5470         3.5857         3.7839        34.2104         4.3116         0.0298         2.1200       105.5818        -7.4514        13.0976         3.3013     
 3238.5000        12.0859        89.1811        -0.0059       120.5346       119.9615       102.7241         3.6416         3.6560         3.9345        35.2670         4.0587         0.0318         2.1285       111.6365        -7.7696        14.0898         3.3233     
 3239.0000        12.1371        93.7884        -0.0067       118.9346       119.4578       106.4038         3.8136         3.7950         4.9701        36.1764         3.9905         0.0334         2.1431       116.9782        -7.6702        14.8542         3.4319     
 3239.5000        12.2045        97.7260        -0.0069       118.5846       118.3769       109.4975         3.9784         3.9770         5.5852        37.3693         4.0933         0.0348         2.1559       121.9782        -7.3076        15.4773         3.5892     
 3240.0000        12.2266       102.8993        -0.0068       116.9001       116.6462       115.4614         4.0696         4.1147         5.1516        38.1975         4.2713         0.0366         2.1670       128.7761        -7.0543        16.3091         3.8296     
 3240.5000        12.2266       105.3054        -0.0053       115.3038       115.0118       122.2782         4.1246         4.1691         4.8353        37.4090         4.3494         0.0373         2.1853       132.0171        -7.3214        16.7619         3.9531     
 3241.0000        12.2266       107.6875        -0.0017       115.2231       113.6928       125.9577         4.1486         4.2282         4.9834        36.7003         4.4024         0.0374         2.2065       136.2440        -7.2435        17.4572         4.2262     
 3241.5000        12.2266       108.9880         0.0026       114.3886       113.5768       126.8924         4.2012         4.2657         5.4961        36.9099         4.5600         0.0373         2.2223       138.8185        -7.4771        17.9023         4.4147     
 3242.0000        12.3989       108.5159         0.0038       113.6964       114.1691       122.3351         4.2601         4.3014         5.3750        38.1379         4.6802         0.0369         2.2267       138.2696        -8.0068        17.9284         4.4034     
 3242.5000        12.4457       105.7638         0.0024       113.6733       114.5079       115.0927         4.2066         4.2602         4.6849        39.9154         4.6110         0.0356         2.2250       134.8249        -7.8250        17.6123         4.3009     
 3243.0000        12.2121       102.8142         0.0014       113.9307       114.7267       108.0971         4.0367         4.1096         6.3792        38.4359         4.4876         0.0343         2.2295       130.3623        -7.5061        17.2599         4.0769     
 3243.5000        12.0859        99.1368        -0.0005       113.5228       113.9148       104.7995         3.8647         3.9160         5.6785        36.9473         4.3660         0.0329         2.2355       124.4184        -7.6325        16.7218         3.7415     
 3244.0000        12.0859        95.5018        -0.0038       113.2773       113.4505       101.8904         3.8430         3.8789         5.0386        34.9103         4.2481         0.0317         2.2322       119.0293        -8.2057        16.1202         3.4819     
 3244.5000        12.0953        92.0320        -0.0043       114.5269       115.0269        99.9303         4.0260         4.0882         4.6250        36.3684         4.0020         0.0306         2.2177       113.9550        -8.0228        15.5023         3.2445     
 3245.0000        12.1016        90.8668        -0.0029       116.9384       117.5423       102.6594         4.2433         4.3066         6.2679        37.1117         3.8077         0.0303         2.1992       112.1359        -7.7097        15.2565         3.1477     
 3245.5000        12.1155        94.2557        -0.0020       119.5576       120.3923       109.7018         4.4393         4.4686         7.9893        37.1292         3.7371         0.0311         2.1812       118.1853        -8.2786        15.9886         3.5414     
 3246.0000        12.1390        97.2256        -0.0005       120.9384       122.4961       117.0047         4.5926         4.5975         6.9533        38.1270         3.8085         0.0320         2.1612       123.7211        -8.7401        16.5348         3.9212     
 3246.5000        12.1345       100.3576         0.0001       121.4077       123.4808       121.0408         4.5040         4.5425         5.5469        37.0576         3.9308         0.0332         2.1483       129.5399        -9.1403        16.9585         4.3188     
 3247.0000        12.1203       102.1289        -0.0018       121.1080       121.8080       123.6685         4.3279         4.3911         5.3302        39.5846         3.9258         0.0338         2.1533       132.9054        -9.2353        17.2693         4.5547     
 3247.5000        12.1079       101.6041        -0.0026       118.8317       119.0127       119.2062         4.2634         4.3238         6.3039        39.9735         3.8927         0.0334         2.1779       132.1136        -9.4031        17.2687         4.5152     
 3248.0000        12.1481        97.2440        -0.0038       116.5848       115.7848       108.4730         4.3090         4.3615         6.3360        41.4045         3.9070         0.0315         2.2057       125.4087        -9.3903        16.7521         4.1682     
 3248.5000        12.1238        89.0984        -0.0052       114.6234       114.1350        98.2266         4.4277         4.5059         7.7332        36.0535         4.0218         0.0287         2.2202       113.5062        -9.5542        15.4132         3.6122     
 3249.0000        12.0859        85.7368        -0.0054       113.1971       112.9158        94.2290         4.4072         4.4863         9.6400        32.0234         4.0268         0.0278         2.2140       108.9383        -9.8477        14.7520         3.4337     
 3249.5000        12.1046        87.6436        -0.0073       115.4971       114.8436        97.9791         4.4169         4.4605         6.3660        29.5028         3.9158         0.0286         2.1891       111.5933       -10.2185        15.0082         3.5444     
