~Version Information Section
VERS.          2.0                                     : CWLS LOG ASCII Standard
WRAP.          NO                                      : One line per depth step
CREA.          27/11/15                                : LAS Creation Date
~Well Information Section
STRT.ft        2800.0000                               : Start Depth
STOP.ft        3400.0000                               : Stop Depth
STEP.ft        0.5000                                  : Step
NULL.          -999.2500                               : Null Value
COMP.          TEXACO                                  : Company
WELL.          13/22a-9A                               : Well
FLD .          CAPTAIN                                 : Field
LOC .          MORAY FIRTH                             : Location
LOC1.                                                  : Location (UTM)
CTRY.          UK                                      : Country
PROV.          UKCS                                    : Province
UWI .          17698                                   : UWI Number
API .                                                  : API Number
SECT.                                                  : Section
TOWN.                                                  : Township
RNGE.                                                  : Range
PDAT.          MSL                                     : Perm Datum
EPD .ft        0.00                                    : Elevation
LMF .          DF                                      : Log Measured From
DMF .          DF                                      : Drill Measured From
APD .ft        80.00                                   : Above Perm Datum
EKB .ft        -                                       : Elev-Kelly Bushing
EDF .ft        80.00                                   : Elev-Drill Floor
EGL .ft        -362.00                                 : Elev-Ground Level (Water Depth)
TDD .ft        3651.00                                 : Total Depth (Driller)
SRVC.          SCHLUMBERGER                            : Service Company
LATI.          58 18 30.945 N                          : Latitude
LONG.          01 42 58.729 W                          : Longitude
DATE.          FEB-MAR-1993                            : Logging Date
PROJ.          UKCS                                    : Project
SET .          COMP WIRE                               : Set
~Curve Information Section
DEPTH.ft                                               : Depth Curve
CALI.in                                                : Caliper
CGR.gAPI                                               : Computed Gamma Ray
DRHO.g/c3                                              : Density Correction
DTLF.us/ft                                             : Delta-T Long Spacing Far
DTLN.us/ft                                             : Delta-T Long Spacing Near
GR.gAPI                                                : Gamma Ray
LLD.ohmm                                               : Laterolog Deep Resistivity
LLS.ohmm                                               : Laterolog Shallow Resistivity
MSFL.ohmm                                              : Microspherically Focused log Resistivity
NPHI.%                                                 : Neutron Porosity
PEF.B/e                                                : Photo-Electric Factor
POTA.                                                  : Potassium
RHOB.g/c3                                              : Bulk Density
SGR.gAPI                                               : Spectroscopy Gamma-Ray
SP.mV                                                  : Spontaneous Potential
THOR.ppm                                               : Thorium
URAN.ppm                                               : Uranium
~ASCII Log Data Section
# ...
 2950.0000        12.5156        37.4249        -0.0022       117.4801       118.3841        36.1670         5.9564         4.8797         3.7113        35.7681         4.0195         0.0175         2.1233        44.4253        -6.6055         4.0925         1.0360     
 2950.5000        12.5156        37.1328        -0.0026       117.0545       119.4714        34.1250         6.2423         5.0410         3.6803        34.1291         4.0331         0.0174         2.1302        44.3005        -6.3981         4.0555         1.0608     
 2951.0000        12.4318        36.6190        -0.0024       117.8577       121.0961        34.9796         6.4817         5.1811         3.6363        33.9222         4.0604         0.0172         2.1263        43.7803        -5.8678         3.9668         1.0598     
 2951.5000        12.3703        36.7687        -0.0051       118.0228       117.3616        36.6478         6.6778         5.3249         3.5504        34.5555         3.9709         0.0173         2.1134        44.3211        -5.4848         4.0096         1.1177     
 2952.0000        12.3672        37.3672        -0.0062       118.5423       117.6538        36.9447         6.7424         5.4067         3.4938        33.7360         3.9176         0.0172         2.1066        45.3108        -5.3209         4.2061         1.1756     
 2952.5000        12.3672        37.1205        -0.0044       117.3346       118.7692        36.9447         6.6673         5.4190         3.6323        33.2229         3.9689         0.0168         2.1096        44.9149        -5.3390         4.3300         1.1535     
 2953.0000        12.3672        36.2888        -0.0023       117.1578       118.5194        36.6176         6.5355         5.3761         3.6759        32.6287         4.1077         0.0160         2.1126        43.7106        -5.9296         4.3844         1.0984     
 2953.5000        12.4231        36.1770         0.0011       116.2158       117.4543        37.8961         6.3365         5.2667         3.6302        32.3678         4.1837         0.0156         2.1177        43.3760        -6.1746         4.5261         1.0654     
 2954.0000        12.5075        35.7339         0.0061       114.1236       114.7240        39.5839         6.0792         5.0829         3.6442        30.6256         4.9725         0.0150         2.1009        42.6207        -6.0238         4.6715         1.0192     
 2954.5000        12.6788        38.0031         0.0041       113.7354       113.3629        41.2928         5.4147         4.5031         4.0350        30.9459         6.9346         0.0151         2.0075        46.0007        -6.4169         5.3336         1.1836     
 2955.0000        13.0390        39.0390        -0.0076       120.1422       120.7961        41.7993         4.1214         3.4500         3.0850        33.2523        10.2251         0.0150         1.8150        47.7961        -7.0762         5.7074         1.2960     
 2955.5000        14.3229        39.4382        -0.0157       126.7363       127.0827        40.1399         3.2672         2.7779         0.6358        39.8695        13.2892         0.0148         1.6409        48.7235        -7.6583         5.9088         1.3742     
 2956.0000        16.2210        39.7674        -0.0145       129.1505       130.1852        39.9635         2.8451         2.4810         0.7207        43.8763        12.9242         0.0146         1.5922        49.3076        -7.9932         6.0870         1.4119     
 2956.5000        16.8696        39.1151        -0.0090       126.0493       128.1543        41.9323         2.5710         2.2723         1.0281        47.8095        11.5903         0.0142         1.6460        48.4413        -7.8257         6.0567         1.3802     
 2957.0000        17.1818        39.0053         0.0003       116.7286       119.3770        43.4353         2.6101         2.2590         1.1467        47.2271        12.0402         0.0141         1.7400        48.2297        -8.1453         6.0996         1.3652     
 2957.5000        17.2109        39.6673         0.0060       113.7192       113.8885        44.0493         2.8492         2.4358         1.2416        45.2135        13.4483         0.0142         1.7413        49.2721        -8.5891         6.2524         1.4215     
 2958.0000        17.1866        39.4202         0.0063       115.2536       115.4844        44.5240         2.9462         2.5388         1.2320        44.7798        13.2009         0.0139         1.6900        48.9323        -8.7781         6.2847         1.4077     
 2958.5000        17.3650        38.4191         0.0058       117.6846       117.2307        45.3041         2.9722         2.5534         1.4973        43.2271        10.8068         0.0133         1.6758        47.4865        -8.9554         6.2530         1.3419     
 2959.0000        17.5150        37.3617         0.0052       119.8846       119.2846        45.8089         3.0125         2.6088         1.4366        46.1394         9.6460         0.0128         1.7394        45.7700        -9.3646         6.1317         1.2444     
 2959.5000        17.4105        37.6268         0.0058       117.7852       119.3350        44.8652         2.9762         2.5846         1.2684        45.2592         9.9105         0.0130         1.8318        46.1260        -9.6017         6.1388         1.2578     
 2960.0000        17.1386        39.3121         0.0066       115.9583       117.0086        45.0048         2.9165         2.5276         1.4023        46.7696        10.3681         0.0135         1.8434        48.7551        -9.8256         6.4133         1.3975     
 2960.5000        17.1617        40.8290         0.0097       117.1308       116.0806        44.8038         2.8672         2.4775         0.9906        44.8730        10.1010         0.0138         1.8201        51.1302        -9.9810         6.7588         1.5245     
 2961.0000        17.4550        40.6737         0.0109       117.6231       116.9382        45.0705         2.8385         2.4266         1.0187        45.6328        10.1279         0.0134         1.7842        50.8479       -10.0105         6.8938         1.5057     
 2961.5000        17.2024        41.2367         0.0099       118.3841       117.7198        43.4725         2.8552         2.4087         0.9946        46.2768        10.5203         0.0135         1.7433        51.4843        -9.6830         7.0470         1.5166     
 2962.0000        17.0120        42.0940         0.0078       117.9119       118.0415        43.5046         2.9193         2.4330         0.9081        46.6626         9.7567         0.0138         1.7068        52.4445        -9.6403         7.1751         1.5318     
 2962.5000        17.4259        42.4590         0.0050       117.3910       117.0772        43.4462         3.0019         2.4934         0.9835        46.1748         7.5713         0.0140         1.7316        52.7360        -9.8044         7.2122         1.5209     
 2963.0000        16.6426        43.3989         0.0059       115.4040       118.0159        45.0446         3.0428         2.5205         1.4056        46.5978         5.9001         0.0146         1.8602        53.8267       -10.0026         7.2348         1.5432     
 2963.5000        15.5774        45.0666         0.0179       116.3624       119.2505        47.7373         3.0747         2.5354         1.7009        45.6131         5.6095         0.0155         2.0247        56.3164        -9.7987         7.3753         1.6649     
 2964.0000        15.0953        46.3272         0.0386       118.0077       120.0308        49.3702         3.1030         2.5571         2.0518        43.6899         5.6998         0.0161         2.1203        58.7236        -9.5067         7.5026         1.8346     
 2964.5000        15.1145        48.0930         0.0457       118.7460       118.9312        49.4099         3.1143         2.5548         2.2243        42.3456         5.3612         0.0177         2.1229        62.5422        -9.6056         7.3535         2.1384     
