~Version Information Section
VERS.          2.0                                     : CWLS LOG ASCII Standard
WRAP.          NO                                      : One line per depth step
CREA.          27/11/15                                : LAS Creation Date
~Well Information Section
STRT.ft        2800.0000                               : Start Depth
STOP.ft        3400.0000                               : Stop Depth
STEP.ft        0.5000                                  : Step
NULL.          -999.2500                               : Null Value
COMP.          TEXACO                                  : Company
WELL.          13/22a-9A                               : Well
FLD .          CAPTAIN                                 : Field
LOC .          MORAY FIRTH                             : Location
LOC1.                                                  : Location (UTM)
CTRY.          UK                                      : Country
PROV.          UKCS                                    : Province
UWI .          17698                                   : UWI Number
API .                                                  : API Number
SECT.                                                  : Section
TOWN.                                                  : Township
RNGE.                                                  : Range
PDAT.          MSL                                     : Perm Datum
EPD .ft        0.00                                    : Elevation
LMF .          DF                                      : Log Measured From
DMF .          DF                                      : Drill Measured From
APD .ft        80.00                                   : Above Perm Datum
EKB .ft        -                                       : Elev-Kelly Bushing
EDF .ft        80.00                                   : Elev-Drill Floor
EGL .ft        -362.00                                 : Elev-Ground Level (Water Depth)
TDD .ft        3651.00                                 : Total Depth (Driller)
SRVC.          SCHLUMBERGER                            : Service Company
LATI.          58 18 30.945 N                          : Latitude
LONG.          01 42 58.729 W                          : Longitude
DATE.          FEB-MAR-1993                            : Logging Date
PROJ.          UKCS                                    : Project
SET .          COMP WIRE                               : Set
~Curve Information Section
DEPTH.ft                                               : Depth Curve
CALI.in                                                : Caliper
CGR.gAPI                                               : Computed Gamma Ray
DRHO.g/c3                                              : Density Correction
DTLF.us/ft                                             : Delta-T Long Spacing Far
DTLN.us/ft                                             : Delta-T Long Spacing Near
GR.gAPI                                                : Gamma Ray
LLD.ohmm                                               : Laterolog Deep Resistivity
LLS.ohmm                                               : Laterolog Shallow Resistivity
MSFL.ohmm                                              : Microspherically Focused log Resistivity
NPHI.%                                                 : Neutron Porosity
PEF.B/e                                                : Photo-Electric Factor
POTA.                                                  : Potassium
RHOB.g/c3                                              : Bulk Density
SGR.gAPI                                               : Spectroscopy Gamma-Ray
SP.mV                                                  : Spontaneous Potential
THOR.ppm                                               : Thorium
URAN.ppm                                               : Uranium
~ASCII Log Data Section
# ...
 2875.0000        12.0859        21.5192        -0.0299       121.0807       121.1962        24.1195       185.4909       126.7940         5.4014         4.9092         2.9321         0.0100         2.0100        29.6214        -4.7482         2.3937         1.1991     
 2875.5000        12.0859        19.6145        -0.0324       122.6307       122.7000        24.0222       190.0297       129.2947         5.5804         5.1772         2.8152         0.0089         2.0106        27.4407        -5.0457         2.2661         1.1582     
 2876.0000        12.0859        18.3796        -0.0327       124.3038       123.6000        24.0403       194.6991       133.0793         5.5951         5.2487         2.7333         0.0083         2.0155        26.0323        -5.3000         2.1481         1.1325     
 2876.5000        12.0859        19.0344        -0.0339       123.9462       124.6077        23.3888       201.0284       138.4990         5.6935         5.8024         2.7316         0.0085         2.0215        27.1929        -5.3123         2.2578         1.2074     
 2877.0000        12.0859        19.1272        -0.0370       123.1768       123.4038        22.9887       208.1266       144.7604         6.0122         6.1688         2.7660         0.0085         2.0232        27.2446        -5.2914         2.2898         1.2013     
 2877.5000        12.0859        19.4619        -0.0360       124.2536       124.6037        22.4119       207.9825       143.5682         5.9919         6.7728         2.8178         0.0087         2.0269        27.4444        -5.5238         2.3321         1.1814     
 2878.0000        12.0859        19.0925        -0.0301       125.6808       126.5692        23.1412       174.9674       115.8681         5.5721         7.6088         2.8740         0.0087         2.0361        26.4815        -5.7530         2.1830         1.0935     
 2878.5000        12.0859        19.1802        -0.0236       127.0920       126.7346        24.4075       111.5445        70.7224         4.4559        11.3362         2.9336         0.0091         2.0500        26.2164        -6.2354         2.0581         1.0413     
 2879.0000        12.0859        20.3346        -0.0207       128.4693       127.4931        23.8716        64.8674        44.1272         3.5737        17.2638         2.9652         0.0098         2.0630        27.6039        -6.3818         2.1187         1.0758     
 2879.5000        12.0859        20.7629        -0.0157       128.2188       128.7307        22.3157        45.7219        35.2360         3.7541        24.2120         3.0224         0.0101         2.0799        28.0968        -6.4592         2.0929         1.0854     
 2880.0000        12.0859        19.3051        -0.0137       127.5346       127.9415        21.2080        37.3389        31.3512         4.0683        28.4255         3.0921         0.0097         2.0968        25.7199        -6.3207         1.8241         0.9494     
 2880.5000        12.0859        18.7832        -0.0167       127.4614       127.6357        22.3866        35.3187        30.8528         4.1656        30.3516         3.0775         0.0097         2.1068        24.6955        -6.4344         1.6815         0.8750     
 2881.0000        12.0859        19.3221        -0.0196       126.4731       129.2961        22.1623        39.0173        34.7862         4.1839        31.6594         2.9868         0.0100         2.1120        25.2701        -6.7910         1.7113         0.8803     
 2881.5000        12.0859        18.7601        -0.0197       124.7885       127.0923        20.4156        48.3711        42.7414         4.2114        33.0636         2.9492         0.0097         2.1143        24.2377        -6.9341         1.6384         0.8106     
 2882.0000        12.0859        18.3493        -0.0196       124.6154       123.7500        20.0799        61.9014        52.0232         4.1431        33.0237         3.0216         0.0095         2.1166        23.6238        -7.2434         1.6308         0.7806     
 2882.5000        12.0859        18.4038        -0.0180       125.9538       125.3269        22.7992        79.8082        61.0244         4.0160        32.8232         3.1317         0.0094         2.1210        23.4966        -7.0757         1.6590         0.7537     
 2883.0000        12.0859        18.4749        -0.0160       125.3731       125.7308        23.8498       109.3697        70.6040         4.0921        32.3886         3.1431         0.0092         2.1222        23.4888        -7.2525         1.7766         0.7420     
 2883.5000        12.0859        20.2162        -0.0150       121.1236       123.3118        22.1747       142.7968        77.9245         4.0472        32.4322         3.0884         0.0093         2.1200        25.4556        -7.2392         2.2846         0.7754     
 2884.0000        12.0859        20.6635        -0.0159       119.1085       120.6774        20.1623       156.2167        79.7789         3.9752        31.5531         3.0553         0.0089         2.1179        25.5135        -7.1921         2.5932         0.7178     
 2884.5000        12.0859        19.8630        -0.0178       117.9770       117.1423        20.0354       153.0992        78.6422         3.8727        30.8741         3.0762         0.0082         2.1196        24.2705        -7.1873         2.6462         0.6523     
 2885.0000        12.0859        19.5841        -0.0210       114.7549       115.3120        20.7810       144.0882        76.7353         3.7087        31.5773         3.0954         0.0080         2.1211        23.9807        -7.1189         2.6659         0.6507     
 2885.5000        12.0859        19.5279        -0.0250       113.7881       114.3386        21.2090       136.6549        75.7131         3.7469        32.5697         3.0454         0.0081         2.1170        23.9713        -6.8974         2.5950         0.6576     
 2886.0000        12.0859        20.4671        -0.0267       113.3733       114.1495        21.2575       130.7345        75.4664         3.9663        34.0792         2.9813         0.0087         2.1115        25.2615        -6.3946         2.6286         0.7095     
 2886.5000        12.0859        21.1825        -0.0253       113.1802       113.7159        20.0122       129.5910        77.5892         4.0038        33.1645         2.9956         0.0092         2.1110        26.2255        -6.4329         2.6502         0.7463     
 2887.0000        12.0859        20.9212        -0.0217       112.9624       114.7772        20.0616       127.9564        80.6040         4.1047        32.6403         3.0562         0.0093         2.1157        25.5906        -6.1787         2.5012         0.6910     
 2887.5000        12.0859        20.7823        -0.0194       114.3308       114.6769        20.6362       119.8589        79.8514         4.0137        31.8440         3.1030         0.0095         2.1184        25.1447        -6.1403         2.3918         0.6456     
 2888.0000        12.0906        21.9025        -0.0194       114.7192       113.3615        22.5378       111.6763        76.6382         3.9120        34.2310         3.0940         0.0103         2.1174        26.5423        -6.3519         2.3959         0.6867     
 2888.5000        12.1589        22.0583        -0.0211       115.2154       113.9653        22.1214       107.8645        75.4131         3.9008        35.1400         3.0384         0.0108         2.1140        26.3188        -6.3380         2.1961         0.6305     
 2889.0000        12.2031        22.2101        -0.0234       114.7154       114.1116        22.4249       106.5488        75.5565         3.8820        34.6738         2.9900         0.0110         2.1102        26.3339        -6.1275         2.1727         0.6103     
 2889.5000        12.2031        22.9589        -0.0263       116.0885       112.5461        23.3359       103.3476        74.3825         3.8602        33.3591         2.9888         0.0111         2.1061        27.4109        -6.4207         2.3818         0.6589     
