~Version Information Section
VERS.          2.0                                     : CWLS LOG ASCII Standard
WRAP.          NO                                      : One line per depth step
CREA.          27/11/15                                : LAS Creation Date
~Well Information Section
STRT.ft        2800.0000                               : Start Depth
STOP.ft        3400.0000                               : Stop Depth
STEP.ft        0.5000                                  : Step
NULL.          -999.2500                               : Null Value
COMP.          TEXACO                                  : Company
WELL.          13/22a-9A                               : Well
FLD .          CAPTAIN                                 : Field
LOC .          MORAY FIRTH                             : Location
LOC1.                                                  : Location (UTM)
CTRY.          UK                                      : Country
PROV.          UKCS                                    : Province
UWI .          17698                                   : UWI Number
API .                                                  : API Number
SECT.                                                  : Section
TOWN.                                                  : Township
RNGE.                                                  : Range
PDAT.          MSL                                     : Perm Datum
EPD .ft        0.00                                    : Elevation
LMF .          DF                                      : Log Measured From
DMF .          DF                                      : Drill Measured From
APD .ft        80.00                                   : Above Perm Datum
EKB .ft        -                                       : Elev-Kelly Bushing
EDF .ft        80.00                                   : Elev-Drill Floor
EGL .ft        -362.00                                 : Elev-Ground Level (Water Depth)
TDD .ft        3651.00                                 : Total Depth (Driller)
SRVC.          SCHLUMBERGER                            : Service Company
LATI.          58 18 30.945 N                          : Latitude
LONG.          01 42 58.729 W                          : Longitude
DATE.          FEB-MAR-1993                            : Logging Date
PROJ.          UKCS                                    : Project
SET .          COMP WIRE                               : Set
~Curve Information Section
DEPTH.ft                                               : Depth Curve
CALI.in                                                : Caliper
CGR.gAPI                                               : Computed Gamma Ray
DRHO.g/c3                                              : Density Correction
DTLF.us/ft                                             : Delta-T Long Spacing Far
DTLN.us/ft                                             : Delta-T Long Spacing Near
GR.gAPI                                                : Gamma Ray
LLD.ohmm                                               : Laterolog Deep Resistivity
LLS.ohmm                                               : Laterolog Shallow Resistivity
MSFL.ohmm                                              : Microspherically Focused log Resistivity
NPHI.%                                                 : Neutron Porosity
PEF.B/e                                                : Photo-Electric Factor
POTA.                                                  : Potassium
RHOB.g/c3                                              : Bulk Density
SGR.gAPI                                               : Spectroscopy Gamma-Ray
SP.mV                                                  : Spontaneous Potential
THOR.ppm                                               : Thorium
URAN.ppm                                               : Uranium
~ASCII Log Data Section
# ...
 3310.0000        12.0859        73.5040        -0.0034       105.7266       105.0110        94.3434         5.4530         5.2710         6.5359        32.4011         3.7899         0.0244         2.2776       113.9922        -9.4382        12.4161         5.9920     
 3310.5000        12.1325        72.7627        -0.0026       107.8261       107.9911        96.9316         5.1766         5.0062         6.6727        33.8722         3.8523         0.0240         2.2678       113.1647        -9.6746        12.3529         5.9792     
 3311.0000        12.1734        72.8080        -0.0004       109.9958       109.6460       100.1316         4.9318         4.7756         6.8330        34.9008         3.9311         0.0238         2.2661       113.6803        -9.2388        12.4343         6.0488     
 3311.5000        12.1797        75.5231        -0.0005       111.6379       110.7497       102.7971         4.7632         4.6246         6.3266        34.5973         3.9487         0.0247         2.2651       120.7810        -9.2401        12.9086         6.6979     
 3312.0000        12.1843        77.7485        -0.0008       112.3154       112.0154       105.5912         4.6773         4.5190         5.8263        36.7311         3.9808         0.0255         2.2581       126.6653        -9.9944        13.2665         7.2394     
 3312.5000        12.1828        79.2232         0.0010       112.6497       112.4189       110.8324         4.7171         4.5207         5.6383        36.9068         3.9956         0.0260         2.2576       129.5865       -10.4639        13.4902         7.4534     
 3313.0000        12.1564        75.7551         0.0011       111.1415       110.5910       113.3454         4.9010         4.6752         6.2183        37.2192         4.0112         0.0246         2.2664       125.2418       -10.6055        13.0271         7.3237     
 3313.5000        12.1127        71.2772         0.0008       109.8653       108.2574       114.3755         5.1344         4.8534         7.4924        34.8973         4.0358         0.0227         2.2806       119.1752       -10.4720        12.4361         7.0886     
 3314.0000        12.0891        73.2432         0.0010       109.3841       108.3199       110.1645         5.3498         5.0465         7.3120        34.8836         4.0591         0.0233         2.2841       122.9642       -10.4635        12.7732         7.3584     
 3314.5000        12.0859        75.0700        -0.0018       108.2188       108.8148       106.3755         5.5257         5.2209         6.3415        35.1898         4.1184         0.0240         2.2726       126.0091       -10.7967        13.0694         7.5386     
 3315.0000        12.0859        72.7996        -0.0052       106.5312       106.5159       104.1562         5.7436         5.4109         6.6269        36.1364         4.2233         0.0231         2.2720       122.0744       -11.2611        12.7385         7.2923     
 3315.5000        12.0859        70.4106        -0.0010       103.8350       103.4502       106.8533         5.9018         5.5671         9.9015        33.4787         4.2349         0.0223         2.2993       118.2067       -11.1702        12.3587         7.0735     
 3316.0000        12.0859        70.1349         0.0058       101.2308       102.3923       109.6947         5.8287         5.5220        10.5001        30.1982         4.1377         0.0222         2.3252       117.9625       -11.0928        12.2875         7.0782     
 3316.5000        12.0859        77.0164         0.0074       100.1612       101.4464       109.6977         5.6313         5.3357         7.0860        30.1875         3.9505         0.0234         2.3196       124.5218       -11.1835        13.9166         7.0305     
 3317.0000        12.0859        83.2041         0.0071       102.9142       101.2308       107.6714         5.2914         5.0613         7.1513        31.5648         3.8010         0.0248         2.2917       131.0706       -11.4724        15.2546         7.0839     
 3317.5000        12.0859        85.0908         0.0086       107.1646       105.2566       110.0404         4.9001         4.7168         5.2140        34.5728         3.7385         0.0255         2.2658       133.7299       -11.3681        15.5281         7.1983     
 3318.0000        12.0859        85.1717         0.0074       110.1872       110.6944       114.0496         4.7717         4.5459         5.1288        36.7806         3.7887         0.0255         2.2558       133.7672       -10.9160        15.5868         7.1918     
 3318.5000        12.0859        84.8372         0.0035       110.7422       112.1308       117.7091         4.7051         4.4761         5.5252        38.5815         3.9544         0.0252         2.2547       133.3146       -11.0067        15.6016         7.1743     
 3319.0000        12.0859        84.2229         0.0013       112.9338       111.8962       118.2692         4.5717         4.3846         6.0608        37.3565         4.0933         0.0248         2.2576       132.3919       -10.6566        15.5753         7.1287     
 3319.5000        12.0906        84.2409        -0.0002       112.4109       111.9079       118.2103         4.4859         4.2975         5.3133        36.3244         4.1294         0.0246         2.2533       132.6366       -10.5254        15.6540         7.1622     
 3320.0000        12.1170        82.7142        -0.0018       111.4040       112.3000       115.4702         4.4936         4.2869         5.4350        35.3286         4.2050         0.0238         2.2546       131.0408       -10.7680        15.5533         7.1520     
 3320.5000        12.1049        82.1474         0.0017       112.2238       112.6465       112.4405         4.4633         4.2352         6.1467        34.9095         4.4226         0.0233         2.2720       130.8133       -10.3911        15.5737         7.2022     
 3321.0000        12.0999        81.5233         0.0090       113.5386       113.0921       110.4747         4.5047         4.2337         6.0257        33.8099         4.7444         0.0229         2.2984       130.3577       -10.5962        15.5667         7.2272     
 3321.5000        12.0954        80.2528         0.0111       113.8346       112.9422       114.1730         4.6415         4.3062         5.3081        36.2895         4.9647         0.0222         2.3085       129.1928       -10.2134        15.4471         7.2428     
 3322.0000        12.0859        82.0150         0.0106       113.8307       113.7461       117.4063         4.6793         4.3384         6.1663        36.6977         4.8923         0.0228         2.3080       132.4623       -10.5676        15.7559         7.4659     
 3322.5000        12.1046        79.8984         0.0121       113.8038       113.7077       116.4207         4.6328         4.3209         7.5081        37.7324         4.7900         0.0220         2.3087       129.3461       -10.7044        15.4249         7.3179     
 3323.0000        12.0893        79.8432         0.0100       114.2422       112.6768       114.4164         4.6028         4.3058         7.3512        35.8431         4.7474         0.0221         2.2976       129.2188       -10.5499        15.3866         7.3073     
 3323.5000        12.0703        80.4734         0.0066       115.2188       114.0648       112.2941         4.5074         4.2435         5.4959        36.0880         4.8141         0.0224         2.2756       130.2773       -10.9164        15.4574         7.3707     
 3324.0000        12.0703        78.8901         0.0103       117.3764       116.5996       113.5427         4.3765         4.1369         5.2924        37.9457         4.7511         0.0218         2.2484       127.8088       -11.1749        15.2053         7.2396     
 3324.5000        12.0796        78.2209         0.0147       119.2530       118.3686       115.2083         4.3716         4.1445         4.5581        40.6704         4.6359         0.0215         2.2298       126.0055       -11.3299        15.1246         7.0718     
