~Version Information Section
VERS.          2.0                                     : CWLS LOG ASCII Standard
WRAP.          NO                                      : One line per depth step
CREA.          27/11/15                                : LAS Creation Date
~Well Information Section
STRT.ft        2800.0000                               : Start Depth
STOP.ft        3400.0000                               : Stop Depth
STEP.ft        0.5000                                  : Step
NULL.          -999.2500                               : Null Value
COMP.          TEXACO                                  : Company
WELL.          13/22a-9A                               : Well
FLD .          CAPTAIN                                 : Field
LOC .          MORAY FIRTH                             : Location
LOC1.                                                  : Location (UTM)
CTRY.          UK                                      : Country
PROV.          UKCS                                    : Province
UWI .          17698                                   : UWI Number
API .                                                  : API Number
SECT.                                                  : Section
TOWN.                                                  : Township
RNGE.                                                  : Range
PDAT.          MSL                                     : Perm Datum
EPD .ft        0.00                                    : Elevation
LMF .          DF                                      : Log Measured From
DMF .          DF                                      : Drill Measured From
APD .ft        80.00                                   : Above Perm Datum
EKB .ft        -                                       : Elev-Kelly Bushing
EDF .ft        80.00                                   : Elev-Drill Floor
EGL .ft        -362.00                                 : Elev-Ground Level (Water Depth)
TDD .ft        3651.00                                 : Total Depth (Driller)
SRVC.          SCHLUMBERGER                            : Service Company
LATI.          58 18 30.945 N                          : Latitude
LONG.          01 42 58.729 W                          : Longitude
DATE.          FEB-MAR-1993                            : Logging Date
PROJ.          UKCS                                    : Project
SET .          COMP WIRE                               : Set
~Curve Information Section
DEPTH.ft                                               : Depth Curve
CALI.in                                                : Caliper
CGR.gAPI                                               : Computed Gamma Ray
DRHO.g/c3                                              : Density Correction
DTLF.us/ft                                             : Delta-T Long Spacing Far
DTLN.us/ft                                             : Delta-T Long Spacing Near
GR.gAPI                                                : Gamma Ray
LLD.ohmm                                               : Laterolog Deep Resistivity
LLS.ohmm                                               : Laterolog Shallow Resistivity
MSFL.ohmm                                              : Microspherically Focused log Resistivity
NPHI.%                                                 : Neutron Porosity
PEF.B/e                                                : Photo-Electric Factor
POTA.                                                  : Potassium
RHOB.g/c3                                              : Bulk Density
SGR.gAPI                                               : Spectroscopy Gamma-Ray
SP.mV                                                  : Spontaneous Potential
THOR.ppm                                               : Thorium
URAN.ppm                                               : Uranium
~ASCII Log Data Section
# ...
 3265.0000        12.0938        77.0792        -0.0024       107.8884       107.9884        96.8124         5.4341         5.3388         7.0326        29.8072         4.0418         0.0257         2.2681       103.7884        -9.1350        12.9416         3.9528     
 3265.5000        12.0984        80.0506         0.0004       109.5536       109.6536       100.4758         4.9281         4.8927         6.3196        30.7931         4.0262         0.0267         2.2516       108.8740        -8.9985        13.4383         4.2657     
 3266.0000        12.1248        83.2489         0.0044       112.0182       111.8068       102.9100         4.5537         4.5288         5.1549        34.4249         4.0737         0.0278         2.2303       114.1698        -9.5542        13.9534         4.5761     
 3266.5000        12.1127        83.0703         0.0076       114.4232       114.1422       105.0340         4.4024         4.3568         5.1780        38.6143         4.1082         0.0277         2.2199       114.0360        -9.3984        13.9439         4.5827     
 3267.0000        12.1077        82.6126         0.0089       113.4502       113.6999       104.9909         4.3354         4.2354         5.9617        41.1167         4.1229         0.0276         2.2212       113.3628        -9.2007        13.8625         4.5508     
 3267.5000        12.1079        82.6058         0.0082       111.4578       110.9269       107.8606         4.3406         4.2219         7.5139        39.4123         4.1316         0.0275         2.2389       113.1177        -9.4725        13.8999         4.5156     
 3268.0000        12.1016        80.6501         0.0075       107.9162       107.6893       108.6417         4.4589         4.3472        10.0906        37.0636         4.1201         0.0265         2.2724       109.9188        -9.6056        13.7304         4.3316     
 3268.5000        12.1016        79.5954         0.0077       104.9534       104.8455       108.0921         4.6212         4.5431         9.2126        32.1785         4.1422         0.0259         2.3016       108.1087        -9.5196        13.6472         4.2198     
 3269.0000        12.0922        82.1428         0.0062       104.4733       104.1119       105.3075         4.7720         4.6763         7.4514        30.3347         4.0549         0.0268         2.3058       111.7688        -9.7270        14.0463         4.3845     
 3269.5000        12.0859        84.0164         0.0038       106.2902       106.0862       105.3657         4.8367         4.7446         6.3712        30.2884         3.7531         0.0275         2.2789       114.3372        -9.9507        14.3267         4.4873     
 3270.0000        12.0859        87.0191         0.0029       111.1423       109.9115       107.3438         4.8279         4.7043         6.2963        33.8075         3.4462         0.0288         2.2490       118.5168        -9.9159        14.7241         4.6614     
 3270.5000        12.0859        88.8914         0.0010       115.2422       113.6186       108.4424         4.8990         4.7630         6.7779        36.9730         3.5034         0.0296         2.2357       120.9243        -9.7477        14.9290         4.7407     
 3271.0000        12.0859        88.5640        -0.0018       114.6270       114.9500       104.6779         5.1064         4.9575         8.7940        37.9856         3.9493         0.0297         2.2480       119.8345        -9.5970        14.7993         4.6278     
 3271.5000        12.0859        86.3677        -0.0021       111.5616       111.1539       101.6106         5.1829         5.0640         8.8048        33.8602         4.5582         0.0290         2.2707       115.8157        -9.6835        14.4402         4.3581     
 3272.0000        12.0859        84.9141        -0.0024       109.7730       108.5232        99.7880         5.0005         4.9202         5.0886        30.6070         4.6579         0.0284         2.2703       113.7387        -9.6874        14.2317         4.2659     
 3272.5000        12.0859        85.8452        -0.0037       110.5151       108.8306       103.0251         4.7282         4.6625         5.0208        30.2510         4.5241         0.0288         2.2350       115.8417        -9.7139        14.3500         4.4393     
 3273.0000        12.0859        86.9416        -0.0030       112.7532       111.5764       106.9729         4.4372         4.3630         5.1680        34.5108         4.2027         0.0292         2.2007       117.8892        -9.8295        14.5233         4.5800     
 3273.5000        12.0859        89.3854        -0.0014       116.4335       115.3222       112.5132         4.3339         4.2634         5.8596        36.4746         3.9367         0.0297         2.1868       121.3454       -10.0077        15.0468         4.7299     
 3274.0000        12.0859        92.5448         0.0009       118.6505       118.0267       118.4963         4.4718         4.4135         6.2066        36.9332         3.7792         0.0305         2.1952       125.4888       -10.5060        15.7050         4.8755     
 3274.5000        12.0859        94.1963         0.0021       119.0841       117.8733       119.7902         4.6397         4.5551         6.3245        37.1782         3.7451         0.0308         2.2079       127.8669        -9.9713        16.0905         4.9830     
 3275.0000        12.0859        95.6195         0.0003       118.5079       118.4772       116.9114         4.6629         4.5729         6.2803        36.9205         3.7158         0.0313         2.2169       130.1974        -9.7739        16.3380         5.1173     
 3275.5000        12.1279        95.0544        -0.0028       118.7960       118.3762       113.3676         4.6145         4.5169         6.1152        36.1905         3.5864         0.0312         2.2204       130.0364        -9.5962        16.1731         5.1771     
 3276.0000        12.1236        89.0820        -0.0043       118.2534       117.1654       114.0830         4.5110         4.4424         6.0143        36.4252         3.5013         0.0305         2.2195       122.2854        -9.1396        14.6174         4.9139     
 3276.5000        12.0969        86.0405        -0.0050       117.2538       116.7538       115.4111         4.4268         4.3517         5.8819        37.4080         3.5186         0.0304         2.2125       117.8778        -8.9720        13.7017         4.7117     
 3277.0000        12.0984        85.7025        -0.0056       116.8768       116.9650       112.2020         4.4494         4.3881         5.6975        38.0375         3.6700         0.0304         2.2020       116.8435        -9.0585        13.6261         4.6087     
 3277.5000        12.1062        84.3812        -0.0043       116.5693       117.5270       105.5939         4.6683         4.6100         5.6435        38.8460         3.7841         0.0299         2.2021       114.3817        -9.0623        13.4235         4.4399     
 3278.0000        12.1420        82.6954        -0.0016       114.0308       114.1501        98.5169         5.1442         5.0195         6.5398        36.9460         3.8851         0.0293         2.2236       111.4053        -8.7087        13.1461         4.2489     
 3278.5000        12.2013        80.6211         0.0014       110.4700       110.2506        94.7819         5.9048         5.6958         8.8846        33.5770         3.9627         0.0286         2.2675       108.1427        -8.8564        12.8006         4.0730     
 3279.0000        12.2266        78.4285         0.0027       105.9556       106.2477        91.8016         6.6416         6.3872         9.0063        30.0733         4.0995         0.0277         2.3122       104.6693        -9.4292        12.4907         3.8835     
 3279.5000        12.2266        77.3507         0.0027       102.8042       102.4966        90.4739         6.7057         6.5022         8.8841        27.5298         4.3598         0.0273         2.3397       102.9550        -9.4160        12.3570         3.7893     
