~Version Information Section
VERS.          2.0                                     : CWLS LOG ASCII Standard
WRAP.          NO                                      : One line per depth step
CREA.          27/11/15                                : LAS Creation Date
~Well Information Section
STRT.ft        2800.0000                               : Start Depth
STOP.ft        3400.0000                               : Stop Depth
STEP.ft        0.5000                                  : Step
NULL.          -999.2500                               : Null Value
COMP.          TEXACO                                  : Company
WELL.          13/22a-9A                               : Well
FLD .          CAPTAIN                                 : Field
LOC .          MORAY FIRTH                             : Location
LOC1.                                                  : Location (UTM)
CTRY.          UK                                      : Country
PROV.          UKCS                                    : Province
UWI .          17698                                   : UWI Number
API .                                                  : API Number
SECT.                                                  : Section
TOWN.                                                  : Township
RNGE.                                                  : Range
PDAT.          MSL                                     : Perm Datum
EPD .ft        0.00                                    : Elevation
LMF .          DF                                      : Log Measured From
DMF .          DF                                      : Drill Measured From
APD .ft        80.00                                   : Above Perm Datum
EKB .ft        -                                       : Elev-Kelly Bushing
EDF .ft        80.00                                   : Elev-Drill Floor
EGL .ft        -362.00                                 : Elev-Ground Level (Water Depth)
TDD .ft        3651.00                                 : Total Depth (Driller)
SRVC.          SCHLUMBERGER                            : Service Company
LATI.          58 18 30.945 N                          : Latitude
LONG.          01 42 58.729 W                          : Longitude
DATE.          FEB-MAR-1993                            : Logging Date
PROJ.          UKCS                                    : Project
SET .          COMP WIRE                               : Set
~Curve Information Section
DEPTH.ft                                               : Depth Curve
CALI.in                                                : Caliper
CGR.gAPI                                               : Computed Gamma Ray
DRHO.g/c3                                              : Density Correction
DTLF.us/ft                                             : Delta-T Long Spacing Far
DTLN.us/ft                                             : Delta-T Long Spacing Near
GR.gAPI                                                : Gamma Ray
LLD.ohmm                                               : Laterolog Deep Resistivity
LLS.ohmm                                               : Laterolog Shallow Resistivity
MSFL.ohmm                                              : Microspherically Focused log Resistivity
NPHI.%                                                 : Neutron Porosity
PEF.B/e                                                : Photo-Electric Factor
POTA.                                                  : Potassium
RHOB.g/c3                                              : Bulk Density
SGR.gAPI                                               : Spectroscopy Gamma-Ray
SP.mV                                                  : Spontaneous Potential
THOR.ppm                                               : Thorium
URAN.ppm                                               : Uranium
~ASCII Log Data Section
# ...
 2845.0000        12.1925        20.9732        -0.0267       114.9770       114.6276        24.4250       284.0818       157.2084         3.1563        10.3468         4.0741         0.0098         2.0987        27.5274        -8.0499         2.3049         0.9700     
 2845.5000        12.1175        20.3227        -0.0301       113.7354       113.1928        24.4843       275.3162       154.1446         3.1607        11.2684         3.8899         0.0096         2.1083        26.4998        -8.4164         2.1922         0.9142     
 2846.0000        12.0859        20.2767        -0.0332       109.6051       110.2009        23.5384       273.3116       154.3359         3.3513        10.9812         3.7276         0.0098         2.1163        26.0837        -8.7700         2.1002         0.8594     
 2846.5000        12.0859        21.1683        -0.0368       108.3769       108.2923        21.2013       278.8124       157.6783         3.5967        10.4353         3.6593         0.0102         2.1242        27.0888        -9.2615         2.1998         0.8762     
 2847.0000        12.0859        21.4769        -0.0391       108.2421       107.7963        21.2176       292.3955       166.7362         4.1467         9.6792         3.6703         0.0104         2.1298        27.6454        -9.9040         2.1964         0.9129     
 2847.5000        12.0859        20.8818        -0.0404       107.0000       108.0852        21.6818       304.2009       175.7609         4.2411         9.6245         3.7070         0.0103         2.1295        27.0740       -10.5764         2.0786         0.9164     
 2848.0000        12.0859        20.0232        -0.0401       107.0693       108.1336        21.5816       309.5085       179.6861         4.1374         9.3748         3.7842         0.0100         2.1258        26.1826       -11.0161         1.9314         0.9116     
 2848.5000        12.0859        19.1255        -0.0382       107.3733       107.2624        19.8190       309.1730       181.1442         3.9827         9.9110         3.8892         0.0097         2.1240        25.1959       -11.2738         1.7859         0.8984     
 2849.0000        12.0859        17.8422        -0.0358       107.7346       108.9077        18.0907       302.3198       178.4179         3.8434        11.0084         3.9329         0.0092         2.1274        23.5821       -11.2177         1.5914         0.8495     
 2849.5000        12.0859        19.0095        -0.0336       108.4228       109.0232        18.0006       294.9241       175.8409         3.8983        11.8591         3.9007         0.0100         2.1267        25.6964       -11.4036         1.5972         0.9896     
 2850.0000        12.0813        19.8144        -0.0309       110.2577       109.5384        20.1821       277.2427       171.3170         4.2019        12.0613         3.7594         0.0105         2.1190        27.1377       -11.6488         1.6410         1.0838     
 2850.5000        12.0595        19.3882        -0.0305       111.5000       112.4000        21.6887       247.8018       157.8113         4.2332        11.5974         3.6941         0.0103         2.1050        26.7017       -11.6878         1.6069         1.0824     
 2851.0000        12.0376        18.6528        -0.0319       112.8148       114.2384        22.3631       212.2821       141.3469         3.8650        12.0557         3.6428         0.0098         2.0952        26.0743       -11.5924         1.5631         1.0983     
 2851.5000        12.0266        18.1112        -0.0306       115.9911       115.1573        21.5292       184.2226       127.8788         3.8824        12.8939         3.7643         0.0097         2.0908        25.6318       -11.4724         1.4617         1.1130     
 2852.0000        12.0328        18.8927        -0.0289       117.6114       117.1612        20.6959       166.2519       118.3138         4.0361        13.8732         3.7856         0.0102         2.0828        27.1806       -11.7696         1.4669         1.2265     
 2852.5000        12.0391        20.5196        -0.0306       119.1690       119.6379        20.3780       157.2668       112.6100         4.1182        13.2550         3.3401         0.0112         2.0587        29.7199       -11.5752         1.5598         1.3616     
 2853.0000        12.0344        19.7680        -0.0336       121.6238       122.3971        20.1781       158.8861       113.1251         4.1019        12.6554         2.8155         0.0113         2.0336        28.1394       -11.2085         1.2810         1.2389     
 2853.5000        12.0359        19.0907        -0.0344       124.1169       124.2812        21.4561       165.3477       117.1587         3.5914        11.4858         2.5467         0.0112         2.0300        26.7993       -10.9763         1.1218         1.1408     
 2854.0000        12.0437        18.8331        -0.0343       126.7733       125.6238        21.6903       174.9548       122.9387         3.6298        10.8293         2.7051         0.0111         2.0429        26.3312       -10.7731         1.0914         1.1097     
 2854.5000        12.0469        19.1201        -0.0359       126.7534       127.5278        22.1217       185.4022       129.2504         3.7593         9.7198         2.9709         0.0112         2.0543        26.7004       -10.4805         1.1089         1.1218     
 2855.0000        12.0422        19.4509        -0.0394       125.6841       128.1722        22.4937       202.9265       139.8664         3.6601         8.5302         3.1220         0.0114         2.0481        27.2337       -10.3207         1.1398         1.1518     
 2855.5000        12.0391        20.0991        -0.0407       125.1077       126.0731        24.2061       225.0968       154.5293         3.3484         6.8278         3.1608         0.0116         2.0383        28.2197        -9.8635         1.2306         1.2018     
 2856.0000        12.0391        20.2190        -0.0386       125.3270       125.2882        24.5817       239.4772       165.8365         3.2404         5.9949         3.1755         0.0114         2.0358        28.5035        -9.3898         1.3562         1.2260     
 2856.5000        12.0391        20.1483        -0.0368       124.3424       125.5693        24.0944       252.9446       176.5352         3.3413         5.2437         3.1423         0.0110         2.0359        28.5920        -9.0319         1.5070         1.2496     
 2857.0000        12.0391        19.2215        -0.0342       122.8577       123.6193        22.9009       264.1866       185.4032         3.5672         5.6016         3.1231         0.0104         2.0367        27.4819        -8.6355         1.4848         1.2225     
 2857.5000        12.0391        18.4679        -0.0321       122.7460       122.6578        22.9047       269.1145       188.2204         3.5578         5.1245         3.1658         0.0099         2.0344        26.6241        -8.2820         1.4932         1.2071     
 2858.0000        12.0391        18.2065        -0.0335       122.8807       122.2348        24.2531       264.7318       182.9927         3.5021         4.9520         3.1813         0.0095         2.0266        26.3754        -7.7906         1.5742         1.2089     
 2858.5000        12.0437        18.1964        -0.0358       121.2772       121.9886        23.8360       245.2369       168.1293         3.3769         4.3696         3.1109         0.0094         2.0247        26.2614        -7.2906         1.6005         1.1936     
 2859.0000        12.0515        18.4440        -0.0344       120.6543       121.1233        22.9839       215.1135       147.4706         3.6957         5.2522         2.9991         0.0096         2.0351        26.4588        -6.8856         1.5927         1.1861     
 2859.5000        12.0733        18.4893        -0.0303       121.5267       120.5653        21.4896       191.8848       132.6482         4.1431         6.4874         2.9604         0.0099         2.0491        26.1319        -6.6268         1.4909         1.1310     
