~Version Information Section
VERS.          2.0                                     : CWLS LOG ASCII Standard
WRAP.          NO                                      : One line per depth step
CREA.          27/11/15                                : LAS Creation Date
~Well Information Section
STRT.ft        2800.0000                               : Start Depth
STOP.ft        3400.0000                               : Stop Depth
STEP.ft        0.5000                                  : Step
NULL.          -999.2500                               : Null Value
COMP.          TEXACO                                  : Company
WELL.          13/22a-9A                               : Well
FLD .          CAPTAIN                                 : Field
LOC .          MORAY FIRTH                             : Location
LOC1.                                                  : Location (UTM)
CTRY.          UK                                      : Country
PROV.          UKCS                                    : Province
UWI .          17698                                   : UWI Number
API .                                                  : API Number
SECT.                                                  : Section
TOWN.                                                  : Township
RNGE.                                                  : Range
PDAT.          MSL                                     : Perm Datum
EPD .ft        0.00                                    : Elevation
LMF .          DF                                      : Log Measured From
DMF .          DF                                      : Drill Measured From
APD .ft        80.00                                   : Above Perm Datum
EKB .ft        -                                       : Elev-Kelly Bushing
EDF .ft        80.00                                   : Elev-Drill Floor
EGL .ft        -362.00                                 : Elev-Ground Level (Water Depth)
TDD .ft        3651.00                                 : Total Depth (Driller)
SRVC.          SCHLUMBERGER                            : Service Company
LATI.          58 18 30.945 N                          : Latitude
LONG.          01 42 58.729 W                          : Longitude
DATE.          FEB-MAR-1993                            : Logging Date
PROJ.          UKCS                                    : Project
SET .          COMP WIRE                               : Set
~Curve Information Section
DEPTH.ft                                               : Depth Curve
CALI.in                                                : Caliper
CGR.gAPI                                               : Computed Gamma Ray
DRHO.g/c3                                              : Density Correction
DTLF.us/ft                                             : Delta-T Long Spacing Far
DTLN.us/ft                                             : Delta-T Long Spacing Near
GR.gAPI                                                : Gamma Ray
LLD.ohmm                                               : Laterolog Deep Resistivity
LLS.ohmm                                               : Laterolog Shallow Resistivity
MSFL.ohmm                                              : Microspherically Focused log Resistivity
NPHI.%                                                 : Neutron Porosity
PEF.B/e                                                : Photo-Electric Factor
POTA.                                                  : Potassium
RHOB.g/c3                                              : Bulk Density
SGR.gAPI                                               : Spectroscopy Gamma-Ray
SP.mV                                                  : Spontaneous Potential
THOR.ppm                                               : Thorium
URAN.ppm                                               : Uranium
~ASCII Log Data Section
# ...
 2995.0000        13.5858        32.4721         0.0024       108.6079       108.7148        29.8945         7.3111         6.3125         3.0267        32.0035         4.7742         0.0140         2.1728        37.7082        -5.4805         4.0576         0.7749     
 2995.5000        13.3956        34.7704        -0.0004       108.9653       107.3148        32.4447         6.2433         5.4869         3.9735        30.6124         5.1148         0.0154         2.1813        45.0751        -5.6063         4.1699         1.5250     
 2996.0000        12.8595        38.1507        -0.0001       108.7962       107.2654        38.4947         5.4566         4.8801         5.4091        32.5754         5.2089         0.0177         2.1896        51.0949        -6.0158         4.2647         1.9156     
 2996.5000        12.5203        37.5971         0.0029       109.0500       109.4539        43.1192         4.9912         4.5053         4.5956        35.0216         4.7530         0.0177         2.1996        50.0834        -6.5116         4.0879         1.8479     
 2997.0000        12.5840        35.6912         0.0047       110.6961       111.2961        44.0926         4.7002         4.2779         4.1099        34.8473         4.3469         0.0168         2.1970        47.1442        -6.7738         3.8853         1.6950     
 2997.5000        12.6297        35.0463         0.0055       112.6498       112.4540        42.4620         4.5176         4.1250         3.8228        35.0218         4.0796         0.0164         2.1866        46.3104        -6.6703         3.8602         1.6670     
 2998.0000        12.6282        35.3629         0.0026       112.8769       112.1808        41.0846         4.4485         3.9941         3.9456        34.1278         3.8570         0.0164         2.1762        46.8653        -6.4978         3.9412         1.7023     
 2998.5000        12.6297        35.8038        -0.0002       112.2190       112.6924        41.3766         4.4418         3.9840         3.8320        33.7267         3.7262         0.0166         2.1703        47.2600        -6.2520         3.9828         1.6955     
 2999.0000        12.6421        36.0387         0.0004       112.8881       112.5771        39.6496         4.5147         4.0256         3.5296        33.3471         3.6831         0.0169         2.1692        47.2422        -5.8594         3.9451         1.6580     
 2999.5000        12.6112        35.7921        -0.0016       112.8538       113.7576        39.5949         4.5833         4.0389         3.5182        34.6802         3.7675         0.0170         2.1619        46.5770        -5.4849         3.8252         1.5961     
 3000.0000        12.5161        35.3886        -0.0052       113.8650       115.1380        41.3014         4.6539         4.0472         3.4885        35.7171         3.9338         0.0170         2.1515        45.7968        -5.3685         3.7037         1.5403     
 3000.5000        12.4268        35.3543        -0.0063       114.2158       115.7812        43.4063         4.7095         4.0535         3.4445        34.9455         4.0877         0.0170         2.1465        45.7468        -5.1268         3.6759         1.5380     
 3001.0000        12.4078        37.1643        -0.0074       114.4455       121.5250        42.4207         4.8017         4.0900         3.2586        35.2821         4.1713         0.0177         2.1424        48.2950        -4.8768         3.9439         1.6473     
 3001.5000        12.4001        39.6063        -0.0104       113.6079       130.4108        41.2015         5.0163         4.2419         3.1650        34.5177         4.0676         0.0186         2.1331        51.6169        -4.5317         4.2968         1.7775     
 3002.0000        12.2556        38.2616        -0.0142       114.8317       129.8545        43.1860         5.4233         4.5070         3.2631        35.5043         3.7996         0.0175         2.1139        48.7927        -4.2781         4.3726         1.5585     
 3002.5000        12.1175        38.2434        -0.0182       117.1266       131.2460        44.2885         5.9240         4.8570         3.2147        35.4089         3.5718         0.0170         2.0937        47.9879        -4.3817         4.5640         1.4421     
 3003.0000        12.0859        39.5556        -0.0194       116.2155       131.2423        42.6851         6.3172         5.1748         3.0934        37.8428         3.5445         0.0177         2.0842        49.3876        -4.5543         4.7008         1.4551     
 3003.5000        12.0859        40.3925        -0.0177       112.9384       128.4770        40.2440         6.3928         5.2469         2.9813        37.8339         3.6905         0.0182         2.0874        50.1234        -4.7525         4.7339         1.4401     
 3004.0000        12.0859        40.8194        -0.0146       114.6232       126.3266        40.0968         6.1969         5.1367         3.1553        38.0665         3.8774         0.0183         2.1013        50.8322        -5.1193         4.8127         1.4818     
 3004.5000        12.1651        41.4490        -0.0085       115.7264       126.4884        42.3405         5.7140         4.8057         3.3843        34.8037         4.0050         0.0184         2.1343        51.8183        -5.9428         4.9592         1.5346     
 3005.0000        12.2234        45.0854         0.0003       120.7030       124.6498        43.8406         4.8569         4.1560         3.2520        35.9813         4.0520         0.0185         2.1782        56.4886        -7.0769         6.0644         1.6876     
 3005.5000        12.2592        48.2850         0.0050       125.8563       126.5727        48.2031         3.9762         3.4195         2.6463        35.7716         4.0551         0.0188         2.2059        60.8619        -8.1540         6.9323         1.8613     
 3006.0000        12.4629        50.1193         0.0048       127.0693       125.7271        51.6730         3.2907         2.8256         2.2293        40.5797         4.0588         0.0194         2.2002        63.6132        -8.5671         7.2649         1.9970     
 3006.5000        12.4928        50.8493         0.0055       122.7974       121.6174        53.4632         2.8160         2.4310         2.2126        43.2970         4.1809         0.0196         2.1854        64.5933        -8.5885         7.4105         2.0340     
 3007.0000        12.4902        49.5855         0.0038       122.1476       124.1000        53.2512         2.6208         2.2564         2.2630        44.0762         4.3412         0.0191         2.1745        62.5880        -8.5885         7.2355         1.9243     
 3007.5000        12.8852        48.0856        -0.0002       123.5990       124.8624        52.9984         2.7048         2.3053         1.9471        42.6548         4.4922         0.0184         2.1726        60.5169        -8.7313         7.0575         1.8397     
 3008.0000        13.1576        48.7139         0.0010       122.1426       125.3990        52.0380         2.9327         2.5092         1.7793        40.6249         4.5454         0.0185         2.1799        61.6100        -8.8079         7.2223         1.9085     
 3008.5000        12.9794        47.5842         0.0061       123.8808       125.4308        49.6022         3.1675         2.6928         2.3120        39.7904         4.6283         0.0181         2.1939        60.1327        -8.4111         7.0341         1.8571     
 3009.0000        12.8205        43.8550         0.0070       129.4487       132.4024        45.3174         3.3133         2.8247         2.4545        38.3531         4.6759         0.0171         2.2037        54.7565        -8.0580         6.2778         1.6133     
 3009.5000        12.8931        41.4090         0.0065       135.0192       138.3270        43.2644         3.3759         2.9070         2.8121        38.3171         4.6080         0.0165         2.1987        51.3167        -7.8727         5.7782         1.4663     
