~Version Information Section
VERS.          2.0                                     : CWLS LOG ASCII Standard
WRAP.          NO                                      : One line per depth step
CREA.          27/11/15                                : LAS Creation Date
~Well Information Section
STRT.ft        2800.0000                               : Start Depth
STOP.ft        3400.0000                               : Stop Depth
STEP.ft        0.5000                                  : Step
NULL.          -999.2500                               : Null Value
COMP.          TEXACO                                  : Company
WELL.          13/22a-9A                               : Well
FLD .          CAPTAIN                                 : Field
LOC .          MORAY FIRTH                             : Location
LOC1.                                                  : Location (UTM)
CTRY.          UK                                      : Country
PROV.          UKCS                                    : Province
UWI .          17698                                   : UWI Number
API .                                                  : API Number
SECT.                                                  : Section
TOWN.                                                  : Township
RNGE.                                                  : Range
PDAT.          MSL                                     : Perm Datum
EPD .ft        0.00                                    : Elevation
LMF .          DF                                      : Log Measured From
DMF .          DF                                      : Drill Measured From
APD .ft        80.00                                   : Above Perm Datum
EKB .ft        -                                       : Elev-Kelly Bushing
EDF .ft        80.00                                   : Elev-Drill Floor
EGL .ft        -362.00                                 : Elev-Ground Level (Water Depth)
TDD .ft        3651.00                                 : Total Depth (Driller)
SRVC.          SCHLUMBERGER                            : Service Company
LATI.          58 18 30.945 N                          : Latitude
LONG.          01 42 58.729 W                          : Longitude
DATE.          FEB-MAR-1993                            : Logging Date
PROJ.          UKCS                                    : Project
SET .          COMP WIRE                               : Set
~Curve Information Section
DEPTH.ft                                               : Depth Curve
CALI.in                                                : Caliper
CGR.gAPI                                               : Computed Gamma Ray
DRHO.g/c3                                              : Density Correction
DTLF.us/ft                                             : Delta-T Long Spacing Far
DTLN.us/ft                                             : Delta-T Long Spacing Near
GR.gAPI                                                : Gamma Ray
LLD.ohmm                                               : Laterolog Deep Resistivity
LLS.ohmm                                               : Laterolog Shallow Resistivity
MSFL.ohmm                                              : Microspherically Focused log Resistivity
NPHI.%                                                 : Neutron Porosity
PEF.B/e                                                : Photo-Electric Factor
POTA.                                                  : Potassium
RHOB.g/c3                                              : Bulk Density
SGR.gAPI                                               : Spectroscopy Gamma-Ray
SP.mV                                                  : Spontaneous Potential
THOR.ppm                                               : Thorium
URAN.ppm                                               : Uranium
~ASCII Log Data Section
# ...
 2920.0000        12.9259        41.7351         0.0279       124.9342       125.5111        58.3366         3.0876         2.2912         1.7973        37.3727         6.6428         0.0112         2.0013        56.3984       -12.0405         8.1712         2.1701     
 2920.5000        13.0108        38.9230         0.0029       125.0732       124.2348        51.9244         3.0241         2.2765         2.1231        39.0061         9.9079         0.0097         1.8446        51.6252       -11.7306         7.9760         1.8798     
 2921.0000        13.2143        38.3936        -0.0039       122.3461       118.5730        46.9363         3.0180         2.2735         1.9975        41.8183        11.1550         0.0093         1.7155        50.5833       -11.9511         7.9868         1.8040     
 2921.5000        13.4415        39.7451         0.0006       123.1038       121.5688        46.8937         2.9333         2.2100         1.6816        44.0695         8.9648         0.0097         1.6935        52.6144       -12.4596         8.2244         1.9046     
 2922.0000        13.6941        41.5381         0.0064       124.8223       125.3715        50.0180         2.6665         2.0108         1.6023        46.5446         7.4005         0.0103         1.7566        55.2641       -12.8431         8.5248         2.0314     
 2922.5000        13.7178        43.1150         0.0173       130.7102       130.3456        51.6624         2.3488         1.8160         2.0638        47.4966         6.7701         0.0109         1.8629        57.6663       -13.1707         8.7551         2.1535     
 2923.0000        13.4341        42.4355         0.0420       136.6055       133.7722        50.7010         2.0790         1.6411         2.3814        50.1681         6.6223         0.0108         1.9382        56.5466       -13.1399         8.5792         2.0883     
 2923.5000        13.3356        41.7352         0.0668       135.5791       134.1019        49.5436         2.0047         1.5768         1.5632        48.2497         6.4191         0.0110         2.0006        55.4301       -12.9032         8.2875         2.0268     
 2924.0000        13.6327        41.1497         0.0767       134.2515       131.8703        48.3645         2.0970         1.6488         1.5550        46.2025         7.0107         0.0111         2.0266        54.5161       -13.0068         8.0358         1.9781     
 2924.5000        13.8078        40.3881         0.0686       138.6714       136.0566        48.5718         2.2205         1.7793         1.7115        42.9607         8.0733         0.0111         1.9813        53.0627       -12.8939         7.8105         1.8758     
 2925.0000        13.9258        39.8212         0.0497       139.2196       138.2820        47.8159         2.3609         1.8828         1.0010        46.2415         8.6353         0.0111         1.9175        51.5196       -12.7007         7.6398         1.7313     
 2925.5000        14.2640        39.6970         0.0372       133.0808       133.6154        46.6574         2.5437         2.0070         0.9711        46.1664         7.9137         0.0110         1.9265        50.8287       -12.8775         7.6372         1.6474     
 2926.0000        14.1301        40.9769         0.0393       131.3385       131.5577        44.4433         2.6081         2.0563         1.5206        47.5758         6.4955         0.0114         2.0179        52.4109       -12.7690         7.8822         1.6922     
 2926.5000        13.5728        42.9148         0.0393       130.9384       129.3654        44.2812         2.5478         2.0459         2.0821        45.7356         6.2557         0.0119         2.0954        55.1802       -12.7182         8.2633         1.8152     
 2927.0000        13.3359        47.7762         0.0275       134.1461       132.3806        48.2559         2.4139         1.9420         1.7776        47.3875         6.6299         0.0128         2.0842        61.5203       -12.9245         9.3645         2.0340     
 2927.5000        13.4058        50.8900         0.0163       138.4730       139.3076        53.8593         2.2090         1.8050         1.6219        49.2005         6.8792         0.0135         2.0480        65.5007       -12.7738        10.0558         2.1623     
 2928.0000        13.5509        52.3319         0.0149       142.5114       141.7460        58.9034         2.0696         1.7005         1.4988        51.7528         6.4956         0.0141         2.0310        67.6164       -12.5966        10.2646         2.2620     
 2928.5000        13.4030        53.3330         0.0166       143.7226       142.6419        61.2731         2.0396         1.6655         1.7621        52.5324         5.8400         0.0143         2.0379        69.2993       -12.3299        10.4505         2.3629     
 2929.0000        13.2299        53.1150         0.0204       141.9244       141.4392        61.7201         2.0772         1.6963         1.7033        50.9513         5.2525         0.0142         2.0673        69.2254       -12.3599        10.4316         2.3842     
 2929.5000        13.2622        52.5919         0.0329       136.8906       136.9513        60.5363         2.2058         1.7858         1.6484        48.3899         5.1139         0.0141         2.1124        68.6930       -12.3646        10.3133         2.3829     
 2930.0000        13.3481        51.9204         0.0515       136.4405       133.0484        58.8626         2.3452         1.9075         1.7804        47.1474         5.4404         0.0138         2.1447        68.0476       -12.6233        10.2399         2.3867     
 2930.5000        13.4713        51.2244         0.0528       133.3614       130.9505        57.5244         2.4294         1.9944         1.7831        46.4468         6.0087         0.0135         2.1275        67.3285       -12.4236        10.1775         2.3833     
 2931.0000        13.6896        50.3325         0.0512       130.7434       131.8693        55.3765         2.4990         2.0523         1.8163        46.7140         6.0493         0.0132         2.0982        66.5125       -12.0367        10.0310         2.3945     
 2931.5000        13.9459        50.1019         0.0620       126.4733       132.4505        54.0470         2.5173         2.0711         1.9133        48.2717         5.8784         0.0132         2.1024        66.3229       -11.8462         9.9459         2.4006     
 2932.0000        14.3356        45.7480         0.0756       128.4962       133.4731        54.4531         2.5486         2.1081         1.7400        46.6878         6.3240         0.0130         2.1187        61.0462       -11.5324         8.6689         2.2640     
 2932.5000        14.6430        41.9912         0.0682       132.0808       133.3500        53.4418         2.5985         2.1415         2.1604        47.6219         7.7892         0.0124         2.0567        56.6332       -11.2514         7.7622         2.1669     
 2933.0000        14.7188        40.7376         0.0517       132.5577       134.4038        50.3282         2.5827         2.1278         2.8214        46.8672         9.3376         0.0118         1.9241        55.1980       -10.6484         7.6382         2.1400     
 2933.5000        15.6216        40.0226         0.0502       131.5808       137.0654        48.5457         2.5607         2.1333         1.1932        48.6538        10.0496         0.0115         1.8342        54.7600       -10.6622         7.5389         2.1810     
 2934.0000        16.1506        40.2565         0.0449       131.0154       134.1231        49.5913         2.5461         2.1336         1.6565        49.7269        10.1902         0.0116         1.7932        55.5279       -10.7562         7.5698         2.2601     
 2934.5000        15.6934        40.2249         0.0274       130.6236       130.1700        53.0902         2.5117         2.0742         1.8292        51.7057         9.2835         0.0115         1.7873        55.4515       -10.4331         7.5894         2.2534     
