~Version Information Section
VERS.          2.0                                     : CWLS LOG ASCII Standard
WRAP.          NO                                      : One line per depth step
CREA.          27/11/15                                : LAS Creation Date
~Well Information Section
STRT.ft        2800.0000                               : Start Depth
STOP.ft        3400.0000                               : Stop Depth
STEP.ft        0.5000                                  : Step
NULL.          -999.2500                               : Null Value
COMP.          TEXACO                                  : Company
WELL.          13/22a-9A                               : Well
FLD .          CAPTAIN                                 : Field
LOC .          MORAY FIRTH                             : Location
LOC1.                                                  : Location (UTM)
CTRY.          UK                                      : Country
PROV.          UKCS                                    : Province
UWI .          17698                                   : UWI Number
API .                                                  : API Number
SECT.                                                  : Section
TOWN.                                                  : Township
RNGE.                                                  : Range
PDAT.          MSL                                     : Perm Datum
EPD .ft        0.00                                    : Elevation
LMF .          DF                                      : Log Measured From
DMF .          DF                                      : Drill Measured From
APD .ft        80.00                                   : Above Perm Datum
EKB .ft        -                                       : Elev-Kelly Bushing
EDF .ft        80.00                                   : Elev-Drill Floor
EGL .ft        -362.00                                 : Elev-Ground Level (Water Depth)
TDD .ft        3651.00                                 : Total Depth (Driller)
SRVC.          SCHLUMBERGER                            : Service Company
LATI.          58 18 30.945 N                          : Latitude
LONG.          01 42 58.729 W                          : Longitude
DATE.          FEB-MAR-1993                            : Logging Date
PROJ.          UKCS                                    : Project
SET .          COMP WIRE                               : Set
~Curve Information Section
DEPTH.ft                                               : Depth Curve
CALI.in                                                : Caliper
CGR.gAPI                                               : Computed Gamma Ray
DRHO.g/c3                                              : Density Correction
DTLF.us/ft                                             : Delta-T Long Spacing Far
DTLN.us/ft                                             : Delta-T Long Spacing Near
GR.gAPI                                                : Gamma Ray
LLD.ohmm                                               : Laterolog Deep Resistivity
LLS.ohmm                                               : Laterolog Shallow Resistivity
MSFL.ohmm                                              : Microspherically Focused log Resistivity
NPHI.%                                                 : Neutron Porosity
PEF.B/e                                                : Photo-Electric Factor
POTA.                                                  : Potassium
RHOB.g/c3                                              : Bulk Density
SGR.gAPI                                               : Spectroscopy Gamma-Ray
SP.mV                                                  : Spontaneous Potential
THOR.ppm                                               : Thorium
URAN.ppm                                               : Uranium
~ASCII Log Data Section
# ...
 3040.0000        12.7976        57.6814         0.0081       116.2288       116.7970        55.4929         3.1266         2.7467         3.3423        38.5138         4.2451         0.0223         2.2365        68.7192       -10.6617         8.3792         1.6335     
 3040.5000        12.5325        57.3192         0.0068       118.6077       119.0961        57.1707         3.0701         2.7199         2.9245        41.8857         4.4277         0.0219         2.2227        68.0656       -10.7092         8.4292         1.5904     
 3041.0000        12.5925        56.0732         0.0044       116.5731       120.9115        60.2044         3.0227         2.6907         2.8477        41.9437         4.6537         0.0211         2.2152        66.2835       -10.6184         8.3742         1.5111     
 3041.5000        12.4208        56.2917         0.0032       115.7192       121.1538        60.7692         3.0266         2.6987         3.0644        44.1711         4.8405         0.0208         2.2143        66.6975       -10.5196         8.5630         1.5400     
 3042.0000        12.4282        56.1913         0.0013       115.2808       119.6693        59.8775         3.0882         2.7467         3.0425        45.9748         4.8906         0.0204         2.2134        66.5096       -10.4891         8.7250         1.5270     
 3042.5000        12.7659        56.6615        -0.0018       112.2885       117.5116        57.5709         3.2014         2.8376         2.8210        47.1924         4.8074         0.0203         2.2103        67.1623       -10.1094         8.9006         1.5541     
 3043.0000        13.1172        56.8838        -0.0005       112.2536       114.7738        56.7782         3.2794         2.9217         2.8331        45.5336         4.7987         0.0204         2.2165        67.2298        -9.5923         8.9470         1.5311     
 3043.5000        13.1585        55.5227        -0.0005       112.4342       111.6319        55.7893         3.2426         2.9083         3.0928        41.7156         4.8974         0.0196         2.2203        64.8315        -9.6365         8.8373         1.3776     
 3044.0000        12.6899        54.6460        -0.0023       111.8038       111.1885        57.1022         3.1230         2.7940         3.2603        39.7906         4.8816         0.0190         2.2107        63.3062        -9.6825         8.8515         1.2817     
 3044.5000        12.3054        57.8282        -0.0020       122.7681       111.5694        55.4599         2.9330         2.6101         2.5653        39.3165         4.6636         0.0197         2.1993        67.2087        -9.2652         9.5251         1.3883     
 3045.0000        12.2266        58.2861        -0.0012       140.9050       114.1278        56.4325         2.7700         2.4740         2.5634        38.8545         4.4034         0.0193         2.1886        66.9437        -9.4031         9.8573         1.2813     
 3045.5000        12.2918        58.3174        -0.0031       147.9290       116.5397        57.1838         2.6991         2.4216         3.0960        40.2612         4.3594         0.0189         2.1813        66.4229        -9.2951        10.0355         1.1996     
 3046.0000        12.3080        58.8701        -0.0033       158.7090       117.9802        59.7881         2.7405         2.4695         2.9338        40.5891         4.4471         0.0189         2.1784        66.6015        -9.2177        10.2071         1.1442     
 3046.5000        12.3123        58.4855        -0.0030       161.4931       117.0693        60.5714         2.8075         2.5429         2.7310        40.4449         4.4155         0.0187         2.1810        65.5815        -9.2135        10.1716         1.0502     
 3047.0000        12.3514        57.8169        -0.0036       150.0961       117.8923        59.9665         2.8869         2.6107         2.7112        39.5461         4.2914         0.0186         2.1826        64.7090        -9.1184        10.0128         1.0200     
 3047.5000        12.3765        58.2801        -0.0037       124.1615       118.6462        59.7592         2.9731         2.6908         2.5791        39.8920         4.2895         0.0191         2.1827        65.5029        -9.0671         9.9522         1.0689     
 3048.0000        12.4433        58.4716        -0.0031       119.7385       117.3577        57.0745         3.0020         2.7391         2.5941        39.2354         4.2724         0.0195         2.1819        65.3372        -9.1574         9.8402         1.0161     
 3048.5000        12.3960        58.5309        -0.0021       117.3658       116.5194        55.4234         2.9877         2.7101         2.6827        38.0675         4.3728         0.0197         2.1821        64.9535        -9.2353         9.7354         0.9505     
 3049.0000        12.5408        58.6689        -0.0019       114.8741       114.9352        55.2163         2.9741         2.6846         2.6028        37.4287         4.3738         0.0199         2.1834        64.6392        -9.5931         9.6968         0.8836     
 3049.5000        13.0055        59.8703        -0.0004       114.9532       113.4384        58.7217         2.9580         2.6911         2.7313        38.6363         4.4405         0.0204         2.1821        65.7318       -10.0157         9.8579         0.8675     
 3050.0000        13.0217        60.4689         0.0028       115.1029       114.7383        61.5073         2.9398         2.6934         2.6494        40.8354         4.4629         0.0205         2.1842        66.2651       -10.3689        10.0023         0.8578     
 3050.5000        12.8036        60.4553         0.0062       113.3499       118.0153        61.1683         2.9332         2.6825         2.7616        42.1532         4.3695         0.0204         2.1885        66.1605       -10.4117        10.0552         0.8443     
 3051.0000        12.5357        60.2059         0.0078       119.7824       120.7067        59.3019         2.9541         2.6845         2.9013        41.5883         4.2966         0.0203         2.1932        66.1534       -10.2952        10.0240         0.8802     
 3051.5000        12.4652        60.3234         0.0092       120.0762       120.5455        56.4517         2.9577         2.6945         2.8689        40.2070         4.1155         0.0202         2.1969        66.2359        -9.9322        10.0846         0.8750     
 3052.0000        12.6367        59.5969         0.0109       118.6574       121.4407        55.7676         2.9818         2.6976         2.7830        39.4213         4.0468         0.0199         2.1974        64.9747        -9.7270         9.9965         0.7959     
 3052.5000        12.7188        58.4668         0.0127       117.6109       122.9514        54.5631         3.0258         2.7259         2.8376        38.6102         4.0671         0.0196         2.2087        62.9214        -9.9720         9.7753         0.6593     
 3053.0000        12.8492        57.5611         0.0139       116.5346       117.8603        53.2159         3.0778         2.7506         2.3418        38.5005         4.1764         0.0195         2.2274        61.6400        -9.9422         9.5348         0.6037     
 3053.5000        12.8397        57.6422         0.0164       120.5792       116.8342        52.1947         3.0906         2.7711         2.7712        36.6263         4.2770         0.0197         2.2455        62.4182        -9.7948         9.4859         0.7068     
 3054.0000        13.0713        57.0476         0.0174       128.5846       121.7153        51.6406         3.1008         2.8000         2.7204        38.2397         4.3918         0.0195         2.2495        62.1870        -9.4592         9.3974         0.7606     
 3054.5000        12.9057        57.6086         0.0132       128.3923       127.2885        53.1069         3.1383         2.8395         3.1872        39.1650         4.4443         0.0199         2.2453        64.1383        -9.4849         9.3913         0.9664     
