~Version Information Section
VERS.          2.0                                     : CWLS LOG ASCII Standard
WRAP.          NO                                      : One line per depth step
CREA.          27/11/15                                : LAS Creation Date
~Well Information Section
STRT.ft        2800.0000                               : Start Depth
STOP.ft        3400.0000                               : Stop Depth
STEP.ft        0.5000                                  : Step
NULL.          -999.2500                               : Null Value
COMP.          TEXACO                                  : Company
WELL.          13/22a-9A                               : Well
FLD .          CAPTAIN                                 : Field
LOC .          MORAY FIRTH                             : Location
LOC1.                                                  : Location (UTM)
CTRY.          UK                                      : Country
PROV.          UKCS                                    : Province
UWI .          17698                                   : UWI Number
API .                                                  : API Number
SECT.                                                  : Section
TOWN.                                                  : Township
RNGE.                                                  : Range
PDAT.          MSL                                     : Perm Datum
EPD .ft        0.00                                    : Elevation
LMF .          DF                                      : Log Measured From
DMF .          DF                                      : Drill Measured From
APD .ft        80.00                                   : Above Perm Datum
EKB .ft        -                                       : Elev-Kelly Bushing
EDF .ft        80.00                                   : Elev-Drill Floor
EGL .ft        -362.00                                 : Elev-Ground Level (Water Depth)
TDD .ft        3651.00                                 : Total Depth (Driller)
SRVC.          SCHLUMBERGER                            : Service Company
LATI.          58 18 30.945 N                          : Latitude
LONG.          01 42 58.729 W                          : Longitude
DATE.          FEB-MAR-1993                            : Logging Date
PROJ.          UKCS                                    : Project
SET .          COMP WIRE                               : Set
~Curve Information Section
DEPTH.ft                                               : Depth Curve
CALI.in                                                : Caliper
CGR.gAPI                                               : Computed Gamma Ray
DRHO.g/c3                                              : Density Correction
DTLF.us/ft                                             : Delta-T Long Spacing Far
DTLN.us/ft                                             : Delta-T Long Spacing Near
GR.gAPI                                                : Gamma Ray
LLD.ohmm                                               : Laterolog Deep Resistivity
LLS.ohmm                                               : Laterolog Shallow Resistivity
MSFL.ohmm                                              : Microspherically Focused log Resistivity
NPHI.%                                                 : Neutron Porosity
PEF.B/e                                                : Photo-Electric Factor
POTA.                                                  : Potassium
RHOB.g/c3                                              : Bulk Density
SGR.gAPI                                               : Spectroscopy Gamma-Ray
SP.mV                                                  : Spontaneous Potential
THOR.ppm                                               : Thorium
URAN.ppm                                               : Uranium
~ASCII Log Data Section
 2800.0000        12.3672        15.2843        -0.0028        80.7384        81.7540        17.6855        14.6853        13.4730        17.0659        20.0734         5.6147         0.0056         2.4663        20.9344       -12.4335         2.3513         0.8362     
 2800.5000        12.3672        14.7791        -0.0054        80.2387        80.4774        18.8235        15.4999        14.0592        21.6720        22.0342         5.4638         0.0056         2.4512        20.6299       -12.6535         2.1881         0.8659     
 2801.0000        12.3672        14.3954        -0.0053        78.3156        79.0232        18.9244        16.7325        15.0356        20.6617        21.8489         5.5017         0.0057         2.4464        20.5824       -13.1364         2.0243         0.9156     
 2801.5000        12.3672        12.4356        -0.0026        77.1234        77.6348        17.9154        17.7383        15.8495        24.6288        20.9931         5.6555         0.0057         2.4640        18.3045       -13.2562         1.4368         0.8686     
 2802.0000        12.3672        13.1711        -0.0015        76.9812        76.2079        15.9798        18.0295        16.0695        24.6884        18.8501         5.8208         0.0063         2.4809        20.0661       -12.8854         1.3890         1.0204     
 2802.5000        12.3672        13.3734        -0.0012        79.3981        76.5307        14.8207        17.7152        15.7353        18.9220        18.4919         5.6497         0.0063         2.4746        20.2921       -12.6268         1.4399         1.0239     
 2803.0000        12.3672        13.7641        -0.0020        82.5307        77.7169        16.1829        16.8201        14.9340        15.7168        18.4366         5.3133         0.0060         2.4486        20.6278       -12.6148         1.6843         1.0158     
 2803.5000        12.4044        14.4092        -0.0025        82.2267        79.5069        17.7166        15.9949        14.1084        14.6288        19.9371         5.0892         0.0059         2.4271        21.6318       -12.6353         1.9288         1.0689     
 2804.0000        12.4204        13.7545        -0.0011        82.5585        78.5119        17.3940        15.4262        13.4763        21.0496        20.7576         5.1235         0.0053         2.4337        21.0629       -12.3555         2.0022         1.0816     
 2804.5000        12.4653        13.1253         0.0006        83.2808        78.6500        15.6262        15.2519        13.1886        19.3576        21.0571         5.3736         0.0043         2.4606        20.7576       -12.6238         2.2419         1.1295     
 2805.0000        12.5093        12.8525         0.0019        82.3346        78.0768        15.2097        15.7091        13.5179        17.4697        18.7009         5.5765         0.0037         2.4898        20.6101       -12.9203         2.4347         1.1481     
 2805.5000        12.5156        13.2428         0.0026        81.8808        78.7038        16.3317        15.2443        13.1376        18.2638        16.8347         5.5993         0.0038         2.4939        20.8500       -12.8214         2.4972         1.1258     
 2806.0000        12.5156        14.5581        -0.0010        82.3500        80.1115        17.5451        14.7279        12.6058        16.8753        16.0682         5.4814         0.0046         2.4655        22.5400       -12.7173         2.5603         1.1813     
 2806.5000        12.5156        15.0694        -0.0054        82.0825        81.5696        18.0384        14.8148        12.5262        15.1053        18.2096         5.4069         0.0051         2.4349        23.1447       -12.6449         2.4839         1.1951     
 2807.0000        12.5156        15.4342        -0.0067        82.9551        80.5542        18.0757        14.4695        12.0834        14.1843        20.6944         5.5639         0.0056         2.4220        23.4383       -12.9203         2.4017         1.1846     
 2807.5000        12.5156        15.3218        -0.0065        82.7218        81.7038        18.6451        14.0494        11.6112        13.9232        22.4317         5.8868         0.0056         2.4237        22.9966       -12.7263         2.3525         1.1358     
 2808.0000        12.5156        15.9688        -0.0064        82.2328        81.9345        20.5800        14.3426        11.7827        14.6852        23.6572         6.1171         0.0055         2.4200        24.1812       -12.7610         2.6190         1.2154     
 2808.5000        12.5156        16.0832        -0.0044        82.4818        82.4852        22.1717        13.8909        11.4252        18.7860        23.7127         6.0289         0.0051         2.4158        24.6724       -12.6914         2.8102         1.2711     
 2809.0000        12.5156        16.6143        -0.0026        83.2000        84.4050        22.6505        12.5980        10.3339        18.6816        24.8960         5.8658         0.0051         2.4213        25.6600       -12.3335         2.9755         1.3387     
 2809.5000        12.5669        17.5734         0.0035        83.9500        90.9092        21.3405        12.0540         9.9480         9.8405        23.5827         5.7550         0.0055         2.4519        27.4964       -12.2440         3.0866         1.4685     
 2810.0000        12.6248        18.0048         0.0084        85.4624        96.1691        19.9339        10.8677         8.9864        14.2426        23.8620         5.9848         0.0059         2.4938        28.3611       -12.5459         3.0668         1.5327     
 2810.5000        12.6453        18.0539         0.0080        85.4098        87.9326        20.3513        10.1855         8.2952         6.6710        22.9006         6.2158         0.0060         2.5202        28.4199       -12.9429         3.0274         1.5341     
 2811.0000        12.6484        17.5542         0.0075        81.6308        84.8769        21.7094         9.9473         8.0539         9.5913        21.7100         6.2078         0.0057         2.5247        27.7234       -13.2220         3.0105         1.5050     
 2811.5000        12.6484        17.8049         0.0064        83.7792        87.4069        22.9862         8.6589         6.9928         7.5653        23.1646         6.3276         0.0056         2.5035        27.8879       -13.0970         3.1389         1.4922     
 2812.0000        12.7089        18.7940        -0.0003        94.0691        92.2038        22.4339         7.6858         6.2854         4.4719        25.8886         6.4432         0.0059         2.4778        29.0200       -13.3737         3.3123         1.5134     
 2812.5000        12.7779        17.8310        -0.0024        95.2984        92.4039        21.1887         7.6998         6.3505         7.5128        28.5991         6.6173         0.0053         2.4824        26.8697       -13.9079         3.2594         1.3377     
 2813.0000        12.7969        15.9044         0.0013        96.4467        90.1342        20.4632         7.8288         6.4661        10.3462        24.9227         6.5019         0.0045         2.5199        22.6999       -14.1274         3.0090         1.0057     
 2813.5000        12.7969        15.2095         0.0027        96.5113        89.5811        20.2111         8.9012         7.2669        10.1107        20.2281         6.3916         0.0044         2.5554        20.7553       -14.6842         2.8605         0.8208     
 2814.0000        12.8109        15.7285         0.0023        96.5113        85.1308        18.5554        10.3848         8.3027         9.3752        17.5633         6.5418         0.0046         2.5706        21.2880       -15.5632         2.9081         0.8228     
 2814.5000        12.8809        15.7160         0.0025        96.5113        84.9308        17.1925        10.6605         8.4640         8.9553        17.6105         6.5464         0.0048         2.5751        20.8766       -16.0632         2.8412         0.7637     
