~Version Information Section
VERS.          2.0                                     : CWLS LOG ASCII Standard
WRAP.          NO                                      : One line per depth step
CREA.          27/11/15                                : LAS Creation Date
~Well Information Section
STRT.ft        2800.0000                               : Start Depth
STOP.ft        3400.0000                               : Stop Depth
STEP.ft        0.5000                                  : Step
NULL.          -999.2500                               : Null Value
COMP.          TEXACO                                  : Company
WELL.          13/22a-9A                               : Well
FLD .          CAPTAIN                                 : Field
LOC .          MORAY FIRTH                             : Location
LOC1.                                                  : Location (UTM)
CTRY.          UK                                      : Country
PROV.          UKCS                                    : Province
UWI .          17698                                   : UWI Number
API .                                                  : API Number
SECT.                                                  : Section
TOWN.                                                  : Township
RNGE.                                                  : Range
PDAT.          MSL                                     : Perm Datum
EPD .ft        0.00                                    : Elevation
LMF .          DF                                      : Log Measured From
DMF .          DF                                      : Drill Measured From
APD .ft        80.00                                   : Above Perm Datum
EKB .ft        -                                       : Elev-Kelly Bushing
EDF .ft        80.00                                   : Elev-Drill Floor
EGL .ft        -362.00                                 : Elev-Ground Level (Water Depth)
TDD .ft        3651.00                                 : Total Depth (Driller)
SRVC.          SCHLUMBERGER                            : Service Company
LATI.          58 18 30.945 N                          : Latitude
LONG.          01 42 58.729 W                          : Longitude
DATE.          FEB-MAR-1993                            : Logging Date
PROJ.          UKCS                                    : Project
SET .          COMP WIRE                               : Set
~Curve Information Section
DEPTH.ft                                               : Depth Curve
CALI.in                                                : Caliper
CGR.gAPI                                               : Computed Gamma Ray
DRHO.g/c3                                              : Density Correction
DTLF.us/ft                                             : Delta-T Long Spacing Far
DTLN.us/ft                                             : Delta-T Long Spacing Near
GR.gAPI                                                : Gamma Ray
LLD.ohmm                                               : Laterolog Deep Resistivity
LLS.ohmm                                               : Laterolog Shallow Resistivity
MSFL.ohmm                                              : Microspherically Focused log Resistivity
NPHI.%                                                 : Neutron Porosity
PEF.B/e                                                : Photo-Electric Factor
POTA.                                                  : Potassium
RHOB.g/c3                                              : Bulk Density
SGR.gAPI                                               : Spectroscopy Gamma-Ray
SP.mV                                                  : Spontaneous Potential
THOR.ppm                                               : Thorium
URAN.ppm                                               : Uranium
~ASCII Log Data Section
# ...
 3070.0000        12.3129        36.4925        -0.0011       110.3764       111.7367        41.3756         2.7424         2.5384         2.3729        36.4022         4.7677         0.0150         2.1282        49.1337        -7.7043         4.8845         1.8708     
 3070.5000        12.0922        46.6507        -0.0023       117.2209       116.9328        47.1160         2.5760         2.3985         2.1453        36.5010         4.7686         0.0177         2.1021        63.7243        -7.5239         6.9212         2.5268     
 3071.0000        12.1511        51.9428        -0.0044       121.9100       122.6606        62.7603         2.5197         2.3576         2.2837        39.1038         4.9629         0.0178         2.0594        90.5167        -7.7746         8.5347         5.7087     
 3071.5000        12.1860        54.0030        -0.0024       127.3981       129.3793        86.1516         2.5654         2.3740         2.8246        43.2406         5.2162         0.0163         2.0155       112.8028        -8.4522         9.8186         8.7020     
 3072.0000        12.2728        59.9316         0.0005       131.2238       133.4733       111.3932         2.7095         2.4675         2.9439        47.5520         5.3197         0.0163         1.9975       127.5958        -9.1495        11.6648        10.0139     
 3072.5000        12.2707        63.2444         0.0020       133.3692       134.4577       122.6442         2.8000         2.5388         3.7976        47.6667         5.1644         0.0167         2.0020       134.0980        -9.6628        12.5279        10.4859     
 3073.0000        12.2266        62.1716         0.0026       136.1342       136.0806       121.8535         2.5570         2.3587         3.3956        48.3590         4.8809         0.0160         2.0225       132.5419       -10.2311        12.5025        10.4143     
 3073.5000        12.2266        60.3499         0.0017       138.1769       138.1499       114.5530         2.2626         2.0879         2.2959        50.0679         4.8032         0.0151         2.0480       129.7529       -10.3342        12.3027        10.2712     
 3074.0000        12.2359        57.0803        -0.0001       136.8308       139.2116       110.2693         2.0609         1.9162         2.1550        51.7846         5.0213         0.0145         2.0772       118.5963       -10.3385        11.5545         9.1039     
 3074.5000        12.2329        55.7134         0.0012       132.1236       135.9848       107.9789         1.9493         1.8265         2.5476        49.3684         5.1530         0.0146         2.1060       112.0799       -10.2435        11.0718         8.3419     
 3075.0000        12.2405        55.4143         0.0047       130.6966       133.7125       107.4568         2.0456         1.9073         2.6067        45.1698         5.1599         0.0149         2.1186       111.4042        -9.9545        10.8497         8.2861     
 3075.5000        12.2780        59.5724         0.0048       128.7400       130.0350       113.2872         2.2795         2.1427         2.7534        43.2529         5.1230         0.0192         2.1033       118.9397        -9.7263        10.3004         8.7860     
 3076.0000        12.2969        63.5864         0.0010       125.4562       129.1621       123.6493         2.4964         2.3331         3.4844        45.6820         5.1399         0.0229         2.0750       144.4094        -9.4759         9.9516        11.9613     
 3076.5000        12.2549        65.3525         0.0011       124.2184       128.5553       133.8032         2.6340         2.4505         3.2449        48.9950         4.8825         0.0240         2.0765       159.7733        -8.9671        10.0419        13.9737     
 3077.0000        12.2452        63.3387         0.0015       110.0228       121.2345       128.0070         2.8486         2.6391         3.0541        47.1037         4.5119         0.0238         2.1177       137.0876        -8.4883         9.4985        10.9143     
 3077.5000        12.2392        45.0861        -0.0005       107.0395       111.4770       103.5240         3.0927         2.8851         2.2643        39.1397         4.1951         0.0177         2.1760        93.7915        -7.6815         6.4294         7.2081     
 3078.0000        12.2266        28.1146        -0.0034       100.1820       102.0384        69.5276         3.1998         3.0236         2.3061        31.1116         4.0267         0.0130         2.2103        55.4716        -6.8115         3.1560         4.0487     
 3078.5000        12.2079        23.6671        -0.0042        95.0296        94.1059        45.6009         3.2926         3.1523         2.7016        26.6109         3.9889         0.0123         2.2123        41.1229        -6.2902         2.0778         2.5833     
 3079.0000        12.2279        23.5397        -0.0045        93.8231        92.8308        38.6710         3.3284         3.2156         5.7387        27.4054         4.0408         0.0122         2.1985        41.1131        -5.8855         2.0660         2.6007     
 3079.5000        12.2360        25.6165        -0.0005        95.1384        94.8890        44.8604         3.2302         3.1180         8.4201        26.9816         4.1715         0.0131         2.1852        44.7261        -5.8646         2.3403         2.8281     
 3080.0000        12.2917        50.2665         0.0043        98.8614        95.7845        63.9839         3.1138         3.0021         5.1958        25.3088         4.5003         0.0201         2.1784        74.2605        -6.3608         6.9887         3.5510     
 3080.5000        12.3546        72.5647         0.0047       106.8884       103.8768        99.7758         3.0541         2.9114         6.5164        30.3803         4.8092         0.0276         2.1742       131.2278        -7.3356        10.7089         8.6818     
 3081.0000        12.4277        79.7995         0.0030       111.7414       110.7064       142.9792         3.0893         2.9383         4.0018        37.6275         4.9276         0.0308         2.1804       183.6615        -8.4515        11.5718        15.3709     
 3081.5000        12.4268        87.1637         0.0027       118.9893       119.3119       174.1899         3.0236         2.8772         5.4525        45.3471         4.8819         0.0336         2.2013       209.8686        -9.1278        12.6657        18.1595     
 3082.0000        12.4450        87.7428         0.0032       124.8464       125.5114       181.2072         2.8084         2.6898         4.2172        44.9660         4.8323         0.0336         2.2352       210.5977        -9.5889        12.8514        18.1817     
 3082.5000        12.4999        81.7357         0.0042       123.4889       124.9575       172.6405         2.6635         2.5552         2.9657        44.3430         4.9346         0.0309         2.2796       195.0856       -10.0632        12.1330        16.7750     
 3083.0000        12.5296        78.6034         0.0060       122.1376       122.7654       155.3834         2.5691         2.4943         3.0709        44.2710         4.8197         0.0302         2.3212       177.1376       -10.5373        11.4825        14.5824     
 3083.5000        12.5204        77.6175         0.0087       120.2841       123.0466       139.6952         2.4475         2.3833         3.5399        44.1719         4.8137         0.0293         2.3587       157.3900       -10.9429        11.5696        11.8058     
 3084.0000        12.5125        74.8699         0.0166       119.6040       124.6011       126.2158         2.4903         2.4196         3.7413        41.9541         5.0221         0.0274         2.3953       140.7704       -11.3172        11.5040         9.7528     
 3084.5000        12.5249        70.4987         0.0181       118.7257       123.7008       118.1669         2.6390         2.5498         3.7560        39.0815         5.3329         0.0254         2.4252       128.4695       -11.2433        11.0235         8.5793     
