~Version Information Section
VERS.          2.0                                     : CWLS LOG ASCII Standard
WRAP.          NO                                      : One line per depth step
CREA.          27/11/15                                : LAS Creation Date
~Well Information Section
STRT.ft        2800.0000                               : Start Depth
STOP.ft        3400.0000                               : Stop Depth
STEP.ft        0.5000                                  : Step
NULL.          -999.2500                               : Null Value
COMP.          TEXACO                                  : Company
WELL.          13/22a-9A                               : Well
FLD .          CAPTAIN                                 : Field
LOC .          MORAY FIRTH                             : Location
LOC1.                                                  : Location (UTM)
CTRY.          UK                                      : Country
PROV.          UKCS                                    : Province
UWI .          17698                                   : UWI Number
API .                                                  : API Number
SECT.                                                  : Section
TOWN.                                                  : Township
RNGE.                                                  : Range
PDAT.          MSL                                     : Perm Datum
EPD .ft        0.00                                    : Elevation
LMF .          DF                                      : Log Measured From
DMF .          DF                                      : Drill Measured From
APD .ft        80.00                                   : Above Perm Datum
EKB .ft        -                                       : Elev-Kelly Bushing
EDF .ft        80.00                                   : Elev-Drill Floor
EGL .ft        -362.00                                 : Elev-Ground Level (Water Depth)
TDD .ft        3651.00                                 : Total Depth (Driller)
SRVC.          SCHLUMBERGER                            : Service Company
LATI.          58 18 30.945 N                          : Latitude
LONG.          01 42 58.729 W                          : Longitude
DATE.          FEB-MAR-1993                            : Logging Date
PROJ.          UKCS                                    : Project
SET .          COMP WIRE                               : Set
~Curve Information Section
DEPTH.ft                                               : Depth Curve
CALI.in                                                : Caliper
CGR.gAPI                                               : Computed Gamma Ray
DRHO.g/c3                                              : Density Correction
DTLF.us/ft                                             : Delta-T Long Spacing Far
DTLN.us/ft                                             : Delta-T Long Spacing Near
GR.gAPI                                                : Gamma Ray
LLD.ohmm                                               : Laterolog Deep Resistivity
LLS.ohmm                                               : Laterolog Shallow Resistivity
MSFL.ohmm                                              : Microspherically Focused log Resistivity
NPHI.%                                                 : Neutron Porosity
PEF.B/e                                                : Photo-Electric Factor
POTA.                                                  : Potassium
RHOB.g/c3                                              : Bulk Density
SGR.gAPI                                               : Spectroscopy Gamma-Ray
SP.mV                                                  : Spontaneous Potential
THOR.ppm                                               : Thorium
URAN.ppm                                               : Uranium
~ASCII Log Data Section
# ...
 3145.0000        12.0859        85.5110        -0.0043       129.0020       132.0788       150.8465         2.9728         3.1091         4.5499        40.7347         5.0725         0.0317         2.1890       173.4150        -8.8381        12.9713        13.0092     
 3145.5000        12.0859        80.8708         0.0116       129.1566       120.9531       146.2170         3.1283         3.2448         4.5161        39.8219         5.7191         0.0300         2.1975       166.6265        -8.4112        12.2867        12.6913     
 3146.0000        12.0813        77.2667         0.0312       144.5654       111.6425       136.0531         3.6249         3.6965         4.2950        39.3006         6.4304         0.0287         2.2150       161.1830        -7.9154        11.7058        12.4190     
 3146.5000        12.0735        72.4771         0.0376       139.5469       104.6101       122.8277         4.2885         4.3089         9.7327        38.0048         6.7656         0.0277         2.2444       143.2722        -7.3205        10.6535        10.4772     
 3147.0000        12.0796        67.5341         0.0389       124.0777       102.0524       106.4229         4.6318         4.5339        15.1189        36.1302         6.6505         0.0264         2.2845       121.9964        -6.5310         9.6757         8.0601     
 3147.5000        12.0300        60.1053         0.0279       104.2474        99.1109        87.2273         4.3011         4.0753         4.3157        31.9699         6.5860         0.0253         2.2938        92.7350        -5.7078         7.8116         4.8290     
 3148.0000        12.0108        53.6382         0.0020       101.8367        99.5595        67.9452         3.4895         3.2793         3.7861        28.2518         6.6904         0.0245         2.2504        67.0871        -5.0011         6.1210         1.9903     
 3148.5000        11.9769        47.0532        -0.0132       105.2307       103.4357        54.0001         2.6490         2.5277         2.5126        26.7302         6.7344         0.0237         2.2175        53.3719        -4.4194         4.4493         0.9351     
 3149.0000        11.9453        43.8118        -0.0142       104.6846       105.0961        45.9639         2.2505         2.1416         2.3517        26.5848         6.7456         0.0233         2.2071        49.0322        -3.9629         3.5825         0.7726     
 3149.5000        11.9453        43.2165        -0.0144       103.5885       103.9654        41.1982         2.1326         2.0031         2.3507        26.9133         6.6822         0.0231         2.2074        48.1521        -3.5836         3.5062         0.7304     
 3150.0000        11.9453        42.9888        -0.0144       101.5116       101.4731        40.4712         2.0969         1.9668         2.2850        26.3544         6.5307         0.0229         2.2072        47.7408        -3.3038         3.4930         0.7033     
 3150.5000        11.9453        42.4653        -0.0146        99.0806       100.2038        40.9275         2.0799         1.9556         2.3220        25.8101         6.3278         0.0226         2.2052        47.0402        -2.9327         3.4570         0.6771     
 3151.0000        11.9453        44.3528        -0.0152        99.2115       100.5729        42.3781         2.0676         1.9491         2.3559        26.0827         6.0417         0.0229         2.2030        49.9647        -2.3942         3.9195         0.8305     
 3151.5000        11.9453        44.2861        -0.0153        98.7920       100.2080        42.8854         2.0632         1.9361         2.2951        25.8356         6.0163         0.0227         2.2035        49.5243        -2.2695         3.9934         0.7752     
 3152.0000        11.9453        44.0145        -0.0156       100.3072        99.3851        44.0775         2.0524         1.9081         2.1422        26.7282         6.1330         0.0226         2.2068        48.7174        -2.0966         3.9580         0.6960     
 3152.5000        11.9453        44.9423        -0.0168       101.4269       100.9923        43.8762         2.0446         1.8776         2.1307        26.4459         6.4946         0.0229         2.2031        49.8459        -1.8300         4.1309         0.7257     
 3153.0000        11.9453        45.9225        -0.0170       102.7649       102.5418        44.3614         2.0262         1.8308         2.0500        27.0862         6.9416         0.0233         2.1937        50.8992        -1.8599         4.2384         0.7365     
 3153.5000        11.9453        45.9916        -0.0132       102.7000       103.1386        43.4811         1.9897         1.7888         1.9631        25.8215         7.6174         0.0236         2.1781        50.4725        -1.7696         4.1466         0.6632     
 3154.0000        11.9453        45.8941        -0.0074       103.3585       103.6426        44.0071         1.9618         1.7480         1.9543        26.0080         8.3571         0.0237         2.1633        49.9623        -1.8342         4.0851         0.6021     
 3154.5000        11.9453        45.3286        -0.0044       104.1148       104.5159        44.2120         1.9620         1.7089         1.9849        27.0592         8.2454         0.0236         2.1552        49.0231        -1.6957         3.9397         0.5468     
 3155.0000        11.9453        45.7451        -0.0009       103.9624       105.3000        45.0904         1.9753         1.7007         2.0245        29.2985         7.6982         0.0238         2.1587        49.7744        -1.4287         3.9575         0.5963     
 3155.5000        11.9453        47.1538         0.0009       105.3308       105.0232        46.2488         2.0059         1.7257         2.0829        29.7807         7.0160         0.0245         2.1781        51.9528        -1.2477         4.1047         0.7102     
 3156.0000        11.9453        47.8739        -0.0028       105.8920       105.1574        47.7704         2.0522         1.7524         2.1356        28.7964         6.7805         0.0250         2.1879        53.0109        -1.1445         4.1225         0.7602     
 3156.5000        11.9453        47.7515        -0.0087       106.3693       106.2269        47.5661         2.0909         1.7767         2.2069        27.6513         6.4316         0.0251         2.1900        53.0031        -1.0191         4.0293         0.7772     
 3157.0000        11.9453        46.6225        -0.0117       104.1426       105.0350        45.3374         2.1075         1.7788         2.2114        27.1833         6.0500         0.0248         2.1852        51.6991        -0.8731         3.8136         0.7513     
 3157.5000        11.9453        46.0099        -0.0148       103.0043       103.1238        42.9611         2.1180         1.7758         2.2209        26.9804         5.8544         0.0247         2.1797        51.2462        -1.0281         3.6761         0.7749     
 3158.0000        11.9453        45.7932        -0.0155       102.8886       102.4616        46.1822         2.1215         1.7752         2.2014        27.0048         5.9158         0.0248         2.1780        51.0187        -1.0628         3.5583         0.7733     
 3158.5000        11.9453        45.0809        -0.0151       102.2310       102.2001        49.6302         2.1105         1.7619         2.2000        27.3503         6.0605         0.0246         2.1752        50.1873        -1.1099         3.4018         0.7557     
 3159.0000        11.9453        45.3338        -0.0152       102.1346       102.2692        51.9988         2.1028         1.7473         2.1460        27.2521         6.1791         0.0249         2.1747        50.8592        -1.1622         3.3856         0.8177     
 3159.5000        11.9453        45.4017        -0.0135       102.2346       102.5384        49.7505         2.0948         1.7256         2.1115        27.8734         6.2183         0.0249         2.1775        51.0954        -1.5414         3.3911         0.8426     
