~Version Information Section
VERS.          2.0                                     : CWLS LOG ASCII Standard
WRAP.          NO                                      : One line per depth step
CREA.          27/11/15                                : LAS Creation Date
~Well Information Section
STRT.ft        2800.0000                               : Start Depth
STOP.ft        3400.0000                               : Stop Depth
STEP.ft        0.5000                                  : Step
NULL.          -999.2500                               : Null Value
COMP.          TEXACO                                  : Company
WELL.          13/22a-9A                               : Well
FLD .          CAPTAIN                                 : Field
LOC .          MORAY FIRTH                             : Location
LOC1.                                                  : Location (UTM)
CTRY.          UK                                      : Country
PROV.          UKCS                                    : Province
UWI .          17698                                   : UWI Number
API .                                                  : API Number
SECT.                                                  : Section
TOWN.                                                  : Township
RNGE.                                                  : Range
PDAT.          MSL                                     : Perm Datum
EPD .ft        0.00                                    : Elevation
LMF .          DF                                      : Log Measured From
DMF .          DF                                      : Drill Measured From
APD .ft        80.00                                   : Above Perm Datum
EKB .ft        -                                       : Elev-Kelly Bushing
EDF .ft        80.00                                   : Elev-Drill Floor
EGL .ft        -362.00                                 : Elev-Ground Level (Water Depth)
TDD .ft        3651.00                                 : Total Depth (Driller)
SRVC.          SCHLUMBERGER                            : Service Company
LATI.          58 18 30.945 N                          : Latitude
LONG.          01 42 58.729 W                          : Longitude
DATE.          FEB-MAR-1993                            : Logging Date
PROJ.          UKCS                                    : Project
SET .          COMP WIRE                               : Set
~Curve Information Section
DEPTH.ft                                               : Depth Curve
CALI.in                                                : Caliper
CGR.gAPI                                               : Computed Gamma Ray
DRHO.g/c3                                              : Density Correction
DTLF.us/ft                                             : Delta-T Long Spacing Far
DTLN.us/ft                                             : Delta-T Long Spacing Near
GR.gAPI                                                : Gamma Ray
LLD.ohmm                                               : Laterolog Deep Resistivity
LLS.ohmm                                               : Laterolog Shallow Resistivity
MSFL.ohmm                                              : Microspherically Focused log Resistivity
NPHI.%                                                 : Neutron Porosity
PEF.B/e                                                : Photo-Electric Factor
POTA.                                                  : Potassium
RHOB.g/c3                                              : Bulk Density
SGR.gAPI                                               : Spectroscopy Gamma-Ray
SP.mV                                                  : Spontaneous Potential
THOR.ppm                                               : Thorium
URAN.ppm                                               : Uranium
~ASCII Log Data Section
# ...
 3115.0000        12.6479        40.9200         0.0489       143.6629       128.5169        45.5950         1.9793         1.7765         2.2174        42.2822         6.2395         0.0126         2.1300        49.5555        -9.4983         7.3323         1.2780     
 3115.5000        12.5872        40.5319         0.0639       127.2773       129.9950        46.7657         1.9158         1.7148         2.1224        44.0289         5.9961         0.0126         2.1454        49.0437        -9.7959         7.2023         1.2597     
 3116.0000        12.6203        39.9041         0.0655       123.9879       124.5652        43.8858         1.9344         1.7381         2.3659        45.7420         6.0073         0.0126         2.1414        48.2341        -9.7646         7.0171         1.2328     
 3116.5000        12.7243        39.5247         0.0548       116.1069       116.3059        40.7174         2.0560         1.8407        10.4543        46.0919         5.7225         0.0126         2.1290        47.4594        -9.3378         6.8898         1.1743     
 3117.0000        12.4522        39.6542         0.0361       112.4808       111.8808        38.3233         2.2415         1.9855        17.5258        48.2705         4.8991         0.0128         2.1294        47.4185        -8.9111         6.8598         1.1491     
 3117.5000        12.1396        35.8182         0.0169       106.6121       108.7848        37.5313         2.4030         2.1143         5.0699        47.2327         4.1058         0.0137         2.1515        43.0891        -8.3204         5.2761         1.0760     
 3118.0000        12.0859        33.3249         0.0096       104.9076       107.9654        36.9567         2.4470         2.1379         2.9948        42.0853         3.7757         0.0144         2.1819        40.7212        -8.1018         4.1677         1.0946     
 3118.5000        12.0906        30.4099         0.0028       106.9654       106.2039        37.5565         2.3569         2.0411         2.5114        36.1212         4.0480         0.0131         2.1858        36.5836        -8.3946         3.8427         0.9137     
 3119.0000        12.1729        29.0998        -0.0059       103.5092       103.5536        38.6275         2.2201         1.9399         1.8574        31.6273         4.4265         0.0122         2.1723        34.5377        -7.8677         3.8041         0.8048     
 3119.5000        12.2359        31.2940        -0.0079        94.0922       104.1152        37.3971         2.1773         1.9075         1.6093        31.2175         4.5487         0.0125         2.1607        38.2276        -7.0363         4.3496         1.0261     
 3120.0000        12.2841        32.0626        -0.0035        88.2270       101.0548        34.9896         2.2076         1.9304         2.5238        31.6865         4.6066         0.0123         2.1698        39.7844        -6.9421         4.6861         1.1428     
 3120.5000        12.2612        32.0944         0.0031        92.3653        95.3055        32.8780         2.2746         1.9871         3.1048        32.5936         4.8209         0.0123         2.1908        39.7093        -6.9373         4.6913         1.1270     
 3121.0000        12.2638        33.3902         0.0098       102.5328        93.7635        32.7931         2.4215         2.0853         2.3959        30.8861         5.1474         0.0133         2.2107        41.1806        -6.5359         4.6706         1.1529     
 3121.5000        12.4288        32.9629         0.0134       108.6417        95.0632        33.9081         2.5774         2.1999         2.4157        28.0527         4.9593         0.0137         2.2055        40.1976        -6.0878         4.3617         1.0707     
 3122.0000        12.3418        32.2904         0.0137       117.5695        97.2142        32.9254         2.6546         2.2248         2.3086        26.3657         4.5069         0.0138         2.1810        38.9830        -5.2802         4.0965         0.9905     
 3122.5000        12.1675        30.7802         0.0124       126.9685       108.7357        31.3980         2.6540         2.2285         2.0937        27.7438         4.2566         0.0138         2.1580        36.1994        -4.3421         3.6184         0.8020     
 3123.0000        12.6405        28.6001         0.0096       133.3169       111.2971        28.0816         2.5809         2.2097         1.5768        31.7845         4.3721         0.0135         2.1487        32.6432        -3.7419         3.1031         0.5984     
 3123.5000        12.6444        27.4960         0.0053       133.2385       111.4500        26.1520         2.5113         2.1849         2.1964        34.6205         4.6759         0.0132         2.1460        30.9592        -3.0062         2.8843         0.5125     
 3124.0000        12.3209        27.2233         0.0032       134.6975       111.5989        25.2368         2.4964         2.1408         2.4673        35.0019         4.6784         0.0131         2.1468        30.6012        -2.8684         2.8090         0.4999     
 3124.5000        12.1508        27.9226         0.0018       138.4658       116.9769        26.1947         2.5432         2.1756         1.9567        33.2662         4.3015         0.0136         2.1521        31.6719        -2.7696         2.8355         0.5549     
 3125.0000        12.0781        27.1650         0.0007       125.3153       115.5270        25.7332         2.6388         2.2681         1.2980        31.0605         3.7809         0.0132         2.1641        30.6846        -2.8817         2.7470         0.5209     
 3125.5000        11.9990        26.2651         0.0011       130.8494       109.7586        25.6773         2.6796         2.2954         1.8274        29.5552         3.5966         0.0128         2.1774        29.2668        -2.7216         2.6404         0.4442     
 3126.0000        11.9453        27.1614         0.0027       128.8664       105.8669        26.5038         2.7095         2.3213         1.5974        28.4865         3.6765         0.0132         2.1855        30.2239        -2.6924         2.7523         0.4532     
 3126.5000        11.9686        28.5944         0.0034       120.2308       107.4608        28.7118         2.7690         2.3829         1.9616        28.2764         3.8113         0.0137         2.1858        31.9819        -3.1360         2.9954         0.5013     
 3127.0000        12.0263        28.6330         0.0028       119.6501       109.8373        29.2868         2.7990         2.4258         2.3687        29.2995         3.8196         0.0137         2.1861        31.5020        -3.1403         3.0094         0.4246     
 3127.5000        12.1013        28.4740         0.0025       119.6317       109.3010        27.3665         2.8066         2.4673         1.9852        29.3735         3.6899         0.0136         2.1891        30.7828        -3.4947         3.0208         0.3417     
 3128.0000        12.1282        28.2722         0.0009       119.6058       114.0497        25.3542         2.8101         2.5040         1.8499        28.7340         3.6280         0.0134         2.1932        30.1246        -3.9855         3.0279         0.2741     
 3128.5000        12.1203        28.0517        -0.0041       112.9958       120.3891        23.1573         2.8282         2.5207         2.0701        27.9529         3.7260         0.0132         2.2071        29.5210        -4.1794         3.0504         0.2174     
 3129.0000        12.1777        30.4686        -0.0066       100.9324       124.4457        21.9219         2.8888         2.5512         1.8702        27.8867         4.1126         0.0134         2.2540        33.8207        -4.5203         3.7138         0.4961     
 3129.5000        12.3166        32.2677         0.0014        91.6931       127.5048        23.1944         3.0329         2.6418         1.8032        26.8251         4.6753         0.0138         2.3142        37.0953        -5.3449         4.1178         0.7145     
