~Version Information Section
VERS.          2.0                                     : CWLS LOG ASCII Standard
WRAP.          NO                                      : One line per depth step
CREA.          27/11/15                                : LAS Creation Date
~Well Information Section
STRT.ft        2800.0000                               : Start Depth
STOP.ft        3400.0000                               : Stop Depth
STEP.ft        0.5000                                  : Step
NULL.          -999.2500                               : Null Value
COMP.          TEXACO                                  : Company
WELL.          13/22a-9A                               : Well
FLD .          CAPTAIN                                 : Field
LOC .          MORAY FIRTH                             : Location
LOC1.                                                  : Location (UTM)
CTRY.          UK                                      : Country
PROV.          UKCS                                    : Province
UWI .          17698                                   : UWI Number
API .                                                  : API Number
SECT.                                                  : Section
TOWN.                                                  : Township
RNGE.                                                  : Range
PDAT.          MSL                                     : Perm Datum
EPD .ft        0.00                                    : Elevation
LMF .          DF                                      : Log Measured From
DMF .          DF                                      : Drill Measured From
APD .ft        80.00                                   : Above Perm Datum
EKB .ft        -                                       : Elev-Kelly Bushing
EDF .ft        80.00                                   : Elev-Drill Floor
EGL .ft        -362.00                                 : Elev-Ground Level (Water Depth)
TDD .ft        3651.00                                 : Total Depth (Driller)
SRVC.          SCHLUMBERGER                            : Service Company
LATI.          58 18 30.945 N                          : Latitude
LONG.          01 42 58.729 W                          : Longitude
DATE.          FEB-MAR-1993                            : Logging Date
PROJ.          UKCS                                    : Project
SET .          COMP WIRE                               : Set
~Curve Information Section
DEPTH.ft                                               : Depth Curve
CALI.in                                                : Caliper
CGR.gAPI                                               : Computed Gamma Ray
DRHO.g/c3                                              : Density Correction
DTLF.us/ft                                             : Delta-T Long Spacing Far
DTLN.us/ft                                             : Delta-T Long Spacing Near
GR.gAPI                                                : Gamma Ray
LLD.ohmm                                               : Laterolog Deep Resistivity
LLS.ohmm                                               : Laterolog Shallow Resistivity
MSFL.ohmm                                              : Microspherically Focused log Resistivity
NPHI.%                                                 : Neutron Porosity
PEF.B/e                                                : Photo-Electric Factor
POTA.                                                  : Potassium
RHOB.g/c3                                              : Bulk Density
SGR.gAPI                                               : Spectroscopy Gamma-Ray
SP.mV                                                  : Spontaneous Potential
THOR.ppm                                               : Thorium
URAN.ppm                                               : Uranium
~ASCII Log Data Section
# ...
 3190.0000        11.9453        47.8243        -0.0136       104.1812       103.6236        49.6432         2.2584         1.9291         2.4724        27.1574         5.1969         0.0261         2.2208        61.6815         0.2172         3.6445         2.0508     
 3190.5000        11.9453        47.3872        -0.0133       102.6118       102.4772        47.3666         2.3396         2.0146         2.5057        26.4040         4.9638         0.0257         2.2242        61.7360        -0.4254         3.6790         2.1235     
 3191.0000        11.9453        47.9510        -0.0129       100.8427       100.8159        48.3665         2.4230         2.0589         2.5237        25.6787         4.6521         0.0256         2.2276        63.0025        -0.8646         3.9008         2.2275     
 3191.5000        11.9453        46.8606        -0.0125        99.8773        99.7614        50.7664         2.4915         2.0845         2.6605        24.4861         4.4490         0.0248         2.2297        61.5033        -0.8164         3.8718         2.1670     
 3192.0000        11.9453        45.6095        -0.0120        99.9842        99.4653        52.5811         2.4884         2.1068         2.6305        24.2526         4.3561         0.0243         2.2323        59.3643        -0.8393         3.7338         2.0356     
 3192.5000        11.9453        45.2969        -0.0101        99.3386        99.2267        52.9152         2.4444         2.0677         2.4154        23.9490         4.4270         0.0242         2.2323        58.4746        -1.2397         3.6624         1.9502     
 3193.0000        11.9453        44.1843        -0.0081        99.7733        99.1426        52.4406         2.3881         2.0220         2.3236        24.1840         4.4934         0.0237         2.2293        56.8850        -1.3818         3.5274         1.8796     
 3193.5000        11.9453        42.7496        -0.0090       100.2385        99.9808        53.0841         2.3247         1.9870         2.4252        23.4156         4.5531         0.0230         2.2243        55.5091        -1.2215         3.4071         1.8883     
 3194.0000        11.9453        41.5734        -0.0097       100.3269       100.3885        51.7487         2.2996         1.9735         2.5097        23.9681         4.5434         0.0223         2.2253        54.6283        -1.0025         3.3179         1.9320     
 3194.5000        11.9453        42.3409        -0.0075        99.7577        99.6270        51.1130         2.3402         1.9857         2.5533        23.6378         4.5710         0.0226         2.2326        56.2774        -1.1531         3.4462         2.0625     
 3195.0000        11.9453        43.8843        -0.0061        99.2654        99.1269        51.0313         2.3898         2.0435         2.5294        24.6339         4.6741         0.0232         2.2374        58.6284        -1.0452         3.6406         2.1820     
 3195.5000        11.9453        44.7629        -0.0068        99.0961        98.7654        52.4266         2.3930         2.0384         2.4038        24.0923         4.6819         0.0236         2.2347        59.7096        -1.0628         3.7581         2.2120     
 3196.0000        11.9453        44.4161        -0.0062        99.1422        99.1152        55.1598         2.3355         1.9663         2.3700        24.2710         4.6936         0.0235         2.2267        58.9593        -0.9674         3.7022         2.1523     
 3196.5000        11.9453        43.2906        -0.0067       100.4305       100.3843        56.0143         2.2289         1.8901         2.3161        24.0524         4.7703         0.0231         2.2151        57.1613        -0.8000         3.4951         2.0528     
 3197.0000        11.9453        42.9726        -0.0090       102.7961       102.2000        56.3835         2.1114         1.8268         2.0908        24.3670         5.0445         0.0233         2.2004        56.8662        -0.9763         3.3363         2.0562     
 3197.5000        11.9453        44.3671        -0.0117       104.6455       104.6955        54.4177         2.0109         1.7235         2.0342        25.7801         5.4105         0.0241         2.1893        59.2216        -0.7045         3.3958         2.1984     
 3198.0000        11.9453        44.8343        -0.0134       105.2653       106.0960        53.2240         1.9703         1.6702         2.0860        26.7349         5.6362         0.0246         2.1837        59.8936        -0.6666         3.3278         2.2287     
 3198.5000        11.9453        42.2207        -0.0135       104.7841       105.1722        51.3094         1.9819         1.6806         2.0912        28.7440         5.5583         0.0240         2.1854        55.7097        -0.7560         2.7742         1.9963     
 3199.0000        11.9453        42.7099        -0.0127       103.5148       103.1762        50.3524         2.0389         1.7398         2.1682        29.1163         5.1652         0.0246         2.1922        55.9336        -0.6233         2.6781         1.9570     
 3199.5000        11.9453        46.5418        -0.0133       101.9415       101.7574        50.8679         2.1097         1.7949         2.3011        28.5334         4.7604         0.0265         2.1988        60.7655        -0.9209         3.0414         2.1050     
 3200.0000        11.9453        46.7812        -0.0121       100.6654       101.1269        51.3558         2.1910         1.8721         2.3196        26.8765         4.6233         0.0268         2.2050        60.2899        -0.9373         3.0068         1.9992     
 3200.5000        11.9453        48.2772        -0.0099       100.6000       100.9385        51.5684         2.2360         1.9041         2.3565        26.1999         4.5998         0.0276         2.2076        61.6213        -0.7263         3.1226         1.9748     
 3201.0000        11.9453        48.1767        -0.0092       100.7038       101.1654        50.1851         2.2335         1.9170         2.2963        25.7730         4.6011         0.0275         2.2062        60.8497        -0.5709         3.1187         1.8755     
 3201.5000        11.9453        46.1315        -0.0088       101.2808       101.5154        49.0216         2.2102         1.8913         2.2891        25.6253         4.7216         0.0264         2.2032        57.7220        -0.4464         2.9757         1.7153     
 3202.0000        11.9453        46.0990        -0.0090       102.2423       102.3692        49.2356         2.1767         1.8532         2.3174        25.4053         4.9238         0.0262         2.1998        57.4109        -0.6750         3.0509         1.6741     
 3202.5000        11.9453        47.4284        -0.0108       102.7000       102.6038        49.6598         2.1800         1.8605         2.2677        25.9691         5.1329         0.0268         2.1948        59.2704        -0.7824         3.2239         1.7525     
 3203.0000        11.9453        48.1471        -0.0127       102.7692       102.7307        49.8437         2.2065         1.8778         2.2673        25.3900         5.1209         0.0271         2.1942        60.4570        -0.9554         3.2914         1.8218     
 3203.5000        11.9453        47.7103        -0.0138       102.9346       102.3577        50.2548         2.2272         1.8714         2.3834        24.5502         4.9741         0.0270         2.1980        60.3230        -1.2695         3.1882         1.8666     
 3204.0000        11.9453        45.7937        -0.0138       102.6192       101.8656        52.3831         2.2291         1.8797         2.3964        25.1768         4.8677         0.0261         2.2043        57.6347        -1.3128         2.9982         1.7524     
 3204.5000        11.9453        43.7204        -0.0136       101.6227       101.3148        55.7497         2.2147         1.8767         2.3764        25.7782         4.8661         0.0251         2.2076        54.0768        -1.4073         2.7967         1.5327     
