~Version Information Section
VERS.          2.0                                     : CWLS LOG ASCII Standard
WRAP.          NO                                      : One line per depth step
CREA.          27/11/15                                : LAS Creation Date
~Well Information Section
STRT.ft        2800.0000                               : Start Depth
STOP.ft        3400.0000                               : Stop Depth
STEP.ft        0.5000                                  : Step
NULL.          -999.2500                               : Null Value
COMP.          TEXACO                                  : Company
WELL.          13/22a-9A                               : Well
FLD .          CAPTAIN                                 : Field
LOC .          MORAY FIRTH                             : Location
LOC1.                                                  : Location (UTM)
CTRY.          UK                                      : Country
PROV.          UKCS                                    : Province
UWI .          17698                                   : UWI Number
API .                                                  : API Number
SECT.                                                  : Section
TOWN.                                                  : Township
RNGE.                                                  : Range
PDAT.          MSL                                     : Perm Datum
EPD .ft        0.00                                    : Elevation
LMF .          DF                                      : Log Measured From
DMF .          DF                                      : Drill Measured From
APD .ft        80.00                                   : Above Perm Datum
EKB .ft        -                                       : Elev-Kelly Bushing
EDF .ft        80.00                                   : Elev-Drill Floor
EGL .ft        -362.00                                 : Elev-Ground Level (Water Depth)
TDD .ft        3651.00                                 : Total Depth (Driller)
SRVC.          SCHLUMBERGER                            : Service Company
LATI.          58 18 30.945 N                          : Latitude
LONG.          01 42 58.729 W                          : Longitude
DATE.          FEB-MAR-1993                            : Logging Date
PROJ.          UKCS                                    : Project
SET .          COMP WIRE                               : Set
~Curve Information Section
DEPTH.ft                                               : Depth Curve
CALI.in                                                : Caliper
CGR.gAPI                                               : Computed Gamma Ray
DRHO.g/c3                                              : Density Correction
DTLF.us/ft                                             : Delta-T Long Spacing Far
DTLN.us/ft                                             : Delta-T Long Spacing Near
GR.gAPI                                                : Gamma Ray
LLD.ohmm                                               : Laterolog Deep Resistivity
LLS.ohmm                                               : Laterolog Shallow Resistivity
MSFL.ohmm                                              : Microspherically Focused log Resistivity
NPHI.%                                                 : Neutron Porosity
PEF.B/e                                                : Photo-Electric Factor
POTA.                                                  : Potassium
RHOB.g/c3                                              : Bulk Density
SGR.gAPI                                               : Spectroscopy Gamma-Ray
SP.mV                                                  : Spontaneous Potential
THOR.ppm                                               : Thorium
URAN.ppm                                               : Uranium
~ASCII Log Data Section
# ...
 3340.0000        12.2955        36.8103        -0.0174       126.9798       117.9812        48.4443         2.8339         2.2260         2.2572        37.5919         4.1969         0.0125         2.0787        54.8064        -5.5842         6.0773         2.6633     
 3340.5000        12.6749        37.5141        -0.0155       114.7738       118.4576        48.5619         2.7344         2.1607         2.0126        38.8716         4.1212         0.0130         2.0562        55.5339        -5.3769         6.0865         2.6668     
 3341.0000        12.7475        38.9641        -0.0085       119.3996       117.3079        50.9158         2.6510         2.0708         1.9995        39.6399         4.1937         0.0138         2.0510        57.5424        -5.5072         6.2101         2.7494     
 3341.5000        12.7015        42.1523        -0.0027       120.8918       115.8967        53.5170         2.5717         1.9827         2.2217        38.9761         4.4016         0.0152         2.0712        62.4686        -6.0328         6.5669         3.0067     
 3342.0000        12.8971        47.3509         0.0016       119.9116       116.0461        57.3497         2.5265         1.9552         2.5478        38.6783         4.7339         0.0173         2.1144        70.4913        -6.0623         7.2833         3.4246     
 3342.5000        12.9537        52.8380         0.0042       119.9085       122.7276        62.1536         2.5461         1.9850         2.8406        39.9570         4.8857         0.0189         2.1581        79.1008        -5.8037         8.3374         3.8867     
 3343.0000        12.8224        54.4088         0.0032       127.7482       130.6718        67.4818         2.5998         2.0019         2.4384        42.2261         4.8194         0.0191         2.1800        81.6384        -5.6226         8.7277         4.0298     
 3343.5000        12.6538        56.7720         0.0011       141.1553       126.6234        72.9594         2.6785         2.0502         2.2553        44.0954         4.6653         0.0200         2.1888        85.2514        -5.0447         9.0555         4.2148     
 3344.0000        12.6480        55.0663        -0.0017       146.4482       130.2637        73.1033         2.7856         2.1083         2.4499        42.8959         4.9868         0.0206         2.1962        82.0907        -4.0919         8.2983         3.9994     
 3344.5000        12.3226        49.0052        -0.0037       146.8842       126.7326        70.2467         2.8591         2.1257         2.8087        42.1325         5.5092         0.0192         2.2078        72.7740        -3.3286         6.9924         3.5176     
 3345.0000        11.9958        44.1551        -0.0040       144.4005       120.3826        61.1657         2.8089         2.0704         2.9944        38.2899         5.9850         0.0175         2.2137        65.4767        -2.1019         6.2117         3.1555     
 3345.5000        11.9453        36.9170        -0.0063       140.2636       115.7057        50.3344         2.6763         1.9853         2.6309        35.5881         6.2451         0.0161         2.2065        53.8395        -0.7162         4.5373         2.5044     
 3346.0000        11.9453        32.5765        -0.0101       139.3311       116.9074        40.9535         2.4742         1.8406         2.0659        32.0871         6.2264         0.0154         2.1909        46.7383        -0.1178         3.5103         2.0958     
 3346.5000        11.9453        30.6736        -0.0114       141.0039       116.2585        35.9044         2.3117         1.7245         1.9636        31.2092         6.3789         0.0150         2.1804        41.1393         0.3603         3.0771         1.5489     
 3347.0000        11.9779        29.3468        -0.0116       141.2692       120.0280        35.0952         2.2700         1.6974         1.9274        31.2495         6.5826         0.0147         2.1815        37.3492         0.6707         2.7936         1.1843     
 3347.5000        12.0140        30.7059        -0.0127       138.9770       123.8308        35.9146         2.3006         1.6972         1.9797        30.5366         6.8055         0.0158         2.1942        39.3471         0.8987         2.7374         1.2788     
 3348.0000        11.9769        31.5212        -0.0124       136.4777       120.2707        37.0680         2.3398         1.7033         1.9752        29.9604         6.4040         0.0166         2.2133        40.6488         0.9115         2.6499         1.3508     
 3348.5000        11.9453        30.7612        -0.0120       139.0500       116.4116        37.9507         2.3722         1.7440         2.0783        29.3170         5.9319         0.0165         2.2255        39.5808         0.8640         2.4766         1.3052     
 3349.0000        11.9453        30.3957        -0.0132       133.6940       114.3647        37.1179         2.3596         1.7341         2.0805        28.5573         5.9725         0.0164         2.2362        39.0774         0.8384         2.3799         1.2848     
 3349.5000        11.9453        30.6363        -0.0133       119.5353       110.2453        36.1558         2.3351         1.7014         2.0429        28.0249         6.9775         0.0168         2.2628        39.2789         0.9548         2.2861         1.2790     
 3350.0000        11.9500        30.8178        -0.0080       100.4544       102.7927        34.3023         2.3643         1.7210         1.8561        28.0291         8.2339         0.0171         2.3261        39.3650         1.2222         2.1966         1.2649     
 3350.5000        11.9485        31.7560         0.0001        94.8940        92.4639        34.6176         2.4124         1.7682         1.3450        28.4782         7.8486         0.0176         2.4137        40.7922         1.4244         2.3120         1.3373     
 3351.0000        12.0059        32.4442         0.0040        88.9532        80.9969        34.5641         2.4997         1.8454         0.7660        27.1526         6.8760         0.0178         2.4780        41.7929         1.2475         2.4128         1.3835     
 3351.5000        12.0096        33.1938         0.0038        79.9659        74.6861        36.5653         2.6006         1.9383         0.7617        26.3869         6.7164         0.0182         2.4905        42.7406         1.0705         2.4800         1.4129     
 3352.0000        11.9611        34.6016         0.0012        81.3471        81.1047        39.9123         2.6978         2.0438         1.2878        25.9951         6.7028         0.0188         2.4635        44.6164         0.6820         2.6421         1.4821     
 3352.5000        11.9453        36.9975        -0.0030        93.1126        98.1926        41.2188         2.8813         2.1968         2.0040        26.8784         6.4443         0.0199         2.4165        48.0473         0.1177         2.9355         1.6353     
 3353.0000        11.9453        38.9148        -0.0074       101.2923       102.2692        41.1755         3.1250         2.3986         2.7289        27.9218         5.8430         0.0206         2.3542        50.8882        -0.3390         3.2217         1.7720     
 3353.5000        11.9686        42.7577        -0.0111       107.2467       107.8117        42.1330         3.3671         2.5987         2.8490        28.6532         5.6512         0.0218         2.2967        56.4312        -0.9087         3.9119         2.0236     
 3354.0000        12.0170        46.3524        -0.0116       109.7038       108.1577        47.9013         3.6081         2.8226         3.0050        28.5905         5.5829         0.0229         2.2701        61.7365        -1.5762         4.5552         2.2767     
 3354.5000        11.9925        47.4146        -0.0085       109.3117       107.9770        56.0425         3.7916         2.9831         3.3813        28.3050         5.3463         0.0232         2.2726        63.4034        -1.9207         4.7703         2.3662     
