~Version Information Section
VERS.          2.0                                     : CWLS LOG ASCII Standard
WRAP.          NO                                      : One line per depth step
CREA.          03/02/17                                : LAS Creation Date
~Well Information Section
STRT.ft        3300.0000                               : Start Depth
STOP.ft        3900.0000                               : Stop Depth
STEP.ft        0.5000                                  : Step
NULL.          -999.2500                               : Null Value
COMP.          TEXACO NORTH SEA                        : Company
WELL.          13/22-1                                 : Well
FLD .          MORAY FIRTH                             : Field
LOC .          NORTH SEA                               : Location
LOC1.          -                                        : Location (UTM)
CTRY.          UK                                      : Country
PROV.          UKCS                                    : Province
UWI .          824                                     : UWI Number
API .          -                                        : API Number
SECT.          -                                        : Section
TOWN.          -                                        : Township
RNGE.          -                                        : Range
PDAT.          MSL                                     : Perm Datum
EPD .ft        0.0                                     : Elevation
LMF .          KB                                      : Log Measured From
DMF .          KB                                      : Drill Measured From
APD .ft        86.0                                    : Above Perm Datum
EKB .ft        84.0                                    : Elev-Kelly Bushing
EDF .ft        83.0                                    : Elev-Drill Floor
EGL .ft        -348.0                                  : Elev-Ground Level (Water Depth)
TDD .ft        4778.0                                  : Total Depth (Driller)
SRVC.          SCHLUMBERGER                            : Service Company
LATI.          58 17 54.60" N                          : Latitude
LONG.          01 45 39.75" W                          : Longitude
DATE.          29-APR-1977 - 18-MAY-1977               : Logging Date
PROJ.          UKCS                                    : Project
SET .          COMP_WIRE                               : Set
~Curve Information Section
DEPTH.ft                                               : Depth Curve
CALD.in                                                : Caliper (from FDC/CNL/GR)
CALI.in                                                : Caliper (from MLL/ML)
DRHO.g/cc                                              : Delta Rho
DT.us/ft                                               : Delta-T
GR.gAPI                                                : Gamma Ray (from ISF/BHC/GR)
GRD.gAPI                                               : Gamma Ray (from FDC/CNL/GR)
ILD.Ohmm                                               : Deep Induction Standard Processed Resistivity
MLL.Ohmm                                               : Mll Resistivity
NPHI.LPU                                               : Neutron Porosity
RHOB.g/cc                                              : Bulk Density
SFLU.Ohmm                                              : SFL Resistivity (Unaveraged)
SP.mV                                                  : Spontaneous Potential
~ASCII Log Data Section
# ...
 3484.5000         8.7540      -999.2500         0.0100       113.5002       143.9486       163.0073         4.9903      -999.2500        37.4207         2.2645         4.9997       100.3696     
 3485.0000         8.7362      -999.2500         0.0197       112.1203       142.0410       160.6313         5.1149      -999.2500        37.6249         2.2567         4.9619        99.5209     
 3485.5000         8.7185      -999.2500         0.0452       111.1239       143.4372       157.8604         5.2192      -999.2500        37.6136         2.2461         5.1781        98.7926     
 3486.0000         8.7007      -999.2500         0.0469       109.2771       147.4841       153.9697         5.2773      -999.2500        37.4725         2.2306         5.3378        98.0143     
 3486.5000         8.6951      -999.2500         0.0379       107.6344       152.5037       152.3920         5.2395      -999.2500        37.7514         2.2174         5.1542        96.8017     
 3487.0000         8.7012      -999.2500         0.0441       108.6191       158.0196       154.2879         5.2016      -999.2500        38.4634         2.2257         4.8754        95.2922     
 3487.5000         8.7075      -999.2500         0.0481       109.4601       158.7249       155.7995         5.1663      -999.2500        39.1156         2.2365         4.6008        94.6600     
 3488.0000         8.7139      -999.2500         0.0414       110.6096       157.0377       156.1540         5.1316      -999.2500        38.8976         2.2358         4.5378        94.3542     
 3488.5000         8.7203      -999.2500         0.0504       110.8050       155.1215       156.2266         5.0890      -999.2500        38.3107         2.2514         4.3510        94.3809     
 3489.0000         8.7267      -999.2500         0.0518       112.0852       155.2075       156.5801         5.0136      -999.2500        37.8527         2.2703         4.3815        94.6391     
 3489.5000         8.7448      -999.2500         0.0405       111.1214       156.0136       158.5676         4.9554      -999.2500        37.4192         2.2724         4.8057        94.1817     
 3490.0000         8.7712      -999.2500         0.0378       111.6040       156.6975       163.2916         4.9259      -999.2500        37.6750         2.2849         5.0353        93.1219     
 3490.5000         8.7979      -999.2500         0.0377       110.9587       159.6389       169.1375         4.8863      -999.2500        38.7398         2.2990         5.0409        91.8456     
 3491.0000         8.8102      -999.2500         0.0580       109.8080       161.0878       172.3656         4.8455      -999.2500        39.4684         2.3127         5.0163        91.6959     
 3491.5000         8.8138      -999.2500         0.0693       109.4063       158.3076       170.2237         4.7859      -999.2500        39.1277         2.3075         5.0174        91.3913     
 3492.0000         8.8172      -999.2500         0.0635       109.7953       155.3494       165.6627         4.7144      -999.2500        39.2342         2.2908         5.2402        91.0479     
 3492.5000         8.8207      -999.2500         0.0549       111.5002       155.5128       163.7863         4.6355      -999.2500        39.7818         2.2831         5.1372        90.7042     
 3493.0000         8.8241      -999.2500         0.0589       115.1579       154.4764       161.9146         4.5652      -999.2500        39.9137         2.2689         4.8759        90.3607     
 3493.5000         8.8143      -999.2500         0.0605       118.3621       151.8913       160.0078         4.5157      -999.2500        39.7169         2.2487         4.2922        90.0066     
 3494.0000         8.7812      -999.2500         0.0637       120.7904       153.0621       158.6506         4.4664      -999.2500        39.4684         2.2373         4.0320        89.5144     
 3494.5000         8.7476      -999.2500         0.0672       120.7227       156.4898       157.8865         4.4078      -999.2500        39.6522         2.2311         3.9305        88.6335     
 3495.0000         8.7140      -999.2500         0.0599       119.3048       159.7038       157.0462         4.3645      -999.2500        41.8019         2.2294         3.8499        87.4014     
 3495.5000         8.7048      -999.2500         0.0394       117.7611       161.2887       159.4561         4.3395      -999.2500        41.9773         2.2336         3.9250        85.9299     
 3496.0000         8.7044      -999.2500         0.0483       117.4453       160.2367       162.0597         4.3676      -999.2500        42.2944         2.2574         4.2514        85.0725     
 3496.5000         8.7040      -999.2500         0.0417       117.6759       156.2955       163.0920         4.4075      -999.2500        43.7876         2.2707         4.5468        84.9538     
 3497.0000         8.7036      -999.2500         0.0312       118.8157       153.4077       162.6297         4.4362      -999.2500        44.4692         2.2626         4.5829        84.7190     
 3497.5000         8.7032      -999.2500         0.0278       119.4117       152.2501       160.6656         4.4563      -999.2500        43.7775         2.2576         4.5032        84.3177     
 3498.0000         8.7029      -999.2500         0.0281       119.4481       151.9132       156.3208         4.4590      -999.2500        42.9957         2.2532         4.4684        83.9160     
 3498.5000         8.7025      -999.2500         0.0268       119.6803       153.1309       153.0609         4.4487      -999.2500        42.2314         2.2590         4.6105        83.6503     
 3499.0000         8.7021      -999.2500         0.0248       120.4550       154.3992       149.7674         4.4384      -999.2500        42.0620         2.2608         4.6631        83.3935     
 3499.5000         8.7017      -999.2500         0.0185       121.3578       153.7876       146.4532         4.4282      -999.2500        42.0158         2.2587         4.2898        83.3000     
 3500.0000         8.7090      -999.2500         0.0148       121.6202       150.8650       143.1915         4.3927      -999.2500        42.0494         2.2426         4.1748        83.3040     
 3500.5000         8.7297      -999.2500         0.0213       119.9547       145.8501       139.9601         4.3561      -999.2500        42.0834         2.2395         4.5927        83.3080     
 3501.0000         8.7505      -999.2500         0.0382       116.8850       142.3852       137.0638         4.2966      -999.2500        41.7850         2.2504         4.8352        83.4366     
 3501.5000         8.7713      -999.2500         0.0382       114.8011       139.6700       136.1792         4.2319      -999.2500        38.9023         2.2608         4.5944        83.7205     
 3502.0000         8.8534      -999.2500         0.0327       116.3128       134.4034       134.4787         4.1672      -999.2500        38.7109         2.2599         4.1499        84.1270     
 3502.5000         8.9811      -999.2500         0.0156       121.3125       129.4832       131.0167         4.0941      -999.2500        39.3109         2.2568         3.6678        84.2053     
 3503.0000         9.1077      -999.2500         0.0127       121.7164       126.0576       126.1131         4.0195      -999.2500        39.2341         2.2531         3.2135        84.2831     
 3503.5000         9.0376      -999.2500         0.0119       119.8019       121.7728       120.7552         3.9346      -999.2500        39.6002         2.2510         2.9614        84.3451     
 3504.0000         8.8372      -999.2500         0.0137       116.0685       119.1484       117.5589         3.8516      -999.2500        38.8794         2.2551         2.8368        84.3512     
 3504.5000         8.6375      -999.2500         0.0279       115.2647       117.2878       115.5462         3.7914      -999.2500        38.4739         2.2610         2.7752        84.3572     
