~Version Information Section
VERS.          2.0                                     : CWLS LOG ASCII Standard
WRAP.          NO                                      : One line per depth step
CREA.          03/02/17                                : LAS Creation Date
~Well Information Section
STRT.ft        3300.0000                               : Start Depth
STOP.ft        3900.0000                               : Stop Depth
STEP.ft        0.5000                                  : Step
NULL.          -999.2500                               : Null Value
COMP.          TEXACO NORTH SEA                        : Company
WELL.          13/22-1                                 : Well
FLD .          MORAY FIRTH                             : Field
LOC .          NORTH SEA                               : Location
LOC1.          -                                        : Location (UTM)
CTRY.          UK                                      : Country
PROV.          UKCS                                    : Province
UWI .          824                                     : UWI Number
API .          -                                        : API Number
SECT.          -                                        : Section
TOWN.          -                                        : Township
RNGE.          -                                        : Range
PDAT.          MSL                                     : Perm Datum
EPD .ft        0.0                                     : Elevation
LMF .          KB                                      : Log Measured From
DMF .          KB                                      : Drill Measured From
APD .ft        86.0                                    : Above Perm Datum
EKB .ft        84.0                                    : Elev-Kelly Bushing
EDF .ft        83.0                                    : Elev-Drill Floor
EGL .ft        -348.0                                  : Elev-Ground Level (Water Depth)
TDD .ft        4778.0                                  : Total Depth (Driller)
SRVC.          SCHLUMBERGER                            : Service Company
LATI.          58 17 54.60" N                          : Latitude
LONG.          01 45 39.75" W                          : Longitude
DATE.          29-APR-1977 - 18-MAY-1977               : Logging Date
PROJ.          UKCS                                    : Project
SET .          COMP_WIRE                               : Set
~Curve Information Section
DEPTH.ft                                               : Depth Curve
CALD.in                                                : Caliper (from FDC/CNL/GR)
CALI.in                                                : Caliper (from MLL/ML)
DRHO.g/cc                                              : Delta Rho
DT.us/ft                                               : Delta-T
GR.gAPI                                                : Gamma Ray (from ISF/BHC/GR)
GRD.gAPI                                               : Gamma Ray (from FDC/CNL/GR)
ILD.Ohmm                                               : Deep Induction Standard Processed Resistivity
MLL.Ohmm                                               : Mll Resistivity
NPHI.LPU                                               : Neutron Porosity
RHOB.g/cc                                              : Bulk Density
SFLU.Ohmm                                              : SFL Resistivity (Unaveraged)
SP.mV                                                  : Spontaneous Potential
~ASCII Log Data Section
# ...
 3874.0000         9.3001      -999.2500         0.0105        82.4092       100.1277        92.2474        12.1116      -999.2500        18.3155         2.6160        15.5456        70.0853     
 3874.5000         9.3836      -999.2500         0.0077        85.2334        98.7329        92.7745        12.4623      -999.2500        19.8664         2.6046        13.7809        70.0402     
 3875.0000         9.4619      -999.2500         0.0134        86.9952        97.3521        94.5692        12.4042      -999.2500        21.8174         2.5973        12.4727        70.0243     
 3875.5000         9.4644      -999.2500         0.0124        87.4449        95.1470        94.1721        12.2496      -999.2500        23.5455         2.5848        11.0424        70.0638     
 3876.0000         9.3835      -999.2500         0.0111        86.4693        93.7547        93.4183        11.9258      -999.2500        23.2368         2.5724        10.0986        70.1033     
 3876.5000         9.3893      -999.2500         0.0074        84.7840        92.8634        91.9792        12.0441      -999.2500        22.8368         2.5601        10.1159        70.1428     
 3877.0000         9.4180      -999.2500         0.0030        82.6138        92.2523        90.1099        12.1768      -999.2500        22.1312         2.5511        10.9831        70.1823     
 3877.5000         9.3538      -999.2500         0.0018        81.3396        89.5527        88.3332        12.5853      -999.2500        21.1457         2.5518        10.7313        70.2218     
 3878.0000         9.3226      -999.2500         0.0049        81.2138        86.8530        86.8234        12.9521      -999.2500        20.1142         2.5600        10.2521        70.2613     
 3878.5000         9.2687      -999.2500         0.0130        80.5359        84.8572        85.5890        12.9711      -999.2500        19.6125         2.5643        11.9339        70.3924     
 3879.0000         9.1491      -999.2500         0.0117        78.5392        83.1712        84.8931        12.6480      -999.2500        19.1989         2.5669        14.1292        70.5842     
 3879.5000         9.0289      -999.2500         0.0045        76.9402        84.7080        85.0193        12.2359      -999.2500        18.8708         2.5670        18.0501        70.7759     
 3880.0000         8.9681      -999.2500         0.0107        79.0841        87.1599        87.4377        11.5786      -999.2500        20.3259         2.5816        16.4639        71.0379     
 3880.5000         8.9710      -999.2500         0.0170        82.5196        89.6105        91.9149        11.1491      -999.2500        23.7342         2.5905        10.3759        71.4517     
 3881.0000         8.9975      -999.2500         0.0134        85.9550        92.6685        96.0545        10.7476      -999.2500        25.2955         2.5913        10.3511        72.2899     
 3881.5000         9.0022      -999.2500         0.0102        89.0042        99.2435        99.0808        10.2689      -999.2500        25.5124         2.5863        10.7917        73.2110     
 3882.0000         8.9840      -999.2500         0.0072        91.0251       100.0585       100.2922         9.8959      -999.2500        25.4722         2.5857        10.2793        73.0006     
 3882.5000         8.9896      -999.2500         0.0039        91.8692       102.8176        99.3051         9.6253      -999.2500        25.3749         2.5960         9.0727        69.6494     
 3883.0000         9.0156      -999.2500         0.0059        92.0311       103.8488       100.4391         9.3651      -999.2500        25.6975         2.6087         8.4650        68.6450     
 3883.5000         9.0526      -999.2500         0.0110        91.2906       105.0247       102.8726         9.1481      -999.2500        25.1201         2.6152         8.8401        68.4361     
 3884.0000         9.0363      -999.2500         0.0075        89.7101       106.0279       103.4939         9.2335      -999.2500        24.0924         2.6031         9.7399        68.5268     
 3884.5000         9.0215      -999.2500         0.0038        88.5097       107.0667       104.1563         9.3832      -999.2500        22.9324         2.5961        10.7808        68.5948     
 3885.0000         9.0340      -999.2500         0.0037        89.0587       108.3085       106.3247         9.6592      -999.2500        22.7568         2.5970        10.9435        68.4538     
 3885.5000         9.0580      -999.2500         0.0048        89.1670       108.8838       108.6501        10.0341      -999.2500        23.3775         2.5952        10.7463        68.2416     
 3886.0000         9.0430      -999.2500         0.0054        88.8686       107.4423       110.6204        10.4134      -999.2500        24.0784         2.5930        10.5595        68.0060     
 3886.5000         9.0164      -999.2500         0.0047        87.6371       105.1904       110.8755        10.6736      -999.2500        24.3336         2.5921        10.8648        67.7469     
 3887.0000         9.0015      -999.2500         0.0039        86.2271       105.5667       108.8466        11.1685      -999.2500        23.6587         2.5948        10.8994        67.9800     
 3887.5000         9.0196      -999.2500         0.0034        84.7757       106.1166       105.7542        12.1111      -999.2500        22.7636         2.6100        10.8737        68.5204     
 3888.0000         9.0193      -999.2500        -0.0010        83.0281       103.4853       102.5758        12.8729      -999.2500        21.5433         2.6197        11.5520        68.9500     
 3888.5000         9.0477      -999.2500        -0.0049        80.9607       100.3014       100.4379        14.1275      -999.2500        19.9702         2.5982        13.6969        69.0408     
 3889.0000         9.0335      -999.2500        -0.0077        79.1003        96.2273        95.5035        15.6764      -999.2500        18.2797         2.5799        15.3813        68.9235     
 3889.5000         8.9980      -999.2500        -0.0035        77.3187        91.6158        88.4105        16.6075      -999.2500        17.4148         2.5713        15.8299        68.8060     
 3890.0000         8.9794      -999.2500         0.0047        76.0625        86.7655        86.6578        16.6156      -999.2500        16.9748         2.5758        16.2906        68.6848     
 3890.5000         8.9927      -999.2500         0.0121        75.3060        82.3843        85.2253        16.5071      -999.2500        16.7081         2.5763        16.3193        68.5525     
 3891.0000         9.0173      -999.2500         0.0157        74.8845        80.4372        83.4689        16.3720      -999.2500        16.6650         2.5811        16.1761        68.4200     
 3891.5000         9.0161      -999.2500         0.0183        75.1074        80.7384        82.0707        16.1029      -999.2500        17.2497         2.5874        15.8811        68.1208     
 3892.0000         9.0027      -999.2500         0.0222        75.6334        82.9513        84.6626        15.8194      -999.2500        18.4292         2.5959        15.3288        67.8076     
 3892.5000         8.9593      -999.2500         0.0319        77.1549        86.8981        88.6477        15.3967      -999.2500        19.8432         2.6095        14.6366        67.9686     
 3893.0000         8.9316      -999.2500         0.0408        80.0822        91.5148        90.9259        14.8842      -999.2500        21.2630         2.6203        13.8400        68.2782     
 3893.5000         8.9281      -999.2500         0.0312        83.1598        94.7520        93.7523        13.6351      -999.2500        22.8432         2.6125        13.0147        68.6093     
 3894.0000         8.8030      -999.2500         0.0176        85.7029        96.3450        95.8418        12.6034      -999.2500        24.4712         2.5910        12.0470        68.9500     
