~Version Information Section
VERS.          2.0                                     : CWLS LOG ASCII Standard
WRAP.          NO                                      : One line per depth step
CREA.          03/02/17                                : LAS Creation Date
~Well Information Section
STRT.ft        3300.0000                               : Start Depth
STOP.ft        3900.0000                               : Stop Depth
STEP.ft        0.5000                                  : Step
NULL.          -999.2500                               : Null Value
COMP.          TEXACO NORTH SEA                        : Company
WELL.          13/22-1                                 : Well
FLD .          MORAY FIRTH                             : Field
LOC .          NORTH SEA                               : Location
LOC1.          -                                        : Location (UTM)
CTRY.          UK                                      : Country
PROV.          UKCS                                    : Province
UWI .          824                                     : UWI Number
API .          -                                        : API Number
SECT.          -                                        : Section
TOWN.          -                                        : Township
RNGE.          -                                        : Range
PDAT.          MSL                                     : Perm Datum
EPD .ft        0.0                                     : Elevation
LMF .          KB                                      : Log Measured From
DMF .          KB                                      : Drill Measured From
APD .ft        86.0                                    : Above Perm Datum
EKB .ft        84.0                                    : Elev-Kelly Bushing
EDF .ft        83.0                                    : Elev-Drill Floor
EGL .ft        -348.0                                  : Elev-Ground Level (Water Depth)
TDD .ft        4778.0                                  : Total Depth (Driller)
SRVC.          SCHLUMBERGER                            : Service Company
LATI.          58 17 54.60" N                          : Latitude
LONG.          01 45 39.75" W                          : Longitude
DATE.          29-APR-1977 - 18-MAY-1977               : Logging Date
PROJ.          UKCS                                    : Project
SET .          COMP_WIRE                               : Set
~Curve Information Section
DEPTH.ft                                               : Depth Curve
CALD.in                                                : Caliper (from FDC/CNL/GR)
CALI.in                                                : Caliper (from MLL/ML)
DRHO.g/cc                                              : Delta Rho
DT.us/ft                                               : Delta-T
GR.gAPI                                                : Gamma Ray (from ISF/BHC/GR)
GRD.gAPI                                               : Gamma Ray (from FDC/CNL/GR)
ILD.Ohmm                                               : Deep Induction Standard Processed Resistivity
MLL.Ohmm                                               : Mll Resistivity
NPHI.LPU                                               : Neutron Porosity
RHOB.g/cc                                              : Bulk Density
SFLU.Ohmm                                              : SFL Resistivity (Unaveraged)
SP.mV                                                  : Spontaneous Potential
~ASCII Log Data Section
# ...
 3566.5000         9.0002      -999.2500         0.0126        83.9591        87.3483        90.7574        11.6155      -999.2500        20.7940         2.5498        14.3428        80.2828     
 3567.0000         9.0185      -999.2500         0.0205        85.2006        88.3834        90.1656        11.3174      -999.2500        21.5180         2.5633        11.7159        79.9641     
 3567.5000         9.0110      -999.2500         0.0372        86.1622        89.6165        89.8983        10.7324      -999.2500        22.0191         2.5765        10.8424        79.6327     
 3568.0000         9.0193      -999.2500         0.0471        86.4916        90.7057        89.6035        10.1640      -999.2500        21.6109         2.5903        11.7370        79.2330     
 3568.5000         9.0174      -999.2500         0.0527        85.5758        90.8947        89.2280         9.7384      -999.2500        21.3382         2.6098        13.0743        78.7975     
 3569.0000         9.0299      -999.2500         0.0518        87.4946        90.7173        90.0126         9.3029      -999.2500        21.3590         2.6052        14.7372        78.1958     
 3569.5000         9.1185      -999.2500         0.0484        90.3967        89.9081        93.6181         8.7608      -999.2500        22.7089         2.5981         9.6016        77.7128     
 3570.0000         9.3142      -999.2500         0.0479        89.7194        92.0940        97.3492         8.2148      -999.2500        25.5216         2.5836         8.7531        77.2508     
 3570.5000         9.3990      -999.2500         0.0298        92.9901        98.1543        99.9149         7.7468      -999.2500        27.4724         2.5679         8.5998        77.1203     
 3571.0000         9.4648      -999.2500         0.0120        93.9693       100.4957       100.6113         7.2484      -999.2500        28.3559         2.5503         8.5438        77.0708     
 3571.5000         9.3646      -999.2500         0.0124        95.9203       100.1585       100.8716         7.0945      -999.2500        28.9125         2.5100         8.3290        76.8332     
 3572.0000         9.3527      -999.2500         0.0163       101.4154        99.1214       101.1308         7.2977      -999.2500        29.3675         2.4850         7.7777        76.8883     
 3572.5000         9.3073      -999.2500         0.0176       103.8039        96.5848       101.1094         7.6964      -999.2500        28.6037         2.4890         6.2189        77.1559     
 3573.0000         9.2886      -999.2500         0.0196       103.4493        94.4458        98.1581         8.1882      -999.2500        26.7632         2.5076         5.4761        77.4146     
 3573.5000         9.3052      -999.2500         0.0051        99.5770        92.0846        92.0936         8.7231      -999.2500        24.1423         2.5300         5.6878        77.6495     
 3574.0000         9.3046      -999.2500        -0.0045        92.2016        90.9376        88.1213         9.3751      -999.2500        20.8307         2.5455         7.8087        77.8846     
 3574.5000         9.3187      -999.2500        -0.0099        82.5296        90.4788        86.2339        10.8650      -999.2500        18.1523         2.5588        10.8814        78.4583     
 3575.0000         9.3025      -999.2500        -0.0074        78.2066        90.2700        85.0082        12.5648      -999.2500        17.8873         2.5717        13.7749        79.2183     
 3575.5000         9.3002      -999.2500        -0.0033        76.7798        90.1095        84.5468        13.2856      -999.2500        18.2934         2.5836        13.3665        80.6988     
 3576.0000         9.3037      -999.2500         0.0013        78.0158        92.0957        83.7511        13.5240      -999.2500        19.7814         2.5821        12.1813        82.9556     
 3576.5000         9.3186      -999.2500         0.0031        79.2380        94.0262        83.1608        13.3054      -999.2500        20.7186         2.5785        11.9452        84.6016     
 3577.0000         9.3155      -999.2500         0.0011        79.6766        94.3846        85.6479        12.9006      -999.2500        20.7046         2.5757        12.2215        86.4062     
 3577.5000         9.2718      -999.2500        -0.0031        79.9572        94.4930        88.3525        12.2734      -999.2500        21.5085         2.5742        11.9098        90.5175     
 3578.0000         9.2498      -999.2500        -0.0075        82.6414        94.4990        90.0094        11.9119      -999.2500        22.9869         2.5719        11.6041        96.9341     
 3578.5000         9.2440      -999.2500        -0.0062        84.4995        94.4257        91.6781        11.7936      -999.2500        23.3703         2.5635        11.2106       105.1124     
 3579.0000         9.2493      -999.2500         0.0031        85.0245        93.9020        92.9979        12.0340      -999.2500        22.8675         2.5619        10.3560       105.0713     
 3579.5000         9.2574      -999.2500         0.0029        84.2163        92.8160        91.6267        12.2749      -999.2500        21.8265         2.5601         9.3986       105.0177     
 3580.0000         9.2530      -999.2500         0.0033        82.5622        91.3821        90.1021        12.4654      -999.2500        20.7858         2.5610         9.6711       104.9642     
 3580.5000         9.2218      -999.2500         0.0056        79.5099        91.7786        86.9871        12.5909      -999.2500        19.9267         2.5766        10.2031       104.9107     
 3581.0000         9.1193      -999.2500         0.0073        77.1576        92.4520        84.5381        12.4952      -999.2500        19.3608         2.5784        11.8209       104.8572     
 3581.5000         9.0623      -999.2500         0.0085        75.9263        92.1651        82.0113        12.3992      -999.2500        18.1630         2.5744        14.2092       104.8037     
 3582.0000         9.0422      -999.2500         0.0094        76.4922        89.7523        80.9622        12.2261      -999.2500        16.8163         2.5696        13.8294        99.9060     
 3582.5000         9.0415      -999.2500         0.0105        77.9223        87.1514        86.1304        12.0358      -999.2500        18.4543         2.5629        13.9715        84.1643     
 3583.0000         9.0412      -999.2500         0.0122        80.1847        86.9405        93.8335        11.7782      -999.2500        20.8597         2.5561        14.4636        80.4507     
 3583.5000         9.0409      -999.2500         0.0191        82.4483        91.6763        95.9411        11.4502      -999.2500        23.2636         2.5641        13.5300        83.6224     
 3584.0000         9.0365      -999.2500         0.0274        85.0520        93.5700        97.2894        11.1006      -999.2500        25.3258         2.5765        11.3179        84.6487     
 3584.5000         9.0458      -999.2500         0.0352        87.6224        93.7255        99.3357        10.7507      -999.2500        26.8991         2.5870         9.3903        83.6442     
 3585.0000         9.0144      -999.2500         0.0413        88.1538        92.9122        99.8951        10.5232      -999.2500        26.4064         2.6023         8.7730        83.6546     
 3585.5000         9.0096      -999.2500         0.0471        87.5682        91.7595        97.6231        10.3331      -999.2500        24.6199         2.6311         9.2851        84.3914     
 3586.0000         9.0036      -999.2500         0.0477        86.0284        91.5833        94.2405        10.4650      -999.2500        22.8119         2.6377        10.7905        84.9634     
 3586.5000         9.0356      -999.2500         0.0447        84.6097        91.2770        91.1860        10.6762      -999.2500        21.5819         2.6167        11.3447        85.5442     
