~Version Information Section
VERS.          2.0                                     : CWLS LOG ASCII Standard
WRAP.          NO                                      : One line per depth step
CREA.          03/02/17                                : LAS Creation Date
~Well Information Section
STRT.ft        3300.0000                               : Start Depth
STOP.ft        3900.0000                               : Stop Depth
STEP.ft        0.5000                                  : Step
NULL.          -999.2500                               : Null Value
COMP.          TEXACO NORTH SEA                        : Company
WELL.          13/22-1                                 : Well
FLD .          MORAY FIRTH                             : Field
LOC .          NORTH SEA                               : Location
LOC1.          -                                        : Location (UTM)
CTRY.          UK                                      : Country
PROV.          UKCS                                    : Province
UWI .          824                                     : UWI Number
API .          -                                        : API Number
SECT.          -                                        : Section
TOWN.          -                                        : Township
RNGE.          -                                        : Range
PDAT.          MSL                                     : Perm Datum
EPD .ft        0.0                                     : Elevation
LMF .          KB                                      : Log Measured From
DMF .          KB                                      : Drill Measured From
APD .ft        86.0                                    : Above Perm Datum
EKB .ft        84.0                                    : Elev-Kelly Bushing
EDF .ft        83.0                                    : Elev-Drill Floor
EGL .ft        -348.0                                  : Elev-Ground Level (Water Depth)
TDD .ft        4778.0                                  : Total Depth (Driller)
SRVC.          SCHLUMBERGER                            : Service Company
LATI.          58 17 54.60" N                          : Latitude
LONG.          01 45 39.75" W                          : Longitude
DATE.          29-APR-1977 - 18-MAY-1977               : Logging Date
PROJ.          UKCS                                    : Project
SET .          COMP_WIRE                               : Set
~Curve Information Section
DEPTH.ft                                               : Depth Curve
CALD.in                                                : Caliper (from FDC/CNL/GR)
CALI.in                                                : Caliper (from MLL/ML)
DRHO.g/cc                                              : Delta Rho
DT.us/ft                                               : Delta-T
GR.gAPI                                                : Gamma Ray (from ISF/BHC/GR)
GRD.gAPI                                               : Gamma Ray (from FDC/CNL/GR)
ILD.Ohmm                                               : Deep Induction Standard Processed Resistivity
MLL.Ohmm                                               : Mll Resistivity
NPHI.LPU                                               : Neutron Porosity
RHOB.g/cc                                              : Bulk Density
SFLU.Ohmm                                              : SFL Resistivity (Unaveraged)
SP.mV                                                  : Spontaneous Potential
~ASCII Log Data Section
# ...
 3751.0000         8.7816      -999.2500         0.0467        84.2885        98.1404       105.3872        12.0805      -999.2500        24.6980         2.5405        10.6039        70.2850     
 3751.5000         8.8048      -999.2500         0.0081        82.0053       100.4148       105.8930        12.1832      -999.2500        22.5557         2.5274        12.0060        70.2754     
 3752.0000         8.8518      -999.2500         0.0100        81.8035       102.1363       106.1992        12.5009      -999.2500        21.9571         2.5569        11.1751        70.2880     
 3752.5000         8.8560      -999.2500         0.0180        80.7545       103.9745       104.5093        12.6388      -999.2500        23.2169         2.5944        10.9142        70.3663     
 3753.0000         8.8491      -999.2500         0.0156        79.5974       103.3808       101.8047        12.5470      -999.2500        22.9596         2.5911        13.7366        70.6484     
 3753.5000         8.8153      -999.2500         0.0135        79.4566       100.8004       100.3756        12.4552      -999.2500        22.4857         2.5828        15.3160        70.6227     
 3754.0000         8.8107      -999.2500         0.0065        81.1248       101.1552        99.9445        12.3941      -999.2500        22.3376         2.5837        13.7841        70.4632     
 3754.5000         8.8327      -999.2500         0.0055        84.3531       102.3594       100.3817        12.3331      -999.2500        23.4004         2.5954        12.6459        70.2071     
 3755.0000         8.8370      -999.2500         0.0070        85.6194       103.2421       103.2875        12.2720      -999.2500        24.8939         2.5961        11.3904        69.3251     
 3755.5000         8.8366      -999.2500         0.0054        84.7259       102.4586       104.2110        12.0899      -999.2500        25.3621         2.5886         9.8947        67.6465     
 3756.0000         8.8145      -999.2500         0.0126        83.1040       100.7432       103.2504        11.8593      -999.2500        25.3466         2.5913         9.6027        64.4339     
 3756.5000         8.7809      -999.2500         0.0117        81.5446        99.3374       103.6974        11.5954      -999.2500        24.5727         2.5922        10.4589        64.4070     
 3757.0000         8.7623      -999.2500         0.0084        81.5641        97.5974       105.8255        11.3221      -999.2500        23.1838         2.5728        11.8250        67.7930     
 3757.5000         8.7515      -999.2500         0.0042        83.7221        96.0502       108.1638        11.5495      -999.2500        23.0379         2.5573        13.7338        70.0988     
 3758.0000         8.7462      -999.2500         0.0067        85.3365        96.0277       109.9315        12.0351      -999.2500        23.4269         2.5465        12.7599        70.8418     
 3758.5000         8.7500      -999.2500         0.0134        85.6812        96.6770       108.6694        12.5213      -999.2500        24.1398         2.5406        10.3303        70.9420     
 3759.0000         8.7427      -999.2500         0.0101        84.3162        96.9927       105.6005        13.1443      -999.2500        23.6817         2.5377        10.2666        71.0411     
 3759.5000         8.7213      -999.2500         0.0052        80.6817        96.3272       101.8609        13.8344      -999.2500        21.5627         2.5317        12.1182        71.0766     
 3760.0000         8.7143      -999.2500         0.0051        78.0680        93.0791        99.6279        14.5371      -999.2500        19.0643         2.5424        12.8806        71.0892     
 3760.5000         8.7061      -999.2500         0.0100        77.9076        90.0296        95.4593        15.2760      -999.2500        18.4102         2.5521        13.6663        71.1018     
 3761.0000         8.6993      -999.2500         0.0141        78.1162        89.6899        92.2407        15.9641      -999.2500        18.2371         2.5516        14.9520        71.1145     
 3761.5000         8.7040      -999.2500         0.0103        77.6023        90.9169        92.9553        16.2477      -999.2500        18.0626         2.5546        16.5695        71.0482     
 3762.0000         8.6872      -999.2500         0.0146        77.1523        92.2560        94.4947        15.5835      -999.2500        18.4592         2.5543        18.8912        70.9599     
 3762.5000         8.6699      -999.2500         0.0188        77.0952        93.9189        97.5359        14.9561      -999.2500        19.0238         2.5520        22.7714        70.2912     
 3763.0000         8.6993      -999.2500         0.0158        79.0104        96.4399       102.2836        14.3657      -999.2500        19.8475         2.5518        22.3867        67.3533     
 3763.5000         8.8179      -999.2500         0.0165        82.7316       100.0543       108.0420        14.1307      -999.2500        20.8521         2.5485        14.9331        64.3622     
 3764.0000         8.9040      -999.2500         0.0139        86.4253       104.1972       113.0683        13.9177      -999.2500        22.5289         2.5494        10.9724        63.8573     
 3764.5000         8.9020      -999.2500         0.0088        87.9525       103.9118       111.4253        13.7046      -999.2500        23.7837         2.5603         9.5449        64.2806     
 3765.0000         8.8341      -999.2500         0.0070        85.5534        99.8441       106.0750        13.5179      -999.2500        22.7212         2.5771         9.7505        65.5906     
 3765.5000         8.8225      -999.2500         0.0079        81.0434        96.4134       102.0337        13.3598      -999.2500        20.5574         2.5818        11.4684        69.8325     
 3766.0000         8.7706      -999.2500         0.0088        79.4887        92.0544        99.4996        13.2856      -999.2500        18.0423         2.5752        12.1961        70.5154     
 3766.5000         8.7614      -999.2500         0.0073        76.9433        89.6096        99.1440        13.2894      -999.2500        17.3801         2.5792        12.2044        70.7147     
 3767.0000         8.7804      -999.2500         0.0022        75.7812        90.4042       100.0600        13.3654      -999.2500        18.3577         2.5804        12.8574        70.8783     
 3767.5000         8.7662      -999.2500         0.0029        76.2895        91.7959       101.1379        12.8868      -999.2500        19.4372         2.5812        16.9846        70.9359     
 3768.0000         8.7872      -999.2500         0.0094        77.9515        95.0090       104.4431        12.2293      -999.2500        20.0649         2.5786        23.4380        70.9934     
 3768.5000         8.8924      -999.2500         0.0197        81.1648        99.8322       109.3355        11.7367      -999.2500        23.1575         2.5834        15.7809        71.0509     
 3769.0000         8.9220      -999.2500         0.0290        89.8019       102.5533       112.4582        11.1336      -999.2500        27.0923         2.5813        12.4092        71.1084     
 3769.5000         8.9233      -999.2500         0.0305        93.3312       102.5362       115.3705        10.5365      -999.2500        28.9041         2.5704         8.5740        71.1299     
 3770.0000         8.9039      -999.2500         0.0470        92.8905       104.4528       117.5320        10.0640      -999.2500        29.0033         2.5806         7.7340        71.1425     
 3770.5000         8.9037      -999.2500         0.0332        90.4077       104.4304       117.5818        10.1153      -999.2500        27.1798         2.5640         7.9676        71.0885     
 3771.0000         8.8954      -999.2500         0.0232        88.2446       102.3450       113.8876        10.8391      -999.2500        25.3364         2.5541         9.3329        71.0004     
