~Version Information Section
VERS.          2.0                                     : CWLS LOG ASCII Standard
WRAP.          NO                                      : One line per depth step
CREA.          03/02/17                                : LAS Creation Date
~Well Information Section
STRT.ft        3300.0000                               : Start Depth
STOP.ft        3900.0000                               : Stop Depth
STEP.ft        0.5000                                  : Step
NULL.          -999.2500                               : Null Value
COMP.          TEXACO NORTH SEA                        : Company
WELL.          13/22-1                                 : Well
FLD .          MORAY FIRTH                             : Field
LOC .          NORTH SEA                               : Location
LOC1.          -                                        : Location (UTM)
CTRY.          UK                                      : Country
PROV.          UKCS                                    : Province
UWI .          824                                     : UWI Number
API .          -                                        : API Number
SECT.          -                                        : Section
TOWN.          -                                        : Township
RNGE.          -                                        : Range
PDAT.          MSL                                     : Perm Datum
EPD .ft        0.0                                     : Elevation
LMF .          KB                                      : Log Measured From
DMF .          KB                                      : Drill Measured From
APD .ft        86.0                                    : Above Perm Datum
EKB .ft        84.0                                    : Elev-Kelly Bushing
EDF .ft        83.0                                    : Elev-Drill Floor
EGL .ft        -348.0                                  : Elev-Ground Level (Water Depth)
TDD .ft        4778.0                                  : Total Depth (Driller)
SRVC.          SCHLUMBERGER                            : Service Company
LATI.          58 17 54.60" N                          : Latitude
LONG.          01 45 39.75" W                          : Longitude
DATE.          29-APR-1977 - 18-MAY-1977               : Logging Date
PROJ.          UKCS                                    : Project
SET .          COMP_WIRE                               : Set
~Curve Information Section
DEPTH.ft                                               : Depth Curve
CALD.in                                                : Caliper (from FDC/CNL/GR)
CALI.in                                                : Caliper (from MLL/ML)
DRHO.g/cc                                              : Delta Rho
DT.us/ft                                               : Delta-T
GR.gAPI                                                : Gamma Ray (from ISF/BHC/GR)
GRD.gAPI                                               : Gamma Ray (from FDC/CNL/GR)
ILD.Ohmm                                               : Deep Induction Standard Processed Resistivity
MLL.Ohmm                                               : Mll Resistivity
NPHI.LPU                                               : Neutron Porosity
RHOB.g/cc                                              : Bulk Density
SFLU.Ohmm                                              : SFL Resistivity (Unaveraged)
SP.mV                                                  : Spontaneous Potential
~ASCII Log Data Section
# ...
 3792.0000         8.9173      -999.2500         0.0456        85.5444       108.8387       106.2833        11.6193      -999.2500        21.8110         2.5901        10.3375        64.3474     
 3792.5000         8.9061      -999.2500         0.0319        85.1923       109.4050       106.3767        11.3600      -999.2500        21.4628         2.5803        10.5928        63.2179     
 3793.0000         8.9057      -999.2500         0.0225        85.4287       109.5338       107.7599        10.9804      -999.2500        21.2937         2.5716        10.7361        63.1149     
 3793.5000         8.9053      -999.2500         0.0256        85.8661       109.4086       108.7407        10.7018      -999.2500        22.7150         2.5730        10.7241        64.4932     
 3794.0000         8.8631      -999.2500         0.0342        87.0042       108.1396       108.2787        10.7080      -999.2500        24.5825         2.5634         9.7874        65.2346     
 3794.5000         8.7914      -999.2500         0.0484        88.5870       106.1654       108.8643        10.8979      -999.2500        26.4470         2.5446         8.7017        65.7237     
 3795.0000         8.7735      -999.2500         0.0605        88.8723       105.5156       107.0830        11.0937      -999.2500        28.0734         2.5282         8.6350        65.9957     
 3795.5000         8.7848      -999.2500         0.0656        87.7371       105.9091       104.8259        11.2713      -999.2500        27.1178         2.5089         9.1397        66.1329     
 3796.0000         8.8093      -999.2500         0.0644        86.8320       107.8456       103.6264        11.5142      -999.2500        25.9031         2.5095         9.5065        65.8283     
 3796.5000         8.8212      -999.2500         0.0579        85.9061       108.0871       103.1660        11.8934      -999.2500        24.9606         2.5274         9.7876        65.5230     
 3797.0000         8.8090      -999.2500         0.0321        84.8396       104.5721       104.7781        12.3767      -999.2500        24.3694         2.5306         9.8928        65.2560     
 3797.5000         8.8002      -999.2500         0.0239        84.6071       102.0312       106.7122        12.8547      -999.2500        23.7064         2.5224        10.1460        65.3287     
 3798.0000         8.7713      -999.2500         0.0388        83.0000       100.7816       106.5857        13.3560      -999.2500        22.9898         2.5565        10.6335        65.4019     
 3798.5000         8.6755      -999.2500         0.0399        81.5166       101.9339       105.3973        13.8215      -999.2500        22.5450         2.5718        11.2862        65.4752     
 3799.0000         8.5810      -999.2500         0.0328        81.9019       103.1021       106.8262        14.2097      -999.2500        22.3832         2.5476        11.4909        64.7228     
 3799.5000         8.5270      -999.2500         0.0319        83.5896       104.9552       109.9404        14.4481      -999.2500        22.5247         2.5286         9.4778        61.3685     
 3800.0000         8.5230      -999.2500         0.0433        84.8158       107.6965       112.0597        14.4764      -999.2500        22.5073         2.5093         9.3663        59.7696     
 3800.5000         8.4828      -999.2500         0.0427        83.2998       110.4368       114.5541        14.4856      -999.2500        22.2168         2.4724        10.2226        60.0911     
 3801.0000         8.4369      -999.2500         0.0447        82.4890       114.0497       117.7358        14.4946      -999.2500        21.6644         2.4454         9.9790        61.8067     
 3801.5000         8.4231      -999.2500         0.0409        82.3142       118.4460       120.2577        14.3870      -999.2500        21.0839         2.4371         9.1785        64.4176     
 3802.0000         8.2848      -999.2500         0.0314        84.0590       122.4112       120.5124        14.0057      -999.2500        20.8820         2.4194         8.9872        65.6429     
 3802.5000         8.1672      -999.2500         0.0244        84.5605       124.3288       120.2827        13.6243      -999.2500        21.0971         2.4053         8.8300        65.9845     
 3803.0000         8.1584      -999.2500         0.0267        84.3700       124.3473       119.2756        13.4060      -999.2500        21.5861         2.4149         8.7373        66.1369     
 3803.5000         8.2145      -999.2500         0.0308        85.7727       122.8445       117.7179        13.2740      -999.2500        22.0775         2.4281         9.0001        66.0196     
 3804.0000         8.2574      -999.2500         0.0249        86.1623       121.7072       116.6129        13.1464      -999.2500        22.8599         2.4263         8.7466        65.9021     
 3804.5000         8.2591      -999.2500         0.0355        84.9658       119.2436       117.5668        13.2672      -999.2500        23.4254         2.4245         8.0655        65.8210     
 3805.0000         8.2493      -999.2500         0.0279        83.9827       116.0570       119.2127        13.3885      -999.2500        23.3080         2.4003         8.1409        65.8309     
 3805.5000         8.2530      -999.2500         0.0180        82.5921       111.9029       118.6538        13.6740      -999.2500        22.4527         2.3862         8.8795        65.8408     
 3806.0000         8.2605      -999.2500         0.0155        79.7653       109.0625       115.5327        13.9827      -999.2500        21.6039         2.3937         9.3828        65.8508     
 3806.5000         8.2679      -999.2500         0.0092        79.0893       106.8261       112.2464        14.2916      -999.2500        20.8346         2.4144         9.7241        65.8607     
 3807.0000         8.2754      -999.2500         0.0052        79.6275       104.8303       108.8825        14.7785      -999.2500        20.2127         2.4257        10.0767        65.8660     
 3807.5000         8.2824      -999.2500         0.0143        80.1056       105.3237       106.0667        15.3577      -999.2500        19.6735         2.4381        10.4278        65.6745     
 3808.0000         8.2831      -999.2500         0.0386        79.7451       105.7659       103.4194        16.1336      -999.2500        19.2548         2.4755        10.7263        65.4861     
 3808.5000         8.2825      -999.2500         0.0540        79.2608       104.3873       100.9006        16.4207      -999.2500        18.8374         2.4974        10.8974        65.3614     
 3809.0000         8.3029      -999.2500         0.0398        77.5573       102.8325        99.7965        16.1734      -999.2500        18.4154         2.5047        11.3186        65.2369     
 3809.5000         8.3788      -999.2500         0.0337        75.1796       100.9690        98.9537        15.8084      -999.2500        18.0358         2.5182        13.0052        65.1239     
 3810.0000         8.5122      -999.2500         0.0320        74.7362       100.0690        96.8578        15.2432      -999.2500        18.0472         2.5492        15.8680        65.1336     
 3810.5000         8.6382      -999.2500         0.0217        76.1740        99.6797        95.5927        14.6350      -999.2500        18.3581         2.5616        18.6475        65.1436     
 3811.0000         8.6963      -999.2500         0.0143        79.0627       101.7804        95.8656        13.8559      -999.2500        19.1588         2.5750        16.2624        65.1674     
 3811.5000         8.7041      -999.2500         0.0106        82.4013       104.3276        99.0891        13.3719      -999.2500        20.9969         2.5888        11.3877        65.2874     
 3812.0000         8.7090      -999.2500         0.0046        85.2660       104.7958       101.3568        12.9385      -999.2500        22.7725         2.5957        10.4334        65.5310     
