~Version Information Section
VERS.          2.0                                     : CWLS LOG ASCII Standard
WRAP.          NO                                      : One line per depth step
CREA.          03/02/17                                : LAS Creation Date
~Well Information Section
STRT.ft        3300.0000                               : Start Depth
STOP.ft        3900.0000                               : Stop Depth
STEP.ft        0.5000                                  : Step
NULL.          -999.2500                               : Null Value
COMP.          TEXACO NORTH SEA                        : Company
WELL.          13/22-1                                 : Well
FLD .          MORAY FIRTH                             : Field
LOC .          NORTH SEA                               : Location
LOC1.          -                                        : Location (UTM)
CTRY.          UK                                      : Country
PROV.          UKCS                                    : Province
UWI .          824                                     : UWI Number
API .          -                                        : API Number
SECT.          -                                        : Section
TOWN.          -                                        : Township
RNGE.          -                                        : Range
PDAT.          MSL                                     : Perm Datum
EPD .ft        0.0                                     : Elevation
LMF .          KB                                      : Log Measured From
DMF .          KB                                      : Drill Measured From
APD .ft        86.0                                    : Above Perm Datum
EKB .ft        84.0                                    : Elev-Kelly Bushing
EDF .ft        83.0                                    : Elev-Drill Floor
EGL .ft        -348.0                                  : Elev-Ground Level (Water Depth)
TDD .ft        4778.0                                  : Total Depth (Driller)
SRVC.          SCHLUMBERGER                            : Service Company
LATI.          58 17 54.60" N                          : Latitude
LONG.          01 45 39.75" W                          : Longitude
DATE.          29-APR-1977 - 18-MAY-1977               : Logging Date
PROJ.          UKCS                                    : Project
SET .          COMP_WIRE                               : Set
~Curve Information Section
DEPTH.ft                                               : Depth Curve
CALD.in                                                : Caliper (from FDC/CNL/GR)
CALI.in                                                : Caliper (from MLL/ML)
DRHO.g/cc                                              : Delta Rho
DT.us/ft                                               : Delta-T
GR.gAPI                                                : Gamma Ray (from ISF/BHC/GR)
GRD.gAPI                                               : Gamma Ray (from FDC/CNL/GR)
ILD.Ohmm                                               : Deep Induction Standard Processed Resistivity
MLL.Ohmm                                               : Mll Resistivity
NPHI.LPU                                               : Neutron Porosity
RHOB.g/cc                                              : Bulk Density
SFLU.Ohmm                                              : SFL Resistivity (Unaveraged)
SP.mV                                                  : Spontaneous Potential
~ASCII Log Data Section
# ...
 3341.0000         8.4376      -999.2500         0.0088       107.0164        22.2280        20.5387         1.5681      -999.2500        29.9777         2.1722         1.2121        87.6483     
 3341.5000         8.4371      -999.2500         0.0024       106.8502        20.2660        20.0549         1.5721      -999.2500        30.0893         2.1650         1.2113        87.7565     
 3342.0000         8.4366      -999.2500         0.0015       106.5856        19.4852        19.3902         1.5759      -999.2500        29.9696         2.1646         1.2200        88.1465     
 3342.5000         8.4361      -999.2500         0.0040       106.1512        19.3583        18.8477         1.5782      -999.2500        30.2288         2.1631         1.2287        88.8232     
 3343.0000         8.4356      -999.2500         0.0067       105.7253        19.4560        19.6856         1.5805      -999.2500        30.6369         2.1599         1.2375        89.6452     
 3343.5000         8.4350      -999.2500         0.0122       105.5706        19.6573        19.7019         1.5827      -999.2500        30.9047         2.1589         1.2396        89.8574     
 3344.0000         8.4345      -999.2500         0.0151       105.9349        19.9342        20.1307         1.5850      -999.2500        30.7352         2.1586         1.2360        90.1156     
 3344.5000         8.4340      -999.2500         0.0129       107.4759        21.0779        21.1079         1.5873      -999.2500        31.0833         2.1571         1.2281        90.3735     
 3345.0000         8.4335      -999.2500         0.0137       109.0496        22.2671        22.1026         1.5915      -999.2500        31.2006         2.1570         1.2113        90.5201     
 3345.5000         8.4330      -999.2500         0.0156       110.4456        22.4858        22.8105         1.6007      -999.2500        30.2823         2.1592         1.1977        90.4739     
 3346.0000         8.4325      -999.2500         0.0152       110.8465        22.4822        23.1089         1.6099      -999.2500        29.2976         2.1587         1.1936        90.1672     
 3346.5000         8.4319      -999.2500         0.0127       110.5145        22.7228        23.3840         1.6200      -999.2500        29.8746         2.1576         1.1936        89.8487     
 3347.0000         8.4312      -999.2500         0.0093       109.8354        23.0232        23.1175         1.6350      -999.2500        31.2341         2.1513         1.2121        89.5142     
 3347.5000         8.4293      -999.2500         0.0053       108.9034        23.8726        22.9779         1.6488      -999.2500        32.2737         2.1383         1.2410        89.7639     
 3348.0000         8.4272      -999.2500         0.0092       107.8629        24.1135        23.0522         1.6578      -999.2500        32.9195         2.1366         1.2499        90.1037     
 3348.5000         8.4250      -999.2500         0.0195       106.5766        24.4804        22.8707         1.6618      -999.2500        32.3543         2.1455         1.2661        90.4479     
 3349.0000         8.4229      -999.2500         0.0230       105.9106        25.1772        21.8646         1.6615      -999.2500        31.9347         2.1600         1.2823        90.8795     
 3349.5000         8.4208      -999.2500         0.0199       105.7634        26.1102        20.4128         1.6612      -999.2500        31.6306         2.1596         1.3242        91.3107     
 3350.0000         8.4186      -999.2500         0.0115       105.6219        27.3175        20.8104         1.6610      -999.2500        30.4432         2.1569         1.3313        91.6696     
 3350.5000         8.4165      -999.2500         0.0056       105.5876        27.2179        21.8675         1.6607      -999.2500        28.6367         2.1535         1.3033        91.6849     
 3351.0000         8.4144      -999.2500         0.0039       105.5844        26.0793        22.3568         1.6598      -999.2500        27.9663         2.1501         1.2827        91.6055     
 3351.5000         8.4123      -999.2500         0.0040       105.4565        24.2788        22.4772         1.6576      -999.2500        27.8597         2.1444         1.2825        91.7550     
 3352.0000         8.4101      -999.2500         0.0083       105.3408        23.6000        22.5977         1.6553      -999.2500        27.7876         2.1570         1.2781        92.0386     
 3352.5000         8.4080      -999.2500         0.0133       105.2518        22.6934        22.3078         1.6531      -999.2500        27.6769         2.1706         1.2697        92.2833     
 3353.0000         8.4059      -999.2500         0.0207       105.2318        21.5972        21.3872         1.6508      -999.2500        27.6943         2.1796         1.2613        92.4836     
 3353.5000         8.4038      -999.2500         0.0253       105.3314        20.0971        20.6175         1.6486      -999.2500        27.7369         2.1799         1.2529        92.7688     
 3354.0000         8.4017      -999.2500         0.0143       105.4136        18.8159        20.3665         1.6463      -999.2500        27.5965         2.1584         1.2444        92.7305     
 3354.5000         8.3997      -999.2500         0.0048       105.4696        18.0247        20.5354         1.6440      -999.2500        27.3653         2.1478         1.2354        92.1868     
 3355.0000         8.3976      -999.2500         0.0035       105.5256        19.5069        21.1648         1.6411      -999.2500        27.8248         2.1507         1.2385        91.8104     
 3355.5000         8.3956      -999.2500         0.0069       105.5762        21.1406        21.6820         1.6377      -999.2500        28.2011         2.1548         1.2426        91.4922     
 3356.0000         8.3936      -999.2500         0.0086       105.5827        22.1723        21.0319         1.6343      -999.2500        28.2766         2.1517         1.2476        91.4426     
 3356.5000         8.3915      -999.2500         0.0051       105.5807        22.9207        20.3757         1.6308      -999.2500        28.4630         2.1474         1.2544        91.7260     
 3357.0000         8.3895      -999.2500         0.0039       105.6505        23.4058        20.5897         1.6274      -999.2500        29.2145         2.1522         1.2612        92.0099     
 3357.5000         8.3874      -999.2500         0.0029       105.7426        23.8820        21.4165         1.6240      -999.2500        29.4313         2.1528         1.2680        92.2507     
 3358.0000         8.3854      -999.2500         0.0027       105.6270        24.9921        22.2050         1.6206      -999.2500        29.1732         2.1529         1.2678        92.4512     
 3358.5000         8.3833      -999.2500         0.0073       105.3780        25.4334        22.8874         1.6171      -999.2500        28.7192         2.1638         1.2676        92.4928     
 3359.0000         8.3813      -999.2500         0.0130       105.0947        24.7121        22.9918         1.6137      -999.2500        28.8466         2.1725         1.2673        92.3968     
 3359.5000         8.3792      -999.2500         0.0154       104.7137        23.5691        23.3888         1.6108      -999.2500        28.9750         2.1686         1.2699        92.3036     
 3360.0000         8.3795      -999.2500         0.0152       104.3880        22.4251        24.0291         1.6161      -999.2500        28.7322         2.1629         1.2769        92.2144     
 3360.5000         8.3815      -999.2500         0.0149       104.4729        21.6459        24.1443         1.6214      -999.2500        28.6396         2.1602         1.2714        92.1331     
 3361.0000         8.3836      -999.2500         0.0150       104.5781        21.2154        24.2268         1.6268      -999.2500        28.7628         2.1650         1.2620        92.1307     
