~Version Information Section
VERS.          2.0                                     : CWLS LOG ASCII Standard
WRAP.          NO                                      : One line per depth step
CREA.          03/02/17                                : LAS Creation Date
~Well Information Section
STRT.ft        3300.0000                               : Start Depth
STOP.ft        3900.0000                               : Stop Depth
STEP.ft        0.5000                                  : Step
NULL.          -999.2500                               : Null Value
COMP.          TEXACO NORTH SEA                        : Company
WELL.          13/22-1                                 : Well
FLD .          MORAY FIRTH                             : Field
LOC .          NORTH SEA                               : Location
LOC1.          -                                        : Location (UTM)
CTRY.          UK                                      : Country
PROV.          UKCS                                    : Province
UWI .          824                                     : UWI Number
API .          -                                        : API Number
SECT.          -                                        : Section
TOWN.          -                                        : Township
RNGE.          -                                        : Range
PDAT.          MSL                                     : Perm Datum
EPD .ft        0.0                                     : Elevation
LMF .          KB                                      : Log Measured From
DMF .          KB                                      : Drill Measured From
APD .ft        86.0                                    : Above Perm Datum
EKB .ft        84.0                                    : Elev-Kelly Bushing
EDF .ft        83.0                                    : Elev-Drill Floor
EGL .ft        -348.0                                  : Elev-Ground Level (Water Depth)
TDD .ft        4778.0                                  : Total Depth (Driller)
SRVC.          SCHLUMBERGER                            : Service Company
LATI.          58 17 54.60" N                          : Latitude
LONG.          01 45 39.75" W                          : Longitude
DATE.          29-APR-1977 - 18-MAY-1977               : Logging Date
PROJ.          UKCS                                    : Project
SET .          COMP_WIRE                               : Set
~Curve Information Section
DEPTH.ft                                               : Depth Curve
CALD.in                                                : Caliper (from FDC/CNL/GR)
CALI.in                                                : Caliper (from MLL/ML)
DRHO.g/cc                                              : Delta Rho
DT.us/ft                                               : Delta-T
GR.gAPI                                                : Gamma Ray (from ISF/BHC/GR)
GRD.gAPI                                               : Gamma Ray (from FDC/CNL/GR)
ILD.Ohmm                                               : Deep Induction Standard Processed Resistivity
MLL.Ohmm                                               : Mll Resistivity
NPHI.LPU                                               : Neutron Porosity
RHOB.g/cc                                              : Bulk Density
SFLU.Ohmm                                              : SFL Resistivity (Unaveraged)
SP.mV                                                  : Spontaneous Potential
~ASCII Log Data Section
# ...
 3730.5000         8.9569      -999.2500         0.0160        90.2409       100.4185       108.1637         8.9308      -999.2500        27.0658         2.4989         6.9837        69.8392     
 3731.0000         8.9296      -999.2500         0.0180        87.0765       100.6494       105.8022         9.7904      -999.2500        25.3442         2.5037         8.1423        68.3154     
 3731.5000         8.8987      -999.2500         0.0338        85.8653       101.0709       104.7539        10.7735      -999.2500        23.6448         2.5142         8.6497        67.7223     
 3732.0000         8.8595      -999.2500         0.0311        84.0377       100.2017       102.1351        12.2015      -999.2500        22.4948         2.5226         9.0210        67.2964     
 3732.5000         8.7971      -999.2500         0.0220        80.8167        95.8393        99.6458        13.0058      -999.2500        21.5489         2.5080         9.7482        67.1001     
 3733.0000         8.7415      -999.2500         0.0174        76.8863        90.6820        95.5076        13.5628      -999.2500        20.3378         2.5067        10.4539        66.9040     
 3733.5000         8.7548      -999.2500         0.0190        75.5457        86.9606        92.5332        13.6803      -999.2500        18.9876         2.5092        10.9882        66.7078     
 3734.0000         8.7416      -999.2500         0.0224        76.2484        87.1555        93.7777        13.6907      -999.2500        18.0038         2.5091        12.3227        66.5117     
 3734.5000         8.7599      -999.2500         0.0226        79.6807        90.5402        98.3138        13.3588      -999.2500        18.0503         2.4966        16.5178        66.3786     
 3735.0000         8.7889      -999.2500         0.0216        81.9154        95.5700       102.4920        13.0258      -999.2500        20.3776         2.4937        13.8092        66.2812     
 3735.5000         8.9184      -999.2500         0.0213        83.7837        99.6679       107.2372        12.5133      -999.2500        22.5451         2.5147        10.9900        66.1837     
 3736.0000         8.9567      -999.2500         0.0246        85.8825       105.7054       110.0335        11.9704      -999.2500        24.4200         2.5485        11.6097        66.0919     
 3736.5000         8.9639      -999.2500         0.0265        86.7745       107.1314       109.2431        11.4760      -999.2500        25.6520         2.5528        11.3396        66.3642     
 3737.0000         8.9579      -999.2500         0.0108        86.8665       106.7070       106.8740        11.2226      -999.2500        25.3928         2.5496         9.1735        66.6369     
 3737.5000         8.9643      -999.2500         0.0125        87.4075       108.7004       105.4933        11.1671      -999.2500        24.6924         2.5646         8.4051        67.4445     
 3738.0000         8.9783      -999.2500         0.0169        86.9358       109.0639       105.0363        11.3022      -999.2500        23.8996         2.5723         8.9355        68.1134     
 3738.5000         9.0024      -999.2500         0.0187        84.6230       104.8649       101.4648        11.6243      -999.2500        22.4890         2.5791        10.6395        68.4806     
 3739.0000         8.9450      -999.2500         0.0201        81.6925       100.9721        99.3297        12.0076      -999.2500        20.4217         2.5880        12.8668        68.7245     
 3739.5000         8.8915      -999.2500         0.0185        79.7857        99.6478        97.1622        12.3906      -999.2500        18.2980         2.5943        13.1689        68.9682     
 3740.0000         8.8952      -999.2500         0.0127        79.3843        98.3206        95.6359        12.8817      -999.2500        17.7997         2.5880        12.4070        69.1711     
 3740.5000         8.9111      -999.2500         0.0043        80.8321        98.1224        98.8345        13.1187      -999.2500        18.6648         2.5796        11.8137        69.0670     
 3741.0000         8.9002      -999.2500         0.0046        80.7876        97.8317       100.8542        13.1615      -999.2500        19.5093         2.5769        12.5019        68.9624     
 3741.5000         8.8688      -999.2500         0.0118        79.1774        96.6770       101.2760        12.9891      -999.2500        19.9636         2.5788        14.1547        68.8579     
 3742.0000         8.8182      -999.2500         0.0175        79.5773        94.3259       100.3877        12.8348      -999.2500        19.7062         2.5903        14.9825        68.7533     
 3742.5000         8.8106      -999.2500         0.0197        80.6007        94.3301       101.1087        12.7538      -999.2500        19.2598         2.5999        14.1049        68.6498     
 3743.0000         8.8587      -999.2500         0.0200        81.7744        96.0891       101.5728        12.8144      -999.2500        19.8429         2.6066        13.2180        68.6623     
 3743.5000         8.8822      -999.2500         0.0167        82.6400        97.7895       101.6739        12.8152      -999.2500        21.2667         2.6071        13.0269        68.6750     
 3744.0000         8.8732      -999.2500         0.0070        82.9840        98.8214       101.2725        12.5677      -999.2500        22.0653         2.6001        11.6058        68.8379     
 3744.5000         8.8578      -999.2500         0.0093        82.9681        99.1375       100.0651        12.3457      -999.2500        22.6596         2.5865        10.8840        69.1304     
 3745.0000         8.8357      -999.2500         0.0130        82.3671        98.9254        99.4863        12.2824      -999.2500        22.9468         2.5778        11.3767        69.4035     
 3745.5000         8.7966      -999.2500         0.0126        81.7850        99.3412        97.6237        12.5491      -999.2500        22.4448         2.5647        13.3672        69.6473     
 3746.0000         8.7837      -999.2500         0.0091        81.4682        98.8538        96.2077        12.8599      -999.2500        21.5990         2.5587        13.6468        69.8910     
 3746.5000         8.7922      -999.2500         0.0049        81.0935        98.0316        96.9390        13.0942      -999.2500        20.6639         2.5583        12.3603        70.1348     
 3747.0000         8.8115      -999.2500         0.0087        80.6459        95.9792        99.9074        13.1120      -999.2500        20.7268         2.5546        10.7663        70.2525     
 3747.5000         8.8135      -999.2500         0.0135        80.0328        94.2079       101.9083        12.8711      -999.2500        21.9121         2.5598        11.2980        70.3621     
 3748.0000         8.8032      -999.2500         0.0129        78.9827        94.0820       102.4799        12.3341      -999.2500        22.4790         2.5703        16.0395        70.4717     
 3748.5000         8.7621      -999.2500         0.0104        77.8849        96.6958       103.3078        11.9378      -999.2500        22.0213         2.5738        20.6810        70.5814     
 3749.0000         8.7635      -999.2500         0.0198        78.1643        99.9730       103.6124        12.0789      -999.2500        22.7608         2.5679        23.6777        70.5470     
 3749.5000         8.8072      -999.2500         0.0575        81.7878       101.3440       102.7274        12.3860      -999.2500        24.0003         2.5709        18.1495        70.4815     
 3750.0000         8.8714      -999.2500         0.1010        85.9248       100.4235       102.8276        12.5505      -999.2500        25.6418         2.5885        10.5216        70.4160     
 3750.5000         8.8511      -999.2500         0.1093        85.9354        97.4389       104.0988        12.4191      -999.2500        26.0283         2.5856         9.7970        70.3505     
