~Version Information Section
VERS.          2.0                                     : CWLS LOG ASCII Standard
WRAP.          NO                                      : One line per depth step
CREA.          03/02/17                                : LAS Creation Date
~Well Information Section
STRT.ft        3300.0000                               : Start Depth
STOP.ft        3900.0000                               : Stop Depth
STEP.ft        0.5000                                  : Step
NULL.          -999.2500                               : Null Value
COMP.          TEXACO NORTH SEA                        : Company
WELL.          13/22-1                                 : Well
FLD .          MORAY FIRTH                             : Field
LOC .          NORTH SEA                               : Location
LOC1.          -                                        : Location (UTM)
CTRY.          UK                                      : Country
PROV.          UKCS                                    : Province
UWI .          824                                     : UWI Number
API .          -                                        : API Number
SECT.          -                                        : Section
TOWN.          -                                        : Township
RNGE.          -                                        : Range
PDAT.          MSL                                     : Perm Datum
EPD .ft        0.0                                     : Elevation
LMF .          KB                                      : Log Measured From
DMF .          KB                                      : Drill Measured From
APD .ft        86.0                                    : Above Perm Datum
EKB .ft        84.0                                    : Elev-Kelly Bushing
EDF .ft        83.0                                    : Elev-Drill Floor
EGL .ft        -348.0                                  : Elev-Ground Level (Water Depth)
TDD .ft        4778.0                                  : Total Depth (Driller)
SRVC.          SCHLUMBERGER                            : Service Company
LATI.          58 17 54.60" N                          : Latitude
LONG.          01 45 39.75" W                          : Longitude
DATE.          29-APR-1977 - 18-MAY-1977               : Logging Date
PROJ.          UKCS                                    : Project
SET .          COMP_WIRE                               : Set
~Curve Information Section
DEPTH.ft                                               : Depth Curve
CALD.in                                                : Caliper (from FDC/CNL/GR)
CALI.in                                                : Caliper (from MLL/ML)
DRHO.g/cc                                              : Delta Rho
DT.us/ft                                               : Delta-T
GR.gAPI                                                : Gamma Ray (from ISF/BHC/GR)
GRD.gAPI                                               : Gamma Ray (from FDC/CNL/GR)
ILD.Ohmm                                               : Deep Induction Standard Processed Resistivity
MLL.Ohmm                                               : Mll Resistivity
NPHI.LPU                                               : Neutron Porosity
RHOB.g/cc                                              : Bulk Density
SFLU.Ohmm                                              : SFL Resistivity (Unaveraged)
SP.mV                                                  : Spontaneous Potential
~ASCII Log Data Section
# ...
 3382.0000         8.4708      -999.2500         0.0018       107.1089        21.3322        25.5586         1.5545      -999.2500        30.8829         2.1404         1.2246        90.6146     
 3382.5000         8.4640      -999.2500         0.0010       107.1408        22.4782        25.5453         1.5542      -999.2500        30.8640         2.1413         1.2135        90.4383     
 3383.0000         8.4572      -999.2500         0.0004       107.1726        22.8199        25.5401         1.5486      -999.2500        30.6025         2.1464         1.2024        90.1705     
 3383.5000         8.4504      -999.2500        -0.0002       107.2045        22.0102        25.4691         1.5284      -999.2500        30.1095         2.1502         1.1909        90.0224     
 3384.0000         8.4436      -999.2500         0.0007       107.2363        21.5485        25.2065         1.5075      -999.2500        29.5097         2.1506         1.1884        90.0201     
 3384.5000         8.4369      -999.2500         0.0028       107.2406        21.2203        24.8119         1.4821      -999.2500        28.9606         2.1514         1.1882        90.0178     
 3385.0000         8.4324      -999.2500         0.0050       107.0420        22.2208        23.8143         1.4719      -999.2500        28.5013         2.1515         1.2007        90.0155     
 3385.5000         8.4316      -999.2500         0.0087       106.8117        22.4015        22.7054         1.4772      -999.2500        28.0592         2.1515         1.2169        89.7057     
 3386.0000         8.4311      -999.2500         0.0113       106.6627        22.0919        21.6083         1.4822      -999.2500        27.8157         2.1566         1.1972        89.1183     
 3386.5000         8.4306      -999.2500         0.0123       106.6607        22.5947        20.8051         1.4773      -999.2500        27.9172         2.1685         1.1903        88.7546     
 3387.0000         8.4301      -999.2500         0.0076       106.6587        22.2869        21.8845         1.4724      -999.2500        28.0746         2.1695         1.1834        89.2016     
 3387.5000         8.4296      -999.2500         0.0087       106.6567        21.5886        23.3524         1.4685      -999.2500        28.1298         2.1714         1.1766        89.6021     
 3388.0000         8.4290      -999.2500         0.0132       106.6547        20.9981        23.9545         1.4758      -999.2500        28.2556         2.1699         1.1758        89.6003     
 3388.5000         8.4293      -999.2500         0.0136       106.6527        21.5192        23.4404         1.4882      -999.2500        28.4890         2.1627         1.1780        89.5979     
 3389.0000         8.4441      -999.2500         0.0129       106.6507        21.5841        22.7084         1.5140      -999.2500        28.8809         2.1549         1.1834        89.6532     
 3389.5000         8.4691      -999.2500         0.0114       106.6487        21.3695        22.1731         1.5362      -999.2500        29.2640         2.1480         1.1889        89.7862     
 3390.0000         8.4941      -999.2500         0.0152       106.5386        21.8773        23.4250         1.5360      -999.2500        29.5255         2.1512         1.1948        89.9192     
 3390.5000         8.5191      -999.2500         0.0107       106.1886        23.2262        23.2491         1.5357      -999.2500        29.7806         2.1439         1.2023        89.9901     
 3391.0000         8.5421      -999.2500         0.0023       105.8711        23.5640        22.5374         1.5411      -999.2500        29.4589         2.1385         1.2119        89.9878     
 3391.5000         8.5420      -999.2500        -0.0066       105.7758        23.4257        22.0133         1.5476      -999.2500        28.5784         2.1352         1.2242        89.9855     
 3392.0000         8.5381      -999.2500        -0.0067       105.7097        23.0992        22.7078         1.5540      -999.2500        28.4270         2.1322         1.2380        89.9832     
 3392.5000         8.5342      -999.2500        -0.0037       105.6430        23.1506        23.5703         1.5604      -999.2500        28.1913         2.1308         1.2532        89.9809     
 3393.0000         8.5303      -999.2500         0.0039       105.5708        23.9375        24.2446         1.5687      -999.2500        27.5376         2.1376         1.2683        89.9786     
 3393.5000         8.5263      -999.2500         0.0141       105.4971        24.5136        24.7999         1.5784      -999.2500        28.2277         2.1525         1.2835        89.9763     
 3394.0000         8.5230      -999.2500         0.0160       105.4463        24.9499        25.1923         1.5880      -999.2500        29.7440         2.1597         1.2790        89.8667     
 3394.5000         8.5222      -999.2500         0.0178       105.5244        24.8448        25.3342         1.5976      -999.2500        30.4268         2.1591         1.2685        89.8886     
 3395.0000         8.5216      -999.2500         0.0206       105.6005        24.6078        24.7179         1.6059      -999.2500        29.5799         2.1562         1.2519        90.1907     
 3395.5000         8.5211      -999.2500         0.0208       105.5359        24.9189        23.5277         1.6056      -999.2500        28.6424         2.1639         1.2283        90.4513     
 3396.0000         8.5206      -999.2500         0.0153       105.4264        25.1372        24.5198         1.6053      -999.2500        28.5631         2.1651         1.2279        90.5159     
 3396.5000         8.5201      -999.2500         0.0074       105.3399        24.1568        25.2473         1.6051      -999.2500        28.6994         2.1579         1.2277        90.3918     
 3397.0000         8.5170      -999.2500         0.0008       105.2566        23.1350        25.5169         1.6048      -999.2500        28.5743         2.1533         1.2349        90.0925     
 3397.5000         8.4926      -999.2500         0.0000       105.2167        22.7515        25.4646         1.6081      -999.2500        28.6401         2.1567         1.2456        89.6337     
 3398.0000         8.4623      -999.2500         0.0003       105.2393        23.0232        24.8691         1.6173      -999.2500        28.5701         2.1575         1.2581        89.3533     
 3398.5000         8.4493      -999.2500         0.0010       105.5084        23.4176        26.0895         1.6265      -999.2500        28.3168         2.1510         1.2671        89.3509     
 3399.0000         8.4831      -999.2500         0.0043       105.8432        23.5099        26.9728         1.6357      -999.2500        28.0062         2.1518         1.2770        89.3486     
 3399.5000         8.5202      -999.2500         0.0073       106.2049        23.6206        26.9113         1.6449      -999.2500        28.0522         2.1582         1.2928        89.3627     
 3400.0000         8.5635      -999.2500         0.0042       106.4738        23.9591        26.5386         1.6528      -999.2500        27.8078         2.1604         1.3075        89.4540     
 3400.5000         8.6342      -999.2500         0.0072       106.5309        24.9129        25.7215         1.6599      -999.2500        27.5157         2.1592         1.3158        89.5396     
 3401.0000         8.7082      -999.2500         0.0054       106.0835        25.3810        24.4542         1.6670      -999.2500        27.0331         2.1650         1.3167        89.4588     
 3401.5000         8.7346      -999.2500        -0.0035       105.5601        25.4171        23.1987         1.6742      -999.2500        26.8142         2.1682         1.3100        89.3777     
 3402.0000         8.7342      -999.2500        -0.0100       105.1987        24.4818        22.6145         1.6773      -999.2500        26.9906         2.1572         1.3010        89.1347     
