~Version Information Section
VERS.          2.0                                     : CWLS LOG ASCII Standard
WRAP.          NO                                      : One line per depth step
CREA.          03/02/17                                : LAS Creation Date
~Well Information Section
STRT.ft        3300.0000                               : Start Depth
STOP.ft        3900.0000                               : Stop Depth
STEP.ft        0.5000                                  : Step
NULL.          -999.2500                               : Null Value
COMP.          TEXACO NORTH SEA                        : Company
WELL.          13/22-1                                 : Well
FLD .          MORAY FIRTH                             : Field
LOC .          NORTH SEA                               : Location
LOC1.          -                                        : Location (UTM)
CTRY.          UK                                      : Country
PROV.          UKCS                                    : Province
UWI .          824                                     : UWI Number
API .          -                                        : API Number
SECT.          -                                        : Section
TOWN.          -                                        : Township
RNGE.          -                                        : Range
PDAT.          MSL                                     : Perm Datum
EPD .ft        0.0                                     : Elevation
LMF .          KB                                      : Log Measured From
DMF .          KB                                      : Drill Measured From
APD .ft        86.0                                    : Above Perm Datum
EKB .ft        84.0                                    : Elev-Kelly Bushing
EDF .ft        83.0                                    : Elev-Drill Floor
EGL .ft        -348.0                                  : Elev-Ground Level (Water Depth)
TDD .ft        4778.0                                  : Total Depth (Driller)
SRVC.          SCHLUMBERGER                            : Service Company
LATI.          58 17 54.60" N                          : Latitude
LONG.          01 45 39.75" W                          : Longitude
DATE.          29-APR-1977 - 18-MAY-1977               : Logging Date
PROJ.          UKCS                                    : Project
SET .          COMP_WIRE                               : Set
~Curve Information Section
DEPTH.ft                                               : Depth Curve
CALD.in                                                : Caliper (from FDC/CNL/GR)
CALI.in                                                : Caliper (from MLL/ML)
DRHO.g/cc                                              : Delta Rho
DT.us/ft                                               : Delta-T
GR.gAPI                                                : Gamma Ray (from ISF/BHC/GR)
GRD.gAPI                                               : Gamma Ray (from FDC/CNL/GR)
ILD.Ohmm                                               : Deep Induction Standard Processed Resistivity
MLL.Ohmm                                               : Mll Resistivity
NPHI.LPU                                               : Neutron Porosity
RHOB.g/cc                                              : Bulk Density
SFLU.Ohmm                                              : SFL Resistivity (Unaveraged)
SP.mV                                                  : Spontaneous Potential
~ASCII Log Data Section
# ...
 3833.0000         8.8029      -999.2500         0.0095        82.8370       100.8413       106.7391        12.2558      -999.2500        24.1061         2.5844        14.1981        68.3137     
 3833.5000         8.8423      -999.2500         0.0090        84.9971       101.5297       105.5018        12.1977      -999.2500        25.3528         2.5895        13.4138        65.2321     
 3834.0000         8.8454      -999.2500         0.0074        86.6632       101.4804       104.4664        12.1986      -999.2500        25.4655         2.5912        12.6282        64.4875     
 3834.5000         8.8408      -999.2500         0.0081        87.6909        99.8686       105.4445        12.3555      -999.2500        25.4158         2.5882        11.9126        65.2097     
 3835.0000         8.8287      -999.2500         0.0128        88.3721        98.8805       106.1694        12.5712      -999.2500        25.0115         2.5865        11.3578        66.7878     
 3835.5000         8.8202      -999.2500         0.0116        87.8806        99.8839       104.7779        12.9018      -999.2500        24.4999         2.5846        10.5970        68.9714     
 3836.0000         8.8189      -999.2500         0.0048        85.7709        99.1911       100.3269        13.2730      -999.2500        23.3320         2.5600        10.2178        76.7922     
 3836.5000         8.7981      -999.2500         0.0081        80.9164        95.6165        97.1061        13.7673      -999.2500        21.4829         2.5617        12.0604        81.6081     
 3837.0000         8.7775      -999.2500         0.0139        77.3822        95.2962        93.5087        14.2987      -999.2500        20.3229         2.5718        16.7542        84.4792     
 3837.5000         8.8602      -999.2500         0.0226        76.0581        97.6796        98.6802        14.7975      -999.2500        19.2595         2.5891        21.2923        78.1319     
 3838.0000         8.9032      -999.2500         0.0275        76.8663       101.1410       102.6980        15.1346      -999.2500        20.1881         2.5956        21.7219        71.0094     
 3838.5000         8.9129      -999.2500         0.0193        79.1578       108.1094       110.8974        15.1172      -999.2500        21.9565         2.5997        17.9350        70.2946     
 3839.0000         8.8552      -999.2500         0.0168        81.4292       110.5105       111.0697        14.6554      -999.2500        24.1561         2.6021        14.8061        71.7136     
 3839.5000         8.8968      -999.2500         0.0115        82.8405       111.7864       110.0385        13.6812      -999.2500        25.2044         2.6018        12.7990        74.4733     
 3840.0000         8.9212      -999.2500        -0.0000        84.2998       112.5686       110.7451        12.7060      -999.2500        25.4097         2.5953        12.2609        76.7736     
 3840.5000         8.9262      -999.2500        -0.0020        85.7795       113.1208       113.8295        11.7600      -999.2500        24.7724         2.5916        11.7645        77.8918     
 3841.0000         8.9592      -999.2500        -0.0018        86.6222       113.2388       116.5346        10.9566      -999.2500        24.6468         2.5775        10.2674        75.2446     
 3841.5000         8.9697      -999.2500        -0.0011        86.8887       112.4857       113.3922        10.3675      -999.2500        24.8191         2.5693         9.5838        69.8721     
 3842.0000         9.0008      -999.2500        -0.0003        87.0341       110.6286       111.1113         9.8909      -999.2500        24.7946         2.5585         9.4986        68.7800     
 3842.5000         9.0648      -999.2500         0.0025        87.7634       111.3246       110.1434         9.6009      -999.2500        24.8554         2.5446        10.5006        68.2227     
 3843.0000         9.0403      -999.2500         0.0063        88.6969       110.4254       110.0850         9.3970      -999.2500        25.3719         2.5298        12.0776        67.7486     
 3843.5000         8.9561      -999.2500         0.0120        89.9673       108.5501       109.6856         9.4235      -999.2500        26.7636         2.5188        11.2855        67.8118     
 3844.0000         8.9149      -999.2500         0.0337        91.6124       107.0676       110.2837         9.8091      -999.2500        28.3307         2.5100         9.8776        68.1524     
 3844.5000         8.8948      -999.2500         0.0454        93.1180       106.0855       108.7362        10.3794      -999.2500        29.1916         2.4977         8.3673        68.3936     
 3845.0000         8.8699      -999.2500         0.0589        94.1546       105.0323       106.8590        10.5589      -999.2500        29.6485         2.4914         6.9934        68.6173     
 3845.5000         8.8615      -999.2500         0.0499        92.9044       103.1123       106.6194        10.6206      -999.2500        29.0944         2.4905         5.9543        68.8429     
 3846.0000         8.8167      -999.2500         0.0251        86.6107        99.8097       106.5845        10.6782      -999.2500        25.6114         2.4762         6.7553        69.0951     
 3846.5000         8.7939      -999.2500         0.0197        81.1590        97.4950       104.8764        10.9439      -999.2500        21.8048         2.4809        10.4192        69.2471     
 3847.0000         8.7914      -999.2500         0.0235        80.7635        95.9330       103.4675        11.8098      -999.2500        21.1451         2.4975        15.5530        69.2572     
 3847.5000         8.8362      -999.2500         0.0283        83.9526        97.2714       106.4447        13.2183      -999.2500        22.6738         2.4777        13.8660        69.1926     
 3848.0000         8.7903      -999.2500         0.0462        89.6706        98.3760       106.4979        14.9303      -999.2500        23.7407         2.4318        11.3087        68.9339     
 3848.5000         8.7138      -999.2500         0.0440        86.4554        97.5767       104.3058        16.9297      -999.2500        24.0697         2.4093         9.3539        68.6749     
 3849.0000         8.5783      -999.2500         0.0015        81.9660        94.9949       100.5231        17.1828      -999.2500        23.0590         2.4055         9.2346        68.4160     
 3849.5000         8.5443      -999.2500         0.0054        76.0524        91.7358        98.8082        16.9378      -999.2500        20.6331         2.4178        12.2423        68.1570     
 3850.0000         8.5418      -999.2500         0.0178        70.0034        88.6397        94.5953        16.5729      -999.2500        17.8602         2.4667        15.9581        67.9904     
 3850.5000         8.5409      -999.2500         0.0254        70.8897        86.6260        91.2988        16.1602      -999.2500        15.9252         2.5148        22.1295        67.8425     
 3851.0000         8.5165      -999.2500         0.0340        75.6396        88.1997        88.9801        15.6290      -999.2500        15.5397         2.5491        34.0964        67.6945     
 3851.5000         8.4659      -999.2500         0.0461        81.0728        94.7354        91.1007        15.0543      -999.2500        17.2829         2.5534        20.3870        67.5474     
 3852.0000         8.5181      -999.2500         0.0261        85.5667       100.1432        99.6009        14.2095      -999.2500        21.1034         2.5545        11.8526        67.4148     
 3852.5000         8.6870      -999.2500         0.0071        88.6625       105.6314       107.8737        13.3649      -999.2500        24.3692         2.5489        10.0904        67.2824     
 3853.0000         8.8328      -999.2500         0.0026        87.5881       106.7113       111.7749        12.3063      -999.2500        25.8370         2.5537         9.6738        67.2132     
