~Version Information Section
VERS.          2.0                                     : CWLS LOG ASCII Standard
WRAP.          NO                                      : One line per depth step
CREA.          03/02/17                                : LAS Creation Date
~Well Information Section
STRT.ft        3300.0000                               : Start Depth
STOP.ft        3900.0000                               : Stop Depth
STEP.ft        0.5000                                  : Step
NULL.          -999.2500                               : Null Value
COMP.          TEXACO NORTH SEA                        : Company
WELL.          13/22-1                                 : Well
FLD .          MORAY FIRTH                             : Field
LOC .          NORTH SEA                               : Location
LOC1.          -                                        : Location (UTM)
CTRY.          UK                                      : Country
PROV.          UKCS                                    : Province
UWI .          824                                     : UWI Number
API .          -                                        : API Number
SECT.          -                                        : Section
TOWN.          -                                        : Township
RNGE.          -                                        : Range
PDAT.          MSL                                     : Perm Datum
EPD .ft        0.0                                     : Elevation
LMF .          KB                                      : Log Measured From
DMF .          KB                                      : Drill Measured From
APD .ft        86.0                                    : Above Perm Datum
EKB .ft        84.0                                    : Elev-Kelly Bushing
EDF .ft        83.0                                    : Elev-Drill Floor
EGL .ft        -348.0                                  : Elev-Ground Level (Water Depth)
TDD .ft        4778.0                                  : Total Depth (Driller)
SRVC.          SCHLUMBERGER                            : Service Company
LATI.          58 17 54.60" N                          : Latitude
LONG.          01 45 39.75" W                          : Longitude
DATE.          29-APR-1977 - 18-MAY-1977               : Logging Date
PROJ.          UKCS                                    : Project
SET .          COMP_WIRE                               : Set
~Curve Information Section
DEPTH.ft                                               : Depth Curve
CALD.in                                                : Caliper (from FDC/CNL/GR)
CALI.in                                                : Caliper (from MLL/ML)
DRHO.g/cc                                              : Delta Rho
DT.us/ft                                               : Delta-T
GR.gAPI                                                : Gamma Ray (from ISF/BHC/GR)
GRD.gAPI                                               : Gamma Ray (from FDC/CNL/GR)
ILD.Ohmm                                               : Deep Induction Standard Processed Resistivity
MLL.Ohmm                                               : Mll Resistivity
NPHI.LPU                                               : Neutron Porosity
RHOB.g/cc                                              : Bulk Density
SFLU.Ohmm                                              : SFL Resistivity (Unaveraged)
SP.mV                                                  : Spontaneous Potential
~ASCII Log Data Section
# ...
 3689.5000         8.7170      -999.2500         0.0127        77.2090        80.0233        83.1222        14.8813      -999.2500        19.0213         2.5404        13.1465        97.7153     
 3690.0000         8.7305      -999.2500         0.0203        76.7350        79.1152        82.7354        14.7114      -999.2500        18.1594         2.5680        13.8757        98.0672     
 3690.5000         8.7957      -999.2500         0.0253        76.3992        79.0242        84.3680        14.5421      -999.2500        17.7956         2.5911        15.1374        98.2104     
 3691.0000         8.8465      -999.2500         0.0153        76.8196        80.2526        87.1377        14.4094      -999.2500        17.5710         2.5805        17.4411        99.1650     
 3691.5000         8.8950      -999.2500         0.0098        77.4881        82.3326        87.3601        14.2769      -999.2500        18.4702         2.5598        16.6917       100.2179     
 3692.0000         8.9033      -999.2500         0.0111        78.8953        84.7930        88.2360        14.1443      -999.2500        19.3155         2.5473        13.4878       101.7761     
 3692.5000         8.8806      -999.2500         0.0074        80.8577        87.2514        89.2738        14.0645      -999.2500        19.7758         2.5352        11.5682       102.2781     
 3693.0000         8.8753      -999.2500         0.0035        81.0520        87.9427        88.5702        14.1677      -999.2500        19.5277         2.5291        11.3301       101.5131     
 3693.5000         8.8941      -999.2500         0.0022        79.3014        88.5114        87.6841        14.1345      -999.2500        19.1670         2.5304        11.9191        99.2564     
 3694.0000         8.8530      -999.2500         0.0003        78.1434        89.4192        86.5172        14.0876      -999.2500        18.8417         2.5337        13.1772        96.2854     
 3694.5000         8.8590      -999.2500        -0.0028        77.8091        90.2114        87.2425        13.9793      -999.2500        18.9804         2.5413        13.9448        93.9767     
 3695.0000         8.8703      -999.2500        -0.0056        77.7600        89.8529        89.0014        13.7930      -999.2500        19.4561         2.5500        13.8316        92.3745     
 3695.5000         8.8671      -999.2500         0.0071        77.8824        89.8244        92.1936        13.6065      -999.2500        20.0294         2.5552        13.5986        92.2595     
 3696.0000         8.8823      -999.2500         0.0111        78.4283        90.4545        93.5814        13.1646      -999.2500        20.5297         2.5573        14.5159        94.3160     
 3696.5000         8.8983      -999.2500         0.0118        79.8578        91.2194        93.6517        12.6772      -999.2500        21.0807         2.5464        15.2436        95.4367     
 3697.0000         8.8745      -999.2500         0.0181        82.2708        92.0777        94.8099        12.2835      -999.2500        21.4839         2.5361        14.5025        96.5752     
 3697.5000         8.8434      -999.2500         0.0266        85.2589        93.4943        98.6368        11.9394      -999.2500        22.0277         2.5324        10.9153        97.8873     
 3698.0000         8.8599      -999.2500         0.0325        87.4371        95.5025       100.2025        11.8141      -999.2500        23.2534         2.5219         8.7880        99.1169     
 3698.5000         8.9251      -999.2500         0.0228        88.6491        97.4371        98.9170        11.6034      -999.2500        24.7447         2.5185         8.2310        99.7700     
 3699.0000         8.9631      -999.2500         0.0184        87.2179        96.9964        97.0822        11.3344      -999.2500        25.3459         2.5342         8.3134       100.5455     
 3699.5000         8.9920      -999.2500         0.0231        83.4641        92.0128        95.9908        10.9733      -999.2500        23.6272         2.5578         9.6594       102.1266     
 3700.0000         8.9342      -999.2500         0.0107        81.2375        89.0024        91.9733        11.2938      -999.2500        21.8926         2.5612        11.0476       104.8800     
 3700.5000         8.9122      -999.2500         0.0038        80.7462        87.3303        91.0175        11.5940      -999.2500        20.7312         2.5387        11.7536       104.9025     
 3701.0000         8.9049      -999.2500         0.0035        81.2399        86.8227        93.2846        11.8790      -999.2500        20.5689         2.5284        11.6111       104.8224     
 3701.5000         8.9043      -999.2500         0.0049        82.1725        88.8188        93.9693        12.3048      -999.2500        20.8409         2.5298        11.7224       104.7423     
 3702.0000         8.9039      -999.2500         0.0086        83.2043        89.2241        93.7880        13.0120      -999.2500        20.5239         2.5375        11.4843       104.6621     
 3702.5000         8.9035      -999.2500         0.0164        82.5807        86.4192        92.7937        13.2805      -999.2500        20.1375         2.5375        10.2135        98.1657     
 3703.0000         8.9030      -999.2500         0.0278        80.8076        84.2873        90.5231        13.1288      -999.2500        20.0872         2.5476         9.1192        86.6715     
 3703.5000         8.9026      -999.2500         0.0161        78.3194        83.3832        89.1422        12.8200      -999.2500        19.2109         2.5543        11.5886        80.7380     
 3704.0000         8.7942      -999.2500         0.0080        76.6306        85.2278        88.3024        12.4760      -999.2500        18.3802         2.5618        16.2411        80.2688     
 3704.5000         8.7930      -999.2500         0.0125        78.7683        88.4065        88.8299        12.2018      -999.2500        19.8394         2.5634        16.3709        81.0752     
 3705.0000         8.7881      -999.2500         0.0129        83.7200        91.5322        94.5410        11.9276      -999.2500        22.4377         2.5628        13.5867        82.0859     
 3705.5000         8.7824      -999.2500         0.0146        85.5951        94.4535       100.9807        11.6553      -999.2500        25.0154         2.5639        11.3509        81.4551     
 3706.0000         8.8376      -999.2500         0.0183        88.0758        96.2494       103.5046        11.2010      -999.2500        26.5210         2.5583         9.8439        74.7289     
 3706.5000         8.8299      -999.2500         0.0234        89.9088        97.5250       102.3024        10.7743      -999.2500        26.5941         2.5565         9.3197        73.6212     
 3707.0000         8.8913      -999.2500         0.0257        89.3841        98.4904       100.6577        10.4391      -999.2500        25.8426         2.5605         8.9681        72.5347     
 3707.5000         8.9150      -999.2500         0.0116        87.8399        99.8972        98.9038        10.1860      -999.2500        25.0999         2.5455         9.0417        72.0749     
 3708.0000         9.0118      -999.2500         0.0016        85.7122       102.3102       100.1369        10.1170      -999.2500        24.6420         2.5408         9.5807        71.6165     
 3708.5000         8.9187      -999.2500        -0.0012        85.0005       105.2959       102.2557        10.3050      -999.2500        24.1649         2.5469        10.4280        71.1627     
 3709.0000         8.8913      -999.2500        -0.0009        84.7058       105.9746       105.8055        10.6444      -999.2500        23.6582         2.5566        10.1337        70.7927     
 3709.5000         8.8974      -999.2500         0.0013        84.9521       103.3451       109.1371        11.2237      -999.2500        23.9951         2.5614         8.9670        70.4224     
