~Version Information Section
VERS.          2.0                                     : CWLS LOG ASCII Standard
WRAP.          NO                                      : One line per depth step
CREA.          03/02/17                                : LAS Creation Date
~Well Information Section
STRT.ft        3300.0000                               : Start Depth
STOP.ft        3900.0000                               : Stop Depth
STEP.ft        0.5000                                  : Step
NULL.          -999.2500                               : Null Value
COMP.          TEXACO NORTH SEA                        : Company
WELL.          13/22-1                                 : Well
FLD .          MORAY FIRTH                             : Field
LOC .          NORTH SEA                               : Location
LOC1.          -                                        : Location (UTM)
CTRY.          UK                                      : Country
PROV.          UKCS                                    : Province
UWI .          824                                     : UWI Number
API .          -                                        : API Number
SECT.          -                                        : Section
TOWN.          -                                        : Township
RNGE.          -                                        : Range
PDAT.          MSL                                     : Perm Datum
EPD .ft        0.0                                     : Elevation
LMF .          KB                                      : Log Measured From
DMF .          KB                                      : Drill Measured From
APD .ft        86.0                                    : Above Perm Datum
EKB .ft        84.0                                    : Elev-Kelly Bushing
EDF .ft        83.0                                    : Elev-Drill Floor
EGL .ft        -348.0                                  : Elev-Ground Level (Water Depth)
TDD .ft        4778.0                                  : Total Depth (Driller)
SRVC.          SCHLUMBERGER                            : Service Company
LATI.          58 17 54.60" N                          : Latitude
LONG.          01 45 39.75" W                          : Longitude
DATE.          29-APR-1977 - 18-MAY-1977               : Logging Date
PROJ.          UKCS                                    : Project
SET .          COMP_WIRE                               : Set
~Curve Information Section
DEPTH.ft                                               : Depth Curve
CALD.in                                                : Caliper (from FDC/CNL/GR)
CALI.in                                                : Caliper (from MLL/ML)
DRHO.g/cc                                              : Delta Rho
DT.us/ft                                               : Delta-T
GR.gAPI                                                : Gamma Ray (from ISF/BHC/GR)
GRD.gAPI                                               : Gamma Ray (from FDC/CNL/GR)
ILD.Ohmm                                               : Deep Induction Standard Processed Resistivity
MLL.Ohmm                                               : Mll Resistivity
NPHI.LPU                                               : Neutron Porosity
RHOB.g/cc                                              : Bulk Density
SFLU.Ohmm                                              : SFL Resistivity (Unaveraged)
SP.mV                                                  : Spontaneous Potential
~ASCII Log Data Section
# ...
 3443.5000         8.7344      -999.2500         0.0396        93.2676        57.1675        65.9443         3.7484      -999.2500        26.9774         2.3385         3.6642        87.4135     
 3444.0000         8.7324      -999.2500         0.0365        87.7232        60.6717        73.3948         3.9230      -999.2500        24.9353         2.3403         4.8625        87.3035     
 3444.5000         8.7432      -999.2500         0.0218        90.3394        70.7879        87.3850         4.0977      -999.2500        22.2106         2.3394         3.6072        87.2759     
 3445.0000         8.8741      -999.2500         0.0149        95.3393        85.5065       101.3609         4.2372      -999.2500        23.0783         2.3279         3.0233        87.2799     
 3445.5000         8.9679      -999.2500         0.0192        98.2501       101.1472       113.1882         4.3388      -999.2500        25.5413         2.3243         3.1514        87.2237     
 3446.0000         9.0440      -999.2500         0.0081        98.8581       118.6538       125.1502         4.4730      -999.2500        28.2047         2.3311         3.3863        86.9844     
 3446.5000         9.1165      -999.2500        -0.0005        97.9460       129.5071       129.4479         4.4430      -999.2500        29.9943         2.3306         4.0760        86.7451     
 3447.0000         9.1436      -999.2500         0.0020        97.9347       130.3991       127.3451         4.5037      -999.2500        29.0448         2.3419         4.8799        86.3410     
 3447.5000         9.1474      -999.2500         0.0070       100.5340       130.5367       126.3633         4.5678      -999.2500        28.3612         2.3504         4.5942        86.1503     
 3448.0000         9.1512      -999.2500         0.0124       103.9626       129.7008       127.0499         4.6426      -999.2500        28.2572         2.3479         4.4043        86.2759     
 3448.5000         9.1550      -999.2500         0.0161       108.1243       127.9597       126.0433         4.7671      -999.2500        28.0835         2.3422         4.5796        86.4259     
 3449.0000         9.1590      -999.2500         0.0169       103.3358       124.3722       126.1995         4.8807      -999.2500        27.8297         2.3376         4.4802        86.5819     
 3449.5000         9.1639      -999.2500         0.0152       101.5971       120.1019       128.4602         4.9755      -999.2500        27.5476         2.3336         4.1729        86.6940     
 3450.0000         9.1689      -999.2500         0.0112       100.8479       117.3614       130.1213         5.0705      -999.2500        26.8730         2.3281         4.0188        86.5765     
 3450.5000         9.1739      -999.2500         0.0079        99.1665       116.4960       130.1067         5.1653      -999.2500        25.7471         2.3192         4.2954        86.4082     
 3451.0000         9.1789      -999.2500         0.0055        96.5934       117.5845       129.0040         5.2527      -999.2500        23.4758         2.3211         5.1763        86.1910     
 3451.5000         9.1840      -999.2500         0.0037        94.9899       122.8215       128.5925         5.3346      -999.2500        22.8218         2.3336         5.7509        85.7515     
 3452.0000         9.1890      -999.2500         0.0039        95.2610       131.4149       130.7269         5.3802      -999.2500        24.0038         2.3447         5.2473        85.3713     
 3452.5000         9.1940      -999.2500         0.0142        97.5501       139.4445       139.4080         5.3902      -999.2500        25.4705         2.3583         4.9926        85.5774     
 3453.0000         9.1812      -999.2500         0.0181       100.2858       146.2248       147.1376         5.3388      -999.2500        26.7389         2.3521         5.0111        85.7840     
 3453.5000         9.1544      -999.2500         0.0109       101.7508       150.9308       151.3564         5.2873      -999.2500        27.8628         2.3394         4.8614        85.9424     
 3454.0000         9.1276      -999.2500         0.0066       102.3452       152.0071       154.5513         5.2436      -999.2500        29.6778         2.3530         4.4248        85.5849     
 3454.5000         9.1072      -999.2500         0.0072       102.0414       152.0426       156.9157         5.2021      -999.2500        30.7355         2.3607         4.4070        85.1625     
 3455.0000         9.1500      -999.2500         0.0048       102.2811       149.4832       156.0757         5.1310      -999.2500        31.4983         2.3640         4.6328        85.3176     
 3455.5000         9.2102      -999.2500         0.0045       102.8266       145.8196       152.3839         5.1215      -999.2500        31.3587         2.3612         5.1655        85.7588     
 3456.0000         9.1794      -999.2500         0.0056       102.9047       143.2537       152.4679         5.1226      -999.2500        30.1469         2.3516         5.0858        86.4616     
 3456.5000         9.1304      -999.2500         0.0070       103.4794       141.4941       153.9406         5.1238      -999.2500        29.6818         2.3423         4.7238        87.5284     
 3457.0000         9.1116      -999.2500         0.0113       103.8319       141.4117       151.3899         5.1414      -999.2500        29.8671         2.3401         4.9617        87.6198     
 3457.5000         9.0956      -999.2500         0.0137       103.7951       140.9510       145.6147         5.1839      -999.2500        30.1181         2.3388         5.1794        86.9084     
 3458.0000         9.0832      -999.2500         0.0137       104.4526       137.0919       144.4742         5.2272      -999.2500        30.6518         2.3350         5.1006        85.9788     
 3458.5000         9.0721      -999.2500         0.0134       105.6433       135.0425       147.1268         5.2779      -999.2500        32.1293         2.3301         4.5860        88.1420     
 3459.0000         9.0610      -999.2500         0.0130       106.3338       136.2545       149.9316         5.3285      -999.2500        33.1529         2.3270         4.1502        96.1980     
 3459.5000         9.0499      -999.2500         0.0105       106.6236       139.3674       150.2995         5.3806      -999.2500        32.5178         2.3252         4.5614       105.2076     
 3460.0000         9.0388      -999.2500         0.0043       105.6321       139.4468       147.1270         5.4426      -999.2500        30.5856         2.3236         4.6601       105.0925     
 3460.5000         9.0345      -999.2500         0.0041       104.3012       136.6322       142.8600         5.5296      -999.2500        29.3880         2.3225         4.8537       105.0751     
 3461.0000         9.0432      -999.2500         0.0046       102.9065       134.8177       139.4789         5.6430      -999.2500        28.7897         2.3240         5.1827       105.0791     
 3461.5000         9.0529      -999.2500         0.0070       101.4750       136.6957       136.3646         5.7475      -999.2500        27.7589         2.3256         5.5349       105.0831     
 3462.0000         9.0627      -999.2500         0.0093       100.4167       139.0244       137.2473         5.8098      -999.2500        27.4192         2.3334         5.8224       105.0871     
 3462.5000         9.0508      -999.2500         0.0082       101.1111       142.2913       142.2427         5.8326      -999.2500        28.2529         2.3452         5.9330       105.0912     
 3463.0000         9.0042      -999.2500         0.0059       103.1526       145.8159       147.5316         5.8014      -999.2500        29.3086         2.3559         5.2870       105.0952     
 3463.5000         8.9626      -999.2500         0.0039       104.3632       146.6846       152.8242         5.7513      -999.2500        30.3760         2.3421         4.8304       105.0992     
