~Version Information Section
VERS.          2.0                                     : CWLS LOG ASCII Standard
WRAP.          NO                                      : One line per depth step
CREA.          03/02/17                                : LAS Creation Date
~Well Information Section
STRT.ft        3300.0000                               : Start Depth
STOP.ft        3900.0000                               : Stop Depth
STEP.ft        0.5000                                  : Step
NULL.          -999.2500                               : Null Value
COMP.          TEXACO NORTH SEA                        : Company
WELL.          13/22-1                                 : Well
FLD .          MORAY FIRTH                             : Field
LOC .          NORTH SEA                               : Location
LOC1.          -                                        : Location (UTM)
CTRY.          UK                                      : Country
PROV.          UKCS                                    : Province
UWI .          824                                     : UWI Number
API .          -                                        : API Number
SECT.          -                                        : Section
TOWN.          -                                        : Township
RNGE.          -                                        : Range
PDAT.          MSL                                     : Perm Datum
EPD .ft        0.0                                     : Elevation
LMF .          KB                                      : Log Measured From
DMF .          KB                                      : Drill Measured From
APD .ft        86.0                                    : Above Perm Datum
EKB .ft        84.0                                    : Elev-Kelly Bushing
EDF .ft        83.0                                    : Elev-Drill Floor
EGL .ft        -348.0                                  : Elev-Ground Level (Water Depth)
TDD .ft        4778.0                                  : Total Depth (Driller)
SRVC.          SCHLUMBERGER                            : Service Company
LATI.          58 17 54.60" N                          : Latitude
LONG.          01 45 39.75" W                          : Longitude
DATE.          29-APR-1977 - 18-MAY-1977               : Logging Date
PROJ.          UKCS                                    : Project
SET .          COMP_WIRE                               : Set
~Curve Information Section
DEPTH.ft                                               : Depth Curve
CALD.in                                                : Caliper (from FDC/CNL/GR)
CALI.in                                                : Caliper (from MLL/ML)
DRHO.g/cc                                              : Delta Rho
DT.us/ft                                               : Delta-T
GR.gAPI                                                : Gamma Ray (from ISF/BHC/GR)
GRD.gAPI                                               : Gamma Ray (from FDC/CNL/GR)
ILD.Ohmm                                               : Deep Induction Standard Processed Resistivity
MLL.Ohmm                                               : Mll Resistivity
NPHI.LPU                                               : Neutron Porosity
RHOB.g/cc                                              : Bulk Density
SFLU.Ohmm                                              : SFL Resistivity (Unaveraged)
SP.mV                                                  : Spontaneous Potential
~ASCII Log Data Section
 3300.0000         8.4208      -999.2500         0.0040       114.5720        23.6742        20.2091         1.5772      -999.2500        31.1135         2.1446         1.1435        77.8111     
 3300.5000         8.4203      -999.2500        -0.0018       114.4129        22.4167        20.6598         1.5717      -999.2500        31.0781         2.1383         1.1460        78.0728     
 3301.0000         8.4197      -999.2500        -0.0058       114.2542        21.2261        21.7096         1.5662      -999.2500        31.4625         2.1317         1.1486        78.1849     
 3301.5000         8.4192      -999.2500        -0.0079       114.0952        20.3109        21.9494         1.5608      -999.2500        31.7892         2.1242         1.1511        77.9374     
 3302.0000         8.4186      -999.2500        -0.0099       113.9364        19.4553        21.5196         1.5553      -999.2500        31.5813         2.1229         1.1536        77.5982     
 3302.5000         8.4181      -999.2500        -0.0078       113.9999        18.6553        20.9252         1.5498      -999.2500        30.7956         2.1263         1.1561        77.1212     
 3303.0000         8.4175      -999.2500        -0.0027       114.2617        18.3013        21.7645         1.5444      -999.2500        29.8048         2.1338         1.1625        76.5106     
 3303.5000         8.4170      -999.2500         0.0036       114.4235        18.2526        23.4807         1.5389      -999.2500        29.0067         2.1406         1.1754        76.0441     
 3304.0000         8.4149      -999.2500         0.0073       114.3660        18.6894        24.3168         1.5315      -999.2500        28.7190         2.1430         1.1884        75.8619     
 3304.5000         8.4124      -999.2500         0.0045       114.0663        19.2091        25.0410         1.5241      -999.2500        28.6141         2.1388         1.1996        76.0253     
 3305.0000         8.4098      -999.2500         0.0111       113.6891        19.8867        25.2638         1.5167      -999.2500        28.8033         2.1475         1.1891        76.5890     
 3305.5000         8.4073      -999.2500         0.0137       113.8468        20.5643        25.3743         1.5091      -999.2500        29.2197         2.1499         1.1785        77.0852     
 3306.0000         8.4047      -999.2500         0.0084       114.3778        21.3492        25.4848         1.4990      -999.2500        29.3779         2.1435         1.1680        77.3701     
 3306.5000         8.4021      -999.2500         0.0051       114.6450        20.8617        24.4049         1.4889      -999.2500        29.6708         2.1365         1.1574        77.2163     
 3307.0000         8.3996      -999.2500         0.0108       115.1602        20.3048        24.0019         1.4817      -999.2500        30.8438         2.1376         1.1469        77.0618     
 3307.5000         8.3970      -999.2500         0.0121       115.9208        20.3017        24.0777         1.4814      -999.2500        31.2724         2.1317         1.1364        77.0892     
 3308.0000         8.3945      -999.2500         0.0075       116.9644        21.2821        23.5098         1.4812      -999.2500        30.7964         2.1307         1.1328        77.3900     
 3308.5000         8.3921      -999.2500         0.0040       117.6654        23.3874        22.8963         1.4784      -999.2500        29.8387         2.1309         1.1304        77.6906     
 3309.0000         8.3912      -999.2500         0.0093       118.2824        24.9329        22.5841         1.4637      -999.2500        30.4324         2.1351         1.1281        78.0137     
 3309.5000         8.3907      -999.2500         0.0104       118.3961        24.8771        22.3331         1.4490      -999.2500        30.9631         2.1313         1.1258        78.5303     
 3310.0000         8.3902      -999.2500         0.0107       117.4086        23.2578        22.3018         1.4421      -999.2500        31.3179         2.1265         1.1235        78.9384     
 3310.5000         8.3896      -999.2500         0.0107       116.9908        22.4504        22.3058         1.4476      -999.2500        31.2441         2.1209         1.1191        79.1535     
 3311.0000         8.3891      -999.2500         0.0112       116.7436        21.8845        23.3887         1.4527      -999.2500        30.4370         2.1161         1.1144        79.1510     
 3311.5000         8.3886      -999.2500         0.0124       116.4283        21.5770        22.8260         1.4524      -999.2500        30.0612         2.1153         1.1098        79.1485     
 3312.0000         8.3881      -999.2500         0.0134       116.1159        21.2978        21.4844         1.4522      -999.2500        29.8178         2.1153         1.1052        78.9956     
 3312.5000         8.3875      -999.2500         0.0144       115.8651        21.0582        20.2235         1.4519      -999.2500        29.6786         2.1216         1.1005        78.8411     
 3313.0000         8.3870      -999.2500         0.0153       115.6147        20.8343        19.5299         1.4517      -999.2500        29.7306         2.1260         1.0959        78.6868     
 3313.5000         8.3869      -999.2500         0.0144       115.3519        20.4254        19.7543         1.4514      -999.2500        30.0051         2.1225         1.0914        78.5484     
 3314.0000         8.3892      -999.2500         0.0108       115.0166        19.9329        21.1913         1.4512      -999.2500        30.5748         2.1162         1.0932        78.8056     
 3314.5000         8.3919      -999.2500         0.0059       114.6891        18.8704        21.9065         1.4509      -999.2500        31.3612         2.1098         1.0950        79.0632     
 3315.0000         8.3945      -999.2500         0.0040       114.6816        18.1095        21.6530         1.4507      -999.2500        31.9112         2.1110         1.0968        79.5733     
 3315.5000         8.3971      -999.2500         0.0034       114.8468        18.2590        20.4233         1.4484      -999.2500        32.0943         2.1129         1.0986        80.1773     
 3316.0000         8.3998      -999.2500         0.0037       115.4873        19.7066        19.6526         1.4445      -999.2500        31.8761         2.1148         1.1003        80.5729     
 3316.5000         8.4024      -999.2500         0.0040       116.4229        21.8658        19.6388         1.4405      -999.2500        31.4620         2.1146         1.1003        80.6809     
 3317.0000         8.4050      -999.2500         0.0027       117.3885        24.3823        20.9345         1.4366      -999.2500        31.4263         2.1142         1.1001        80.7955     
 3317.5000         8.4077      -999.2500         0.0029       117.9903        25.0084        22.6192         1.4508      -999.2500        31.4979         2.1157         1.1052        80.9145     
 3318.0000         8.4103      -999.2500         0.0036       118.1783        24.4926        23.7216         1.4661      -999.2500        31.1717         2.1221         1.1163        80.9170     
 3318.5000         8.4129      -999.2500         0.0036       117.9933        24.2788        24.8759         1.4815      -999.2500        30.7890         2.1263         1.1369        80.7423     
 3319.0000         8.4156      -999.2500         0.0024       117.1343        25.1224        26.2059         1.4918      -999.2500        30.5749         2.1304         1.1625        80.1869     
 3319.5000         8.4182      -999.2500         0.0013       115.9228        25.2725        27.1722         1.4967      -999.2500        30.4386         2.1349         1.1787        79.9088     
 3320.0000         8.4203      -999.2500        -0.0024       114.5748        24.5225        26.3972         1.5017      -999.2500        30.1439         2.1323         1.1558        80.4636     
