~Version Information Section
VERS.          2.0                                     : CWLS LOG ASCII Standard
WRAP.          NO                                      : One line per depth step
CREA.          03/02/17                                : LAS Creation Date
~Well Information Section
STRT.ft        3300.0000                               : Start Depth
STOP.ft        3900.0000                               : Stop Depth
STEP.ft        0.5000                                  : Step
NULL.          -999.2500                               : Null Value
COMP.          TEXACO NORTH SEA                        : Company
WELL.          13/22-1                                 : Well
FLD .          MORAY FIRTH                             : Field
LOC .          NORTH SEA                               : Location
LOC1.          -                                        : Location (UTM)
CTRY.          UK                                      : Country
PROV.          UKCS                                    : Province
UWI .          824                                     : UWI Number
API .          -                                        : API Number
SECT.          -                                        : Section
TOWN.          -                                        : Township
RNGE.          -                                        : Range
PDAT.          MSL                                     : Perm Datum
EPD .ft        0.0                                     : Elevation
LMF .          KB                                      : Log Measured From
DMF .          KB                                      : Drill Measured From
APD .ft        86.0                                    : Above Perm Datum
EKB .ft        84.0                                    : Elev-Kelly Bushing
EDF .ft        83.0                                    : Elev-Drill Floor
EGL .ft        -348.0                                  : Elev-Ground Level (Water Depth)
TDD .ft        4778.0                                  : Total Depth (Driller)
SRVC.          SCHLUMBERGER                            : Service Company
LATI.          58 17 54.60" N                          : Latitude
LONG.          01 45 39.75" W                          : Longitude
DATE.          29-APR-1977 - 18-MAY-1977               : Logging Date
PROJ.          UKCS                                    : Project
SET .          COMP_WIRE                               : Set
~Curve Information Section
DEPTH.ft                                               : Depth Curve
CALD.in                                                : Caliper (from FDC/CNL/GR)
CALI.in                                                : Caliper (from MLL/ML)
DRHO.g/cc                                              : Delta Rho
DT.us/ft                                               : Delta-T
GR.gAPI                                                : Gamma Ray (from ISF/BHC/GR)
GRD.gAPI                                               : Gamma Ray (from FDC/CNL/GR)
ILD.Ohmm                                               : Deep Induction Standard Processed Resistivity
MLL.Ohmm                                               : Mll Resistivity
NPHI.LPU                                               : Neutron Porosity
RHOB.g/cc                                              : Bulk Density
SFLU.Ohmm                                              : SFL Resistivity (Unaveraged)
SP.mV                                                  : Spontaneous Potential
~ASCII Log Data Section
# ...
 3423.0000         8.6505      -999.2500         0.0097       104.7250        25.6767        26.1951         1.7416      -999.2500        31.3095         2.1066         1.3158        89.4085     
 3423.5000         8.6803      -999.2500         0.0070       106.3685        26.0816        26.4300         1.7439      -999.2500        31.9586         2.1026         1.2953        89.4021     
 3424.0000         8.7108      -999.2500         0.0063       106.9509        26.0863        26.8335         1.7355      -999.2500        32.1247         2.1080         1.2756        89.0408     
 3424.5000         8.7412      -999.2500         0.0094       107.0714        26.7663        27.6887         1.7246      -999.2500        32.2647         2.1246         1.2760        88.2740     
 3425.0000         8.7716      -999.2500         0.0087       107.2590        28.0313        27.1103         1.7097      -999.2500        32.3071         2.1325         1.3277        88.0302     
 3425.5000         8.8073      -999.2500         0.0022       107.4714        28.1064        25.9690         1.6949      -999.2500        31.1967         2.1313         1.3532        87.9377     
 3426.0000         8.8572      -999.2500         0.0026       107.6100        27.7010        26.8764         1.6800      -999.2500        30.5538         2.1294         1.3156        88.3459     
 3426.5000         8.8759      -999.2500         0.0023       107.7555        27.1109        27.9723         1.6652      -999.2500        31.3073         2.1257         1.2605        88.7527     
 3427.0000         8.8755      -999.2500         0.0000       107.9818        27.8043        28.7237         1.6498      -999.2500        32.3894         2.1242         1.2487        89.1040     
 3427.5000         8.8752      -999.2500         0.0002       108.2082        27.9217        29.2766         1.6331      -999.2500        32.1363         2.1291         1.2369        89.4555     
 3428.0000         8.8748      -999.2500         0.0013       107.5571        28.2101        29.7951         1.6163      -999.2500        31.0227         2.1339         1.2252        89.6213     
 3428.5000         8.8745      -999.2500         0.0022       106.5270        28.6192        30.0974         1.6049      -999.2500        30.4827         2.1377         1.2132        89.7189     
 3429.0000         8.8707      -999.2500         0.0025       106.1375        29.3879        30.0338         1.5964      -999.2500        30.0665         2.1367         1.2013        89.5032     
 3429.5000         8.8419      -999.2500         0.0067       106.1012        31.2618        29.9480         1.5878      -999.2500        29.5905         2.1357         1.1961        89.0641     
 3430.0000         8.8015      -999.2500         0.0119       106.2717        32.5518        29.9318         1.5824      -999.2500        29.4113         2.1426         1.1925        88.7791     
 3430.5000         8.7364      -999.2500         0.0128       106.5745        32.9036        29.9282         1.5828      -999.2500        29.5397         2.1432         1.1894        88.7699     
 3431.0000         8.6687      -999.2500         0.0085       107.3099        32.9699        29.8697         1.5832      -999.2500        29.6329         2.1408         1.2081        88.7439     
 3431.5000         8.6662      -999.2500         0.0049       108.3699        32.9739        29.5620         1.6125      -999.2500        29.2434         2.1426         1.2314        88.6465     
 3432.0000         8.7307      -999.2500         0.0082       108.5937        32.6150        29.7056         1.6486      -999.2500        28.3426         2.1500         1.2735        88.6770     
 3432.5000         8.7926      -999.2500         0.0108       108.2893        31.6404        29.9980         1.7418      -999.2500        27.8069         2.1673         1.3461        88.9846     
 3433.0000         8.7642      -999.2500         0.0097       109.2301        30.4253        30.2159         1.9685      -999.2500        27.6254         2.1784         1.4188        89.2927     
 3433.5000         8.7040      -999.2500         0.0058       107.9223        29.3740        29.9660         2.2504      -999.2500        27.4744         2.1837         1.4619        89.5938     
 3434.0000         8.6501      -999.2500         0.0050       101.5913        28.7009        29.3127         2.5104      -999.2500        26.5839         2.2029         1.4221        89.3704     
 3434.5000         8.6822      -999.2500         0.0073        85.0323        27.8081        28.6521         2.6063      -999.2500        25.1085         2.2532         1.7777        89.1463     
 3435.0000         8.7480      -999.2500         0.0020        75.1613        26.8757        28.5835         2.6394      -999.2500        22.3919         2.3355         2.6472        89.4582     
 3435.5000         8.8096      -999.2500        -0.0099        71.3096        26.4169        28.6883         2.6524      -999.2500        19.3440         2.4131         7.8119        90.6749     
 3436.0000         8.8199      -999.2500        -0.0051        78.9887        26.5305        29.0006         2.6443      -999.2500        17.6557         2.4351        11.8244        91.3660     
 3436.5000         8.8076      -999.2500         0.0029        85.7447        26.5185        29.4877         2.5879      -999.2500        21.1304         2.3647         6.4632        90.3302     
 3437.0000         8.7952      -999.2500         0.0060        96.2733        26.4212        30.2491         2.5170      -999.2500        25.0563         2.2764         2.7610        88.9404     
 3437.5000         8.7943      -999.2500         0.0100       104.4998        27.7792        31.5004         2.3000      -999.2500        28.9811         2.1962         1.6772        88.3308     
 3438.0000         8.8250      -999.2500         0.0129       106.8078        29.5703        32.8211         2.1097      -999.2500        31.5136         2.1551         1.3441        87.9744     
 3438.5000         8.9754      -999.2500         0.0175       107.2527        31.3345        34.1748         2.0199      -999.2500        31.2756         2.1469         1.2976        87.8567     
 3439.0000         9.0734      -999.2500         0.0190       107.1352        33.8625        35.8976         1.9859      -999.2500        30.4452         2.1452         1.3273        87.9205     
 3439.5000         8.7708      -999.2500         0.0152       105.7887        36.6882        39.5067         2.0708      -999.2500        29.5203         2.1458         1.4767        88.0350     
 3440.0000         8.4829      -999.2500         0.0138       103.4307        39.4751        43.3599         2.2671      -999.2500        27.7145         2.1645         1.6424        87.7720     
 3440.5000         8.4686      -999.2500         0.0137       101.8488        41.8041        47.2450         2.4984      -999.2500        26.3850         2.1833         1.7777        87.4950     
 3441.0000         8.4892      -999.2500         0.0187       101.8733        45.7209        51.1042         2.7416      -999.2500        26.1689         2.2102         2.1950        87.6299     
 3441.5000         8.5097      -999.2500         0.0305       101.8790        49.6505        54.1075         2.9215      -999.2500        26.7514         2.2438         2.7152        87.8532     
 3442.0000         8.5303      -999.2500         0.0421       100.6679        52.4769        56.5946         3.1923      -999.2500        27.2224         2.2825         2.7561        87.7437     
 3442.5000         8.5758      -999.2500         0.0473        98.4726        53.5887        58.9980         3.3907      -999.2500        27.2092         2.3231         2.6746        87.6336     
 3443.0000         8.6654      -999.2500         0.0414        95.9137        54.5257        61.2124         3.5710      -999.2500        27.1850         2.3345         2.6735        87.5236     
