~Version Information Section
VERS.          2.0                                     : CWLS LOG ASCII Standard
WRAP.          NO                                      : One line per depth step
CREA.          03/02/17                                : LAS Creation Date
~Well Information Section
STRT.ft        3300.0000                               : Start Depth
STOP.ft        3900.0000                               : Stop Depth
STEP.ft        0.5000                                  : Step
NULL.          -999.2500                               : Null Value
COMP.          TEXACO NORTH SEA                        : Company
WELL.          13/22-1                                 : Well
FLD .          MORAY FIRTH                             : Field
LOC .          NORTH SEA                               : Location
LOC1.          -                                        : Location (UTM)
CTRY.          UK                                      : Country
PROV.          UKCS                                    : Province
UWI .          824                                     : UWI Number
API .          -                                        : API Number
SECT.          -                                        : Section
TOWN.          -                                        : Township
RNGE.          -                                        : Range
PDAT.          MSL                                     : Perm Datum
EPD .ft        0.0                                     : Elevation
LMF .          KB                                      : Log Measured From
DMF .          KB                                      : Drill Measured From
APD .ft        86.0                                    : Above Perm Datum
EKB .ft        84.0                                    : Elev-Kelly Bushing
EDF .ft        83.0                                    : Elev-Drill Floor
EGL .ft        -348.0                                  : Elev-Ground Level (Water Depth)
TDD .ft        4778.0                                  : Total Depth (Driller)
SRVC.          SCHLUMBERGER                            : Service Company
LATI.          58 17 54.60" N                          : Latitude
LONG.          01 45 39.75" W                          : Longitude
DATE.          29-APR-1977 - 18-MAY-1977               : Logging Date
PROJ.          UKCS                                    : Project
SET .          COMP_WIRE                               : Set
~Curve Information Section
DEPTH.ft                                               : Depth Curve
CALD.in                                                : Caliper (from FDC/CNL/GR)
CALI.in                                                : Caliper (from MLL/ML)
DRHO.g/cc                                              : Delta Rho
DT.us/ft                                               : Delta-T
GR.gAPI                                                : Gamma Ray (from ISF/BHC/GR)
GRD.gAPI                                               : Gamma Ray (from FDC/CNL/GR)
ILD.Ohmm                                               : Deep Induction Standard Processed Resistivity
MLL.Ohmm                                               : Mll Resistivity
NPHI.LPU                                               : Neutron Porosity
RHOB.g/cc                                              : Bulk Density
SFLU.Ohmm                                              : SFL Resistivity (Unaveraged)
SP.mV                                                  : Spontaneous Potential
~ASCII Log Data Section
# ...
 3525.5000         8.8941      -999.2500         0.0072        84.4328        85.1120        88.9134         9.3287      -999.2500        22.0559         2.5618        14.6394        90.1374     
 3526.0000         8.9377      -999.2500         0.0190        86.7641        84.5553        91.7738        10.2538      -999.2500        23.2266         2.5521        10.9549        90.2791     
 3526.5000         8.9782      -999.2500         0.0290        88.5847        82.8145        88.1134        11.1517      -999.2500        23.5214         2.5362         7.9452        90.4207     
 3527.0000         9.0184      -999.2500         0.0500        84.5815        79.7791        81.2180        11.8647      -999.2500        21.5865         2.5440         6.7177        90.3962     
 3527.5000         8.9426      -999.2500         0.0773        78.1048        75.1848        72.8775        12.4316      -999.2500        18.9694         2.5433         6.6091        90.3345     
 3528.0000         8.6853      -999.2500         0.0725        71.3609        65.5589        63.7714        13.2981      -999.2500        16.3523         2.5216         9.9352        90.2727     
 3528.5000         8.4925      -999.2500         0.0617        64.2959        60.4784        59.4834        14.0230      -999.2500        13.8080         2.4999        14.8654        90.2956     
 3529.0000         8.4020      -999.2500         0.0547        62.2272        58.1604        61.0002        14.6083      -999.2500        12.0674         2.4950        21.1175        90.3329     
 3529.5000         8.3745      -999.2500         0.0556        63.3754        60.9275        65.9792        15.2540      -999.2500        11.5740         2.5100        24.8636        90.3702     
 3530.0000         8.3929      -999.2500         0.0523        67.1965        67.5297        73.6396        15.0510      -999.2500        12.9222         2.5248        16.8003        90.4075     
 3530.5000         8.4592      -999.2500         0.0391        71.8799        74.2095        82.0834        14.1004      -999.2500        15.2011         2.5351        12.7782        90.4449     
 3531.0000         8.5795      -999.2500         0.0300        75.9070        80.8839        91.7800        12.1029      -999.2500        17.4122         2.5422        12.5305        90.4822     
 3531.5000         8.6964      -999.2500         0.0262        79.4659        85.0618        94.2296        10.9979      -999.2500        18.8328         2.5489        12.3362        90.5440     
 3532.0000         8.7735      -999.2500         0.0038        81.2225        87.6920        94.9495         9.6216      -999.2500        20.1979         2.5511        12.0075        90.6371     
 3532.5000         8.8361      -999.2500         0.0016        82.6710        89.6614        96.1318         9.2325      -999.2500        21.3973         2.5520        11.3023        90.7586     
 3533.0000         8.8987      -999.2500         0.0046        84.3317        90.2401        97.8471         9.3470      -999.2500        21.7708         2.5564         9.6018        91.0590     
 3533.5000         8.9613      -999.2500         0.0081        86.8275        90.3484        98.4050         9.5839      -999.2500        21.9274         2.5620         7.7269        91.3599     
 3534.0000         9.0071      -999.2500         0.0138        89.9204        90.2298        98.7677         9.9462      -999.2500        22.1862         2.5679         7.1518        91.6605     
 3534.5000         8.9690      -999.2500         0.0150        89.5560        89.8802        99.2034        10.3086      -999.2500        22.7048         2.5754         7.4806        91.9612     
 3535.0000         8.9205      -999.2500         0.0104        87.7254        88.9121        97.2297        10.6185      -999.2500        22.2811         2.5799         8.1125        92.2659     
 3535.5000         8.8903      -999.2500         0.0053        84.6073        86.5998        92.4434        10.9059      -999.2500        20.6733         2.5790         8.6212        92.5772     
 3536.0000         8.8741      -999.2500         0.0039        79.8112        83.4672        87.7370        11.1935      -999.2500        19.0265         2.5763         9.5903        92.8487     
 3536.5000         8.8579      -999.2500         0.0073        77.4316        82.3605        83.7281        11.4810      -999.2500        17.8526         2.5741        14.5642        93.0582     
 3537.0000         8.8467      -999.2500         0.0126        77.7357        83.0591        83.4408        11.7732      -999.2500        17.0854         2.5884        17.2410        93.3105     
 3537.5000         8.8791      -999.2500         0.0167        79.8315        82.9852        85.7500        12.0713      -999.2500        17.4638         2.6022        15.6621        93.6217     
 3538.0000         8.9284      -999.2500         0.0194        81.6814        83.9831        89.0991        12.2662      -999.2500        19.1322         2.6021        12.5178        93.9332     
 3538.5000         8.9776      -999.2500         0.0204        83.5345        85.3211        92.3598        11.8764      -999.2500        20.4980         2.5979        11.1459        94.1963     
 3539.0000         9.0269      -999.2500         0.0151        85.6817        87.6693        94.3801        11.1480      -999.2500        21.7363         2.5916        10.0030        94.5175     
 3539.5000         9.0505      -999.2500         0.0140        86.7923        89.6020        94.8083        10.3912      -999.2500        22.5704         2.5880         9.9315        95.2453     
 3540.0000         9.0393      -999.2500         0.0168        86.0774        91.5359        94.0294         9.5406      -999.2500        22.9187         2.5745        10.4222        96.1842     
 3540.5000         9.0262      -999.2500         0.0202        87.7370        92.8604        91.8450         8.7027      -999.2500        23.6749         2.5537        10.1640        98.3352     
 3541.0000         9.0321      -999.2500         0.0304        88.0809        93.3559        92.1943         8.2927      -999.2500        24.5701         2.5367         9.6175       100.5325     
 3541.5000         9.0759      -999.2500         0.0429        87.9527        92.9057        93.0542         8.2956      -999.2500        25.0299         2.5413        11.2123       103.7056     
 3542.0000         9.1229      -999.2500         0.0456        90.0625        91.9604        92.9853         8.5103      -999.2500        25.4095         2.5379        10.3564       105.0901     
 3542.5000         9.2042      -999.2500         0.0480        95.5762        90.7706        90.6711         8.6251      -999.2500        26.1334         2.5296         7.4732       105.0962     
 3543.0000         9.3312      -999.2500         0.0461        95.5492        88.4648        84.5941         8.6275      -999.2500        27.3588         2.5213         5.3251       105.1022     
 3543.5000         9.1635      -999.2500         0.0276        93.3843        84.0781        77.2780         8.5727      -999.2500        26.8127         2.5074         4.9241       105.1082     
 3544.0000         8.9293      -999.2500         0.0172        84.6545        78.1711        68.4994         8.5040      -999.2500        22.6959         2.5040         5.7967       105.1142     
 3544.5000         8.8700      -999.2500         0.0231        74.5341        72.1771        62.1366         8.6157      -999.2500        18.2779         2.5293         7.0434       105.1203     
 3545.0000         8.8223      -999.2500         0.0378        69.7440        65.2388        58.5617         8.8933      -999.2500        14.1145         2.5651         8.3265       105.1263     
 3545.5000         8.7572      -999.2500         0.0416        69.9776        59.7840        56.2020         9.2680      -999.2500        12.3275         2.5761        18.5533       105.1323     
