~Version Information Section
VERS.          2.0                                     : CWLS LOG ASCII Standard
WRAP.          NO                                      : One line per depth step
CREA.          03/02/17                                : LAS Creation Date
~Well Information Section
STRT.ft        3300.0000                               : Start Depth
STOP.ft        3900.0000                               : Stop Depth
STEP.ft        0.5000                                  : Step
NULL.          -999.2500                               : Null Value
COMP.          TEXACO NORTH SEA                        : Company
WELL.          13/22-1                                 : Well
FLD .          MORAY FIRTH                             : Field
LOC .          NORTH SEA                               : Location
LOC1.          -                                        : Location (UTM)
CTRY.          UK                                      : Country
PROV.          UKCS                                    : Province
UWI .          824                                     : UWI Number
API .          -                                        : API Number
SECT.          -                                        : Section
TOWN.          -                                        : Township
RNGE.          -                                        : Range
PDAT.          MSL                                     : Perm Datum
EPD .ft        0.0                                     : Elevation
LMF .          KB                                      : Log Measured From
DMF .          KB                                      : Drill Measured From
APD .ft        86.0                                    : Above Perm Datum
EKB .ft        84.0                                    : Elev-Kelly Bushing
EDF .ft        83.0                                    : Elev-Drill Floor
EGL .ft        -348.0                                  : Elev-Ground Level (Water Depth)
TDD .ft        4778.0                                  : Total Depth (Driller)
SRVC.          SCHLUMBERGER                            : Service Company
LATI.          58 17 54.60" N                          : Latitude
LONG.          01 45 39.75" W                          : Longitude
DATE.          29-APR-1977 - 18-MAY-1977               : Logging Date
PROJ.          UKCS                                    : Project
SET .          COMP_WIRE                               : Set
~Curve Information Section
DEPTH.ft                                               : Depth Curve
CALD.in                                                : Caliper (from FDC/CNL/GR)
CALI.in                                                : Caliper (from MLL/ML)
DRHO.g/cc                                              : Delta Rho
DT.us/ft                                               : Delta-T
GR.gAPI                                                : Gamma Ray (from ISF/BHC/GR)
GRD.gAPI                                               : Gamma Ray (from FDC/CNL/GR)
ILD.Ohmm                                               : Deep Induction Standard Processed Resistivity
MLL.Ohmm                                               : Mll Resistivity
NPHI.LPU                                               : Neutron Porosity
RHOB.g/cc                                              : Bulk Density
SFLU.Ohmm                                              : SFL Resistivity (Unaveraged)
SP.mV                                                  : Spontaneous Potential
~ASCII Log Data Section
# ...
 3607.5000         8.9900      -999.2500         0.0064        78.4359        80.0904        84.9299        12.2689      -999.2500        18.7011         2.5857        12.0541        86.3407     
 3608.0000         8.9864      -999.2500         0.0055        78.2046        79.3622        84.9955        12.2409      -999.2500        18.8421         2.5882        14.5241        86.1752     
 3608.5000         8.9779      -999.2500         0.0043        78.6868        79.0385        86.5866        12.1357      -999.2500        19.3245         2.5821        15.2837        86.0855     
 3609.0000         8.9705      -999.2500         0.0060        80.0822        79.3906        87.9006        12.1369      -999.2500        20.3266         2.5786        14.4090        86.2765     
 3609.5000         8.9719      -999.2500         0.0045        82.8203        80.6237        88.9952        12.1769      -999.2500        22.0203         2.5743        12.0627        86.4681     
 3610.0000         8.9670      -999.2500        -0.0008        84.0243        83.2840        90.2364        12.2537      -999.2500        23.6096         2.5407         9.6853        86.6595     
 3610.5000         8.9735      -999.2500         0.0025        82.7821        85.1656        89.9802        12.3305      -999.2500        23.1771         2.5359         8.2152        86.4021     
 3611.0000         8.9362      -999.2500         0.0061        79.6363        84.8339        87.5127        12.3808      -999.2500        21.2264         2.5446         9.3743        86.1062     
 3611.5000         8.9295      -999.2500         0.0052        76.3710        83.2913        83.6659        12.3856      -999.2500        19.2184         2.5641        11.7583        85.8106     
 3612.0000         8.9278      -999.2500         0.0042        75.8069        81.5628        82.2016        12.6075      -999.2500        17.7040         2.5718        12.8815        85.5148     
 3612.5000         8.9268      -999.2500         0.0049        77.1218        80.7335        82.8474        13.0017      -999.2500        17.4645         2.5727        13.3067        85.5519     
 3613.0000         8.9273      -999.2500         0.0099        78.1563        80.7199        84.1296        13.4786      -999.2500        18.3751         2.5733        13.7822        85.6024     
 3613.5000         8.9316      -999.2500         0.0114        78.7910        80.7283        85.1708        13.8635      -999.2500        18.6861         2.5793        14.3274        85.6528     
 3614.0000         8.9267      -999.2500         0.0069        79.2147        80.1223        85.8784        14.1327      -999.2500        18.3233         2.5770        14.5056        85.7033     
 3614.5000         8.9307      -999.2500         0.0051        79.6773        78.3308        85.9616        14.2102      -999.2500        18.2738         2.5750        13.6510        85.7458     
 3615.0000         8.9246      -999.2500         0.0026        79.4955        77.3347        87.3139        14.3048      -999.2500        18.3876         2.5752        11.8435        85.7543     
 3615.5000         8.9259      -999.2500        -0.0003        77.7497        77.0922        86.7795        14.4173      -999.2500        17.9680         2.5701        11.5411        85.7627     
 3616.0000         8.9134      -999.2500         0.0015        76.3370        77.4479        84.2137        14.5306      -999.2500        17.0277         2.5656        12.6832        86.0098     
 3616.5000         8.9426      -999.2500         0.0059        75.5519        77.3040        81.6780        14.6748      -999.2500        15.8773         2.5797        15.0711        86.3512     
 3617.0000         9.0661      -999.2500         0.0109        75.4715        76.8267        82.2848        14.8710      -999.2500        16.0886         2.5981        15.7387        86.6362     
 3617.5000         9.1100      -999.2500         0.0094        76.4853        76.2616        85.0450        14.8184      -999.2500        16.8410         2.5936        14.5967        86.9159     
 3618.0000         9.2504      -999.2500         0.0031        77.3456        77.5140        86.1663        14.6366      -999.2500        17.3042         2.5780        13.6450        87.1955     
 3618.5000         9.3759      -999.2500         0.0025        77.7307        78.9754        85.7935        14.4968      -999.2500        17.5304         2.5770        13.9683        87.6528     
 3619.0000         9.3999      -999.2500         0.0025        77.8371        81.0950        86.4722        14.2693      -999.2500        17.6941         2.5816        14.5599        88.4771     
 3619.5000         9.3776      -999.2500         0.0022        78.8249        82.4344        87.2296        13.9338      -999.2500        17.8710         2.5861        13.1010        89.7762     
 3620.0000         9.2243      -999.2500         0.0015        79.9544        81.1586        87.8000        13.7908      -999.2500        18.2687         2.5708        11.6990        91.3570     
 3620.5000         9.1694      -999.2500        -0.0001        80.0762        80.8461        87.6930        13.7959      -999.2500        18.8130         2.5639        10.8369        95.5959     
 3621.0000         9.1230      -999.2500         0.0020        79.3020        80.9623        86.6570        13.8011      -999.2500        19.1325         2.5779        10.5761        99.8518     
 3621.5000         9.0724      -999.2500         0.0089        76.8925        82.0619        85.3960        13.4991      -999.2500        18.7751         2.5914        11.1554       103.2938     
 3622.0000         9.0440      -999.2500         0.0094        75.5399        83.1697        84.7914        13.0075      -999.2500        18.5482         2.5855        13.0944       102.4574     
 3622.5000         8.9761      -999.2500         0.0106        77.3905        83.9689        87.7395        12.4600      -999.2500        18.4256         2.5764        15.0714       102.3273     
 3623.0000         8.9649      -999.2500         0.0119        80.6772        85.7619        92.3966        12.0401      -999.2500        18.9907         2.5721        14.6356       101.3511     
 3623.5000         8.9725      -999.2500         0.0142        83.5408        89.2603        97.0387        11.5986      -999.2500        20.5296         2.5746        12.6242        96.3037     
 3624.0000         8.9804      -999.2500         0.0201        85.7260        92.8986        99.8609        10.9761      -999.2500        22.2612         2.5869        10.0363        94.4718     
 3624.5000         8.9938      -999.2500         0.0139        87.0740        96.7769       100.8906        10.5578      -999.2500        23.8265         2.5901         8.8498        93.1701     
 3625.0000         8.9991      -999.2500         0.0167        87.2415        99.4017       102.3095        10.1769      -999.2500        24.6833         2.5926         8.5993        92.3588     
 3625.5000         8.9934      -999.2500         0.0158        86.9232        99.7407       101.0044         9.8088      -999.2500        25.3360         2.5854         8.8797        93.0494     
 3626.0000         8.9930      -999.2500        -0.0004        87.0069        99.3165        99.2437         9.6673      -999.2500        25.6573         2.5547         9.1418        93.2595     
 3626.5000         8.9930      -999.2500        -0.0017        86.9610        98.6714        98.1334         9.7175      -999.2500        25.2844         2.5499         9.2008        93.0132     
 3627.0000         8.9982      -999.2500        -0.0009        86.4770        97.7014        99.0392         9.9989      -999.2500        24.5222         2.5588         8.9783        92.5836     
 3627.5000         8.9981      -999.2500        -0.0008        86.0665        96.4890        99.3900        10.2771      -999.2500        23.8796         2.5611         8.6762        92.8471     
