~Version Information Section
VERS.          2.0                                     : CWLS LOG ASCII Standard
WRAP.          NO                                      : One line per depth step
CREA.          03/02/17                                : LAS Creation Date
~Well Information Section
STRT.ft        3300.0000                               : Start Depth
STOP.ft        3900.0000                               : Stop Depth
STEP.ft        0.5000                                  : Step
NULL.          -999.2500                               : Null Value
COMP.          TEXACO NORTH SEA                        : Company
WELL.          13/22-1                                 : Well
FLD .          MORAY FIRTH                             : Field
LOC .          NORTH SEA                               : Location
LOC1.          -                                        : Location (UTM)
CTRY.          UK                                      : Country
PROV.          UKCS                                    : Province
UWI .          824                                     : UWI Number
API .          -                                        : API Number
SECT.          -                                        : Section
TOWN.          -                                        : Township
RNGE.          -                                        : Range
PDAT.          MSL                                     : Perm Datum
EPD .ft        0.0                                     : Elevation
LMF .          KB                                      : Log Measured From
DMF .          KB                                      : Drill Measured From
APD .ft        86.0                                    : Above Perm Datum
EKB .ft        84.0                                    : Elev-Kelly Bushing
EDF .ft        83.0                                    : Elev-Drill Floor
EGL .ft        -348.0                                  : Elev-Ground Level (Water Depth)
TDD .ft        4778.0                                  : Total Depth (Driller)
SRVC.          SCHLUMBERGER                            : Service Company
LATI.          58 17 54.60" N                          : Latitude
LONG.          01 45 39.75" W                          : Longitude
DATE.          29-APR-1977 - 18-MAY-1977               : Logging Date
PROJ.          UKCS                                    : Project
SET .          COMP_WIRE                               : Set
~Curve Information Section
DEPTH.ft                                               : Depth Curve
CALD.in                                                : Caliper (from FDC/CNL/GR)
CALI.in                                                : Caliper (from MLL/ML)
DRHO.g/cc                                              : Delta Rho
DT.us/ft                                               : Delta-T
GR.gAPI                                                : Gamma Ray (from ISF/BHC/GR)
GRD.gAPI                                               : Gamma Ray (from FDC/CNL/GR)
ILD.Ohmm                                               : Deep Induction Standard Processed Resistivity
MLL.Ohmm                                               : Mll Resistivity
NPHI.LPU                                               : Neutron Porosity
RHOB.g/cc                                              : Bulk Density
SFLU.Ohmm                                              : SFL Resistivity (Unaveraged)
SP.mV                                                  : Spontaneous Potential
~ASCII Log Data Section
# ...
 3648.5000         8.6428      -999.2500         0.0341        77.6374        74.1971        73.8093        14.0821      -999.2500        20.1282         2.4720        11.2126        85.6141     
 3649.0000         8.6844      -999.2500         0.0162        77.0365        73.3245        75.7567        13.7610      -999.2500        19.5076         2.4506        11.2622        85.2918     
 3649.5000         8.6672      -999.2500         0.0151        76.8813        75.9420        79.0652        13.3887      -999.2500        18.9222         2.4417        11.8210        83.4045     
 3650.0000         8.5755      -999.2500         0.0171        78.2517        82.2222        83.5604        13.0057      -999.2500        18.7716         2.4509        12.7551        82.8312     
 3650.5000         8.5781      -999.2500         0.0120        80.6704        88.5022        88.6798        12.5916      -999.2500        19.8289         2.4810        11.2538        82.8919     
 3651.0000         8.8436      -999.2500         0.0017        82.6392        94.0038        93.3600        12.1771      -999.2500        21.1498         2.5004        10.1764        83.3067     
 3651.5000         8.9446      -999.2500        -0.0030        84.0445        95.2056        97.5477        11.9453      -999.2500        21.9694         2.5130        10.2217        83.7214     
 3652.0000         8.9571      -999.2500        -0.0059        83.6643        94.9323        96.1137        11.7674      -999.2500        21.3956         2.5235        10.1133        86.3103     
 3652.5000         8.9617      -999.2500        -0.0054        82.6314        96.6255        95.6275        11.5895      -999.2500        21.2915         2.5438        10.7083        88.5493     
 3653.0000         8.9952      -999.2500        -0.0006        81.9084        97.6222        93.9814        11.4116      -999.2500        22.0973         2.5550        11.5782        89.5728     
 3653.5000         9.0307      -999.2500         0.0005        81.8565        96.9872        92.1372        11.3943      -999.2500        22.9133         2.5550        11.4622        89.8681     
 3654.0000         9.0584      -999.2500         0.0057        82.4710        94.6468        90.2779        11.4623      -999.2500        23.9762         2.5602        10.8492        89.9506     
 3654.5000         9.0791      -999.2500         0.0147        83.3123        89.7729        89.8204        11.5312      -999.2500        25.1735         2.5947        10.6126        89.8219     
 3655.0000         9.0856      -999.2500         0.0188        84.3211        87.4839        92.5298        11.6002      -999.2500        24.7844         2.6010        10.9474        88.8892     
 3655.5000         9.1254      -999.2500         0.0178        84.9579        87.9551        93.5147        11.6691      -999.2500        24.1618         2.6019        11.1638        87.5114     
 3656.0000         9.1275      -999.2500         0.0199        84.8405        90.1385        94.0569        11.8397      -999.2500        23.8861         2.6017        10.6247        84.0020     
 3656.5000         9.0934      -999.2500         0.0078        83.6321        91.8672        95.0004        12.0495      -999.2500        23.7408         2.5817         9.8409        79.5853     
 3657.0000         9.0670      -999.2500         0.0059        81.9882        93.0384        93.0952        12.2591      -999.2500        23.2120         2.5637         9.4614        75.8903     
 3657.5000         9.0329      -999.2500         0.0092        80.3486        93.2204        90.1949        12.4689      -999.2500        21.3322         2.5635        10.7382        75.3746     
 3658.0000         9.0451      -999.2500         0.0108        79.5783        92.2632        86.9322        12.9415      -999.2500        20.1788         2.5606        12.1869        75.0540     
 3658.5000         9.0601      -999.2500         0.0142        80.4819        88.1080        84.5487        13.4293      -999.2500        20.1489         2.5591        12.1642        74.8597     
 3659.0000         9.0637      -999.2500         0.0109        80.5312        85.2360        83.3754        13.9443      -999.2500        20.2620         2.5590        11.6221        74.6659     
 3659.5000         9.0770      -999.2500         0.0052        79.3953        85.0962        81.3932        14.5195      -999.2500        19.5808         2.5564        11.9001        74.4718     
 3660.0000         9.1054      -999.2500         0.0072        77.2416        85.3156        79.3258        14.7081      -999.2500        19.2070         2.5695        13.0422        74.2773     
 3660.5000         9.1529      -999.2500         0.0045        76.1880        85.3241        79.2755        14.5335      -999.2500        19.4033         2.5680        13.6070        74.0713     
 3661.0000         9.1533      -999.2500         0.0026        76.2896        85.1362        83.3910        14.0379      -999.2500        19.4419         2.5610        14.2990        73.8655     
 3661.5000         9.1625      -999.2500         0.0051        77.2332        84.7403        86.2968        13.4665      -999.2500        19.9300         2.5660        14.8270        73.6701     
 3662.0000         9.1519      -999.2500         0.0044        78.8682        85.8807        87.3698        12.9026      -999.2500        21.3774         2.5624        14.9712        73.5051     
 3662.5000         9.0764      -999.2500         0.0020        81.6269        87.4821        88.6741        12.2529      -999.2500        22.8080         2.5459        14.0458        73.3401     
 3663.0000         8.9800      -999.2500         0.0024        84.4157        88.4737        91.7601        11.6417      -999.2500        23.3920         2.5339        12.6325        73.5710     
 3663.5000         8.9637      -999.2500         0.0106        87.6580        90.8532        94.4855        11.0933      -999.2500        24.0432         2.5154        10.7769        73.8232     
 3664.0000         8.9639      -999.2500         0.0220        90.8047        94.0236        95.5786        10.7090      -999.2500        24.0549         2.5335         8.8903        73.9580     
 3664.5000         8.9968      -999.2500         0.0365        91.3211        94.7632        95.6854        10.4610      -999.2500        23.2436         2.5635         8.1598        73.9667     
 3665.0000         9.0288      -999.2500         0.0402        89.2371        94.4255        94.6074        10.4515      -999.2500        22.1599         2.5756         8.7261        73.9650     
 3665.5000         9.0511      -999.2500         0.0326        86.1277        93.2580        92.4100        10.9655      -999.2500        21.1475         2.5774        10.8966        73.9158     
 3666.0000         9.1234      -999.2500         0.0301        84.4208        91.0435        89.9004        11.3642      -999.2500        20.8004         2.5863        11.6749        73.8665     
 3666.5000         9.1568      -999.2500         0.0287        83.9212        90.0303        88.6568        11.7622      -999.2500        21.1379         2.5884        10.6573        73.8172     
 3667.0000         9.1422      -999.2500         0.0258        83.5609        89.2097        89.1122        12.1605      -999.2500        21.5329         2.5906        10.4267        73.9763     
 3667.5000         9.0787      -999.2500         0.0193        82.2183        87.0421        89.9352        12.8256      -999.2500        21.1180         2.5788        11.1552        74.2167     
 3668.0000         8.9890      -999.2500         0.0144        80.1564        85.1040        89.4821        13.6888      -999.2500        20.0787         2.5728        12.3589        74.4572     
 3668.5000         8.9279      -999.2500         0.0187        78.5251        83.6615        87.7678        14.1285      -999.2500        19.6700         2.5828        13.4168        74.5558     
