~Version Information
 VERS.                2.00:   CWLS log ASCII Standard -VERSION 2.00
 WRAP.                  NO:   One line per frame
~Well Information Block
#MNEM.UNIT              Data                Description
#--------- -------------------------------  -------------------------------
 STRT.F                          393.0000:   Starting Depth
 STOP.F                         7106.5000:   Ending Depth
 STEP.F                            0.5000:   Level Spacing
 NULL.                          -999.2500:   Absent Value
 COMP.     486                           :   Company
 WELL.     9/13b-53                      :   Well
 FLD .                                   :   Field
 LOC .                                   :   Location
 PROV.                                   :   Province
 SRVC.                                   :   Service Company
 LIC .                                   :   License Number
 DATE.                                   :   Log Date
 UWI .                                   :   Unique Well ID
~Curve Information Block
#MNEM.UNIT       API Codes    Curve Description
#---------    -------------   -------------------------------
 DEPT.F        0   0  0  0:   Primary Index
 IDER.         0   0  0  0:   Deep Induction Enhanced Resolution Phasor Resistivity
 ILD .OHMM     0   0  0  0:   Deep Induction Standard Processed Resistivity
 ILM .OHMM     0   0  0  0:   Medium Induction Standard Processed Resistivity
 CALI.IN       0   0  0  0:   Caliper
 GR  .GAPI     0   0  0  0:   Gamma Ray
 IMER.         0   0  0  0:   Medium Induction Enhanced Resolution Phasor Resistivity
 DTLN.         0   0  0  0:   Delta-T Long Spacing Near
~Parameter Information Block
#MNEM.UNIT              Value             Description
#---------    -------------------------   -------------------------------
 TOOL.        DITE/SDT/SGT (COMPOSITED):   Epl Of All Possible Sensors
#  Curve Data
~A   DEPT        IDER        ILD         ILM         CALI        GR          IMER        DTLN
# ...
  4719.0000      1.3483      1.2178      1.1416     12.7031     35.2500      1.1991    135.6000
  4719.5000      1.2992      1.2354      1.1279     12.4375     38.9688      1.1638    134.7000
  4720.0000      1.2399      1.2354      1.1172     12.5469     43.6250      1.1173    133.6000
  4720.5000      1.2013      1.2510      1.1230     12.6953     42.9375      1.0858    134.6000
  4721.0000      1.2024      1.2803      1.1494     12.6094     43.6250      1.0854    129.0000
  4721.5000      1.2535      1.3232      1.2168     12.8672     43.7500      1.1257    136.0000
  4722.0000      1.3542      1.3770      1.2705     12.9375     45.4375      1.2073    134.3000
  4722.5000      1.4812      1.4229      1.3311     13.0859     46.9375      1.3114    134.4000
  4723.0000      1.5882      1.4668      1.3848     13.1797     45.5313      1.4007    132.1000
  4723.5000      1.6451      1.5176      1.3984     13.3203     46.5000      1.4509    123.3000
  4724.0000      1.6644      1.5352      1.4268     13.2656     47.1250      1.4709    113.9000
  4724.5000      1.6458      1.5215      1.4258     12.9766     51.0625      1.4607    136.1000
  4725.0000      1.5677      1.5068      1.3359     13.0469     54.8750      1.4027    138.8000
  4725.5000      1.4582      1.4824      1.3018     13.1484     55.1875      1.3150    146.0000
  4726.0000      1.3851      1.4521      1.3252     13.6953     54.7500      1.2510    150.3000
  4726.5000      1.3856      1.4268      1.3525     13.9766     59.5000      1.2460    152.2000
  4727.0000      1.4392      1.3848      1.3193     13.1953     68.2500      1.2879    145.4000
  4727.5000      1.4744      1.3428      1.2725     13.0938     78.0625      1.3202    145.1000
  4728.0000      1.4371      1.3223      1.2422     12.6484     83.0625      1.2943    148.2000
  4728.5000      1.3567      1.3350      1.2031     12.6250     88.0625      1.2300    151.7000
  4729.0000      1.2959      1.3438      1.2119     12.7969     92.5000      1.1789    153.7000
  4729.5000      1.2830      1.3457      1.2344     12.9844     94.0625      1.1669    152.9000
  4730.0000      1.3099      1.3486      1.2412     13.1094     91.0625      1.1899    153.3000
  4730.5000      1.3517      1.3369      1.2432     12.7188     86.1250      1.2289    150.6000
  4731.0000      1.3803      1.3203      1.2539     12.5781     86.1875      1.2592    150.7000
  4731.5000      1.3876      1.3174      1.2656     12.5156     83.9375      1.2718    148.9000
  4732.0000      1.3884      1.3232      1.2725     12.7500     86.1250      1.2794    149.8000
  4732.5000      1.3878      1.3252      1.2725     12.8359     85.7500      1.2873    149.6000
  4733.0000      1.3685      1.3232      1.2656     12.3984     89.1875      1.2796    148.5000
  4733.5000      1.3240      1.3271      1.2422     12.2969     90.0000      1.2477    151.5000
  4734.0000      1.2859      1.3320      1.2568     12.2578     90.9375      1.2176    156.0000
  4734.5000      1.2963      1.3184      1.3281     12.4375     91.8750      1.2277    152.7000
  4735.0000      1.3636      1.2930      1.3584     12.4531     88.9375      1.2900    147.6000
  4735.5000      1.4358      1.2637      1.3164     12.2734     83.9375      1.3626    142.8000
  4736.0000      1.4266      1.2295      1.2520     11.9688     77.9375      1.3650    132.6000
  4736.5000      1.3279      1.1992      1.2012     11.9688     71.2500      1.2796    129.1000
  4737.0000      1.2170      1.1855      1.1650     11.9688     66.7500      1.1755    131.5000
  4737.5000      1.1449      1.1680      1.1416     11.9297     60.6563      1.1047    130.9000
  4738.0000      1.1156      1.1465      1.1270     11.9063     58.9063      1.0734    130.0000
  4738.5000      1.1170      1.1387      1.1182     11.9063     56.7500      1.0714    129.9000
  4739.0000      1.1357      1.1279      1.1133     11.9063     57.9688      1.0864    128.9000
  4739.5000      1.1568      1.1152      1.1094     11.9375     56.4375      1.1046    128.2000
  4740.0000      1.1684      1.1133      1.1025     11.9688     52.7813      1.1145    127.4000
  4740.5000      1.1676      1.1143      1.1006     11.9766     49.2500      1.1130    127.3000
  4741.0000      1.1587      1.1143      1.1016     11.9844     47.2813      1.1039    126.4000
  4741.5000      1.1484      1.1143      1.1006     11.9766     47.5313      1.0933    126.8000
  4742.0000      1.1416      1.1104      1.0957     11.9844     47.2813      1.0862    127.2000
  4742.5000      1.1365      1.1055      1.0840     12.0391     45.7500      1.0813    127.2000
  4743.0000      1.1264      1.0996      1.0654     12.1563     45.7813      1.0726    127.4000
  4743.5000      1.1094      1.0918      1.0547     12.2188     43.3750      1.0574    127.4000
  4744.0000      1.0922      1.0801      1.0488     12.3281     43.5313      1.0413    127.2000
  4744.5000      1.0832      1.0703      1.0508     12.4063     43.8125      1.0322    127.6000
  4745.0000      1.0847      1.0645      1.0527     12.2656     43.0938      1.0327    127.7000
  4745.5000      1.0920      1.0596      1.0508     12.1641     42.6563      1.0388    127.1000
  4746.0000      1.0987      1.0586      1.0508     12.0625     43.3438      1.0448    126.5000
  4746.5000      1.1029      1.0615      1.0537     12.0547     46.4375      1.0484    126.5000
  4747.0000      1.1054      1.0664      1.0547     12.0547     47.0625      1.0504    127.5000
  4747.5000      1.1054      1.0674      1.0508     12.0547     46.3438      1.0504    126.7000
  4748.0000      1.1006      1.0684      1.0439     12.0547     46.3438      1.0463    129.2000
  4748.5000      1.0900      1.0723      1.0352     12.0547     47.1563      1.0374    128.0000
  4749.0000      1.0748      1.0742      1.0244     12.0547     44.5000      1.0247    127.5000
  4749.5000      1.0582      1.0742      1.0176     12.0547     43.7813      1.0107    129.3000
  4750.0000      1.0458      1.0723      1.0166     12.0547     41.3125      1.0008    129.6000
  4750.5000      1.0431      1.0684      1.0234     12.0547     44.2500      1.0003    120.7000
  4751.0000      1.0495      1.0537      1.0283     12.0781     45.7188      1.0095    113.1000
  4751.5000      1.0551      1.0332      1.0205     12.0859     49.4688      1.0197    106.8000
  4752.0000      1.0482      1.0059      1.0029     12.0859     46.3438      1.0194    102.7000
  4752.5000      1.0263      0.9829      0.9878     12.0625     43.4688      1.0053    104.7000
  4753.0000      0.9938      0.9604      0.9639     12.0547     41.0938      0.9801    124.6000
  4753.5000      0.9545      0.9453      0.9419     12.0938     40.4375      0.9469    129.3000
  4754.0000      0.9177      0.9277      0.9292     12.3281     40.8750      0.9138    126.9000
  4754.5000      0.9009      0.9028      0.9370     12.6172     39.3125      0.8985    112.4000
  4755.0000      0.9129      0.8604      0.9541     12.5703     38.7500      0.9119     95.0000
  4755.5000      0.9330      0.8267      0.9219     12.5547     38.7500      0.9361     83.9000
  4756.0000      0.9195      0.8096      0.8628     12.7266     39.9688      0.9287     89.7000
  4756.5000      0.8630      0.7983      0.8198     12.4531     40.8438      0.8750     99.9000
  4757.0000      0.8011      0.7983      0.8110     12.0234     39.1250      0.8111    116.0000
  4757.5000      0.7677      0.8047      0.8130     11.9922     37.6250      0.7742    127.8000
  4758.0000      0.7688      0.8057      0.8193     11.9922     38.3125      0.7728    128.5000
  4758.5000      0.7939      0.7993      0.8325     11.9922     39.0313      0.7969    130.5000
  4759.0000      0.8276      0.7939      0.8428     11.9922     38.5625      0.8310    130.8000
  4759.5000      0.8550      0.7900      0.8438     11.9922     36.6250      0.8598    130.4000
  4760.0000      0.8641      0.7866      0.8398     11.9922     36.6250      0.8707    130.1000
  4760.5000      0.8514      0.7856      0.8286     12.0547     38.4688      0.8589    129.8000
