~Version Information
 VERS.                2.00:   CWLS log ASCII Standard -VERSION 2.00
 WRAP.                  NO:   One line per frame
~Well Information Block
#MNEM.UNIT              Data                Description
#--------- -------------------------------  -------------------------------
 STRT.F                          393.0000:   Starting Depth
 STOP.F                         7106.5000:   Ending Depth
 STEP.F                            0.5000:   Level Spacing
 NULL.                          -999.2500:   Absent Value
 COMP.     486                           :   Company
 WELL.     9/13b-53                      :   Well
 FLD .                                   :   Field
 LOC .                                   :   Location
 PROV.                                   :   Province
 SRVC.                                   :   Service Company
 LIC .                                   :   License Number
 DATE.                                   :   Log Date
 UWI .                                   :   Unique Well ID
~Curve Information Block
#MNEM.UNIT       API Codes    Curve Description
#---------    -------------   -------------------------------
 DEPT.F        0   0  0  0:   Primary Index
 IDER.         0   0  0  0:   Deep Induction Enhanced Resolution Phasor Resistivity
 ILD .OHMM     0   0  0  0:   Deep Induction Standard Processed Resistivity
 ILM .OHMM     0   0  0  0:   Medium Induction Standard Processed Resistivity
 CALI.IN       0   0  0  0:   Caliper
 GR  .GAPI     0   0  0  0:   Gamma Ray
 IMER.         0   0  0  0:   Medium Induction Enhanced Resolution Phasor Resistivity
 DTLN.         0   0  0  0:   Delta-T Long Spacing Near
~Parameter Information Block
#MNEM.UNIT              Value             Description
#---------    -------------------------   -------------------------------
 TOOL.        DITE/SDT/SGT (COMPOSITED):   Epl Of All Possible Sensors
#  Curve Data
~A   DEPT        IDER        ILD         ILM         CALI        GR          IMER        DTLN
# ...
  2073.0000   -999.2500   -999.2500   -999.2500   -999.2500     24.7813   -999.2500   -999.2500
  2073.5000   -999.2500   -999.2500   -999.2500   -999.2500     26.5938   -999.2500   -999.2500
  2074.0000   -999.2500   -999.2500   -999.2500   -999.2500     24.7969   -999.2500   -999.2500
  2074.5000   -999.2500   -999.2500   -999.2500   -999.2500     24.7969   -999.2500   -999.2500
  2075.0000   -999.2500   -999.2500   -999.2500   -999.2500     21.2969   -999.2500   -999.2500
  2075.5000   -999.2500   -999.2500   -999.2500   -999.2500     18.5781   -999.2500   -999.2500
  2076.0000   -999.2500   -999.2500   -999.2500   -999.2500     16.9063   -999.2500   -999.2500
  2076.5000   -999.2500   -999.2500   -999.2500   -999.2500     17.3750   -999.2500   -999.2500
  2077.0000   -999.2500   -999.2500   -999.2500   -999.2500     17.5156   -999.2500   -999.2500
  2077.5000   -999.2500   -999.2500   -999.2500   -999.2500     17.8281   -999.2500   -999.2500
  2078.0000   -999.2500   -999.2500   -999.2500   -999.2500     18.1250   -999.2500   -999.2500
  2078.5000   -999.2500   -999.2500   -999.2500   -999.2500     17.6875   -999.2500   -999.2500
  2079.0000   -999.2500   -999.2500   -999.2500   -999.2500     17.8281   -999.2500   -999.2500
  2079.5000   -999.2500   -999.2500   -999.2500   -999.2500     17.5313   -999.2500   -999.2500
  2080.0000   -999.2500   -999.2500   -999.2500   -999.2500     17.9844   -999.2500   -999.2500
  2080.5000   -999.2500   -999.2500   -999.2500   -999.2500     17.4375   -999.2500   -999.2500
  2081.0000   -999.2500   -999.2500   -999.2500   -999.2500     17.1250   -999.2500   -999.2500
  2081.5000   -999.2500   -999.2500   -999.2500   -999.2500     17.1094   -999.2500   -999.2500
  2082.0000   -999.2500   -999.2500   -999.2500   -999.2500     17.6719   -999.2500   -999.2500
  2082.5000   -999.2500   -999.2500   -999.2500   -999.2500     17.6719   -999.2500   -999.2500
  2083.0000   -999.2500   -999.2500   -999.2500   -999.2500     17.6875   -999.2500   -999.2500
  2083.5000   -999.2500   -999.2500   -999.2500   -999.2500     16.7500   -999.2500   -999.2500
  2084.0000   -999.2500   -999.2500   -999.2500   -999.2500     17.8125   -999.2500   -999.2500
  2084.5000   -999.2500   -999.2500   -999.2500   -999.2500     19.7500   -999.2500   -999.2500
  2085.0000   -999.2500   -999.2500   -999.2500   -999.2500     20.2344   -999.2500   -999.2500
  2085.5000   -999.2500   -999.2500   -999.2500   -999.2500     18.2656   -999.2500   -999.2500
  2086.0000   -999.2500   -999.2500   -999.2500   -999.2500     16.7656   -999.2500   -999.2500
  2086.5000   -999.2500   -999.2500   -999.2500   -999.2500     18.2813   -999.2500   -999.2500
  2087.0000   -999.2500   -999.2500   -999.2500   -999.2500     19.0313   -999.2500   -999.2500
  2087.5000   -999.2500   -999.2500   -999.2500   -999.2500     19.5000   -999.2500   -999.2500
  2088.0000   -999.2500   -999.2500   -999.2500     12.6563     18.8750   -999.2500    118.4000
  2088.5000   -999.2500   -999.2500   -999.2500     12.9375     21.0000   -999.2500    125.6000
  2089.0000   -999.2500   -999.2500   -999.2500     14.2266     21.4531   -999.2500    151.8000
  2089.5000   -999.2500   -999.2500   -999.2500     14.7031     22.9531   -999.2500    163.0000
  2090.0000   -999.2500   -999.2500   -999.2500     14.7188     23.4063   -999.2500    143.8000
  2090.5000   -999.2500   -999.2500   -999.2500     15.1016     25.3750   -999.2500    153.3961
  2091.0000      0.3354      0.6099      0.7886     15.5078     25.5313   -999.2500    148.2953
  2091.5000      0.3139      0.3960      0.6670     15.8984     25.3750      0.6004    119.7000
  2092.0000      0.3217      0.3584      0.7690     16.8906     28.2031      0.5002    119.7000
  2092.5000      0.3818      0.4272      0.7725     16.8750     27.4688      0.5306    123.0487
  2093.0000      0.5351      1.1104      0.7808     17.4063     26.6875      0.6772    126.4000
  2093.5000      0.8520      1.6191      0.9531     18.2188     22.5000      0.9512    146.1000
  2094.0000      1.4043      1.5850      1.2148     21.0625     23.7188      1.3702    159.0000
  2094.5000      2.4875      1.5762      1.2295     21.9688     27.6094      1.9668    159.5000
  2095.0000      3.1848      1.5889      1.2422     22.0000     29.7344      2.2190    153.1000
  2095.5000      2.0900      1.5801      1.1191     21.9688     29.5625      1.6174    138.7000
  2096.0000      1.3563      1.5400      1.1074     21.9688     27.7969      1.1424    133.9000
  2096.5000      1.1600      1.6416      1.4287     21.9688     29.3125      1.0095    132.1000
  2097.0000      1.2602      1.7080      1.4141     21.9688     30.6875      1.0997    137.3000
  2097.5000      1.5686      1.9121      1.4355     21.9688     33.3750      1.3420    138.1000
  2098.0000      1.9684      1.9902      1.4111     20.4219     30.9688      1.6298    132.8000
  2098.5000      2.0930      1.9668      1.3379     18.2188     31.7188      1.6927    136.8000
  2099.0000      1.8319      1.9326      1.2559     18.5469     31.5938      1.4710    142.4000
  2099.5000      1.5492      1.8145      1.2266     18.5938     34.4375      1.2417    147.9000
  2100.0000      1.4236      1.7910      1.2725     18.7500     34.1250      1.1313    136.3000
  2100.5000      1.4539      1.7656      1.3193     19.2344     33.8125      1.1337    137.8000
  2101.0000      1.6006      1.6875      1.3135     18.9531     32.1875      1.2221    136.6000
  2101.5000      1.7565      1.6045      1.2773     18.8438     32.6563      1.3338    137.6000
  2102.0000      1.7721      1.5654      1.2285     18.7969     30.3750      1.3734    142.3000
  2102.5000      1.6583      1.5605      1.2070     18.8125     27.9531      1.3264    146.4001
  2103.0000      1.5242      1.5508      1.1875     19.1875     25.3750      1.2515    149.7000
  2103.5000      1.4128      1.5361      1.1689     19.8594     25.8594      1.1774    154.7000
  2104.0000      1.3473      1.5166      1.1514     20.3906     28.5781      1.1263    153.0000
  2104.5000      1.3342      1.4834      1.1426     20.1563     27.8125      1.1108    154.1000
  2105.0000      1.3518      1.4551      1.1348     20.2031     27.0625      1.1178    154.7000
  2105.5000      1.3776      1.4395      1.1289     19.8750     23.7188      1.1324    159.7000
  2106.0000      1.4066      1.4316      1.1455     19.6250     24.6250      1.1527    160.2000
  2106.5000      1.4400      1.4268      1.1738     19.7656     25.0781      1.1799    162.7000
  2107.0000      1.4674      1.4287      1.1846     20.0938     24.8438      1.2065    161.6000
  2107.5000      1.4713      1.4434      1.1846     20.2500     24.8438      1.2187    160.5000
  2108.0000      1.4521      1.4678      1.1904     19.7344     22.8594      1.2125    153.3000
  2108.5000      1.4410      1.4990      1.2168     19.6094     22.3594      1.2066    156.1000
  2109.0000      1.4660      1.5205      1.2490     19.0469     22.8125      1.2230    160.4000
  2109.5000      1.5173      1.5146      1.2520     19.1250     26.9063      1.2580    160.3000
  2110.0000      1.5532      1.4971      1.2354     19.1875     28.7188      1.2832    160.5000
  2110.5000      1.5397      1.4941      1.2139     19.0781     27.9375      1.2737    162.2000
  2111.0000      1.4839      1.5068      1.1924     18.7969     24.6094      1.2331    162.5999
  2111.5000      1.4245      1.5342      1.1865     18.5781     25.5156      1.1876    157.4000
  2112.0000      1.3968      1.5596      1.2012     18.7344     24.9375      1.1626    158.0000
  2112.5000      1.4197      1.5498      1.2344     18.7969     23.2656      1.1732    157.2000
  2113.0000      1.4904      1.5049      1.2549     18.6719     23.2656      1.2187    158.0000
  2113.5000      1.5688      1.4365      1.2334     18.2969     23.4063      1.2728    157.0000
  2114.0000      1.5794      1.4014      1.1914     17.8438     23.2813      1.2845    155.7000
  2114.5000      1.4810      1.3906      1.1094     17.9063     20.6875      1.2221    154.7000
