~Version Information
 VERS.                2.00:   CWLS log ASCII Standard -VERSION 2.00
 WRAP.                  NO:   One line per frame
~Well Information Block
#MNEM.UNIT              Data                Description
#--------- -------------------------------  -------------------------------
 STRT.F                          393.0000:   Starting Depth
 STOP.F                         7106.5000:   Ending Depth
 STEP.F                            0.5000:   Level Spacing
 NULL.                          -999.2500:   Absent Value
 COMP.     486                           :   Company
 WELL.     9/13b-53                      :   Well
 FLD .                                   :   Field
 LOC .                                   :   Location
 PROV.                                   :   Province
 SRVC.                                   :   Service Company
 LIC .                                   :   License Number
 DATE.                                   :   Log Date
 UWI .                                   :   Unique Well ID
~Curve Information Block
#MNEM.UNIT       API Codes    Curve Description
#---------    -------------   -------------------------------
 DEPT.F        0   0  0  0:   Primary Index
 IDER.         0   0  0  0:   Deep Induction Enhanced Resolution Phasor Resistivity
 ILD .OHMM     0   0  0  0:   Deep Induction Standard Processed Resistivity
 ILM .OHMM     0   0  0  0:   Medium Induction Standard Processed Resistivity
 CALI.IN       0   0  0  0:   Caliper
 GR  .GAPI     0   0  0  0:   Gamma Ray
 IMER.         0   0  0  0:   Medium Induction Enhanced Resolution Phasor Resistivity
 DTLN.         0   0  0  0:   Delta-T Long Spacing Near
~Parameter Information Block
#MNEM.UNIT              Value             Description
#---------    -------------------------   -------------------------------
 TOOL.        DITE/SDT/SGT (COMPOSITED):   Epl Of All Possible Sensors
#  Curve Data
~A   DEPT        IDER        ILD         ILM         CALI        GR          IMER        DTLN
# ...
  7071.0000      0.6405      0.7031      0.7129   -999.2500     41.0000      0.6751    101.0000
  7071.5000      0.6700      0.7163      0.7500   -999.2500     39.3438      0.7064    101.0000
  7072.0000      0.7154      0.7129      0.7905   -999.2500     34.4688      0.7572    101.0000
  7072.5000      0.7542      0.7080      0.7891   -999.2500     36.1875      0.8038    108.5500
  7073.0000      0.7535      0.7065      0.7500   -999.2500     36.8125      0.8077   -999.2500
  7073.5000      0.7147      0.6875      0.7261   -999.2500     38.5000      0.7661   -999.2500
  7074.0000      0.6666      0.6611      0.6987   -999.2500     41.0000      0.7118   -999.2500
  7074.5000      0.6212      0.6230      0.6499   -999.2500     40.0938      0.6608   -999.2500
  7075.0000      0.5749      0.5737      0.5869   -999.2500     39.2500      0.6095   -999.2500
  7075.5000      0.5312      0.5317      0.5562   -999.2500     33.2188      0.5602   -999.2500
  7076.0000      0.5015      0.5093      0.5430   -999.2500     29.7500      0.5257   -999.2500
  7076.5000      0.4906      0.4907      0.5313   -999.2500     29.0313      0.5118   -999.2500
  7077.0000      0.4926      0.4717      0.5205   -999.2500     26.9063      0.5127   -999.2500
  7077.5000      0.4973      0.4609      0.5151   -999.2500     25.6563      0.5172   -999.2500
  7078.0000      0.4991      0.4561      0.5088   -999.2500     23.2969      0.5187   -999.2500
  7078.5000      0.4974      0.4517      0.5034   -999.2500     24.6250      0.5163   -999.2500
  7079.0000      0.4918      0.4507      0.4956   -999.2500   -999.2500      0.5097   -999.2500
  7079.5000      0.4831      0.4512      0.4873   -999.2500   -999.2500      0.4995   -999.2500
  7080.0000      0.4752      0.4570      0.4858   -999.2500   -999.2500      0.4899   -999.2500
  7080.5000      0.4728      0.4639      0.4897   -999.2500   -999.2500      0.4860   -999.2500
  7081.0000      0.4771      0.4756      0.4976   -999.2500   -999.2500      0.4895   -999.2500
  7081.5000      0.4867      0.4917      0.5068   -999.2500   -999.2500      0.4989   -999.2500
  7082.0000      0.5008      0.5151      0.5239   -999.2500   -999.2500      0.5135   -999.2500
  7082.5000      0.5211      0.5347      0.5513   -999.2500   -999.2500      0.5351   -999.2500
  7083.0000      0.5469      0.5508      0.5801   -999.2500   -999.2500      0.5638   -999.2500
  7083.5000      0.5705      0.5625      0.5923   -999.2500   -999.2500      0.5920   -999.2500
  7084.0000      0.5817      0.5708      0.5962   -999.2500   -999.2500      0.6084   -999.2500
  7084.5000      0.5798      0.5752      0.6060   -999.2500   -999.2500      0.6108   -999.2500
  7085.0000      0.5702      0.5713      0.6025   -999.2500   -999.2500      0.6044   -999.2500
  7085.5000      0.5537      0.5537      0.5806   -999.2500   -999.2500      0.5905   -999.2500
  7086.0000      0.5300      0.5288      0.5576   -999.2500   -999.2500      0.5681   -999.2500
  7086.5000      0.5046      0.4951      0.5415   -999.2500   -999.2500      0.5423   -999.2500
  7087.0000      0.4837      0.4692      0.5229   -999.2500   -999.2500      0.5208   -999.2500
  7087.5000      0.4672      0.4517      0.5049   -999.2500   -999.2500      0.5039   -999.2500
  7088.0000      0.4526      0.4351      0.4863   -999.2500   -999.2500      0.4888   -999.2500
  7088.5000      0.4418      0.4233      0.4829   -999.2500   -999.2500      0.4770   -999.2500
  7089.0000      0.4386      0.4146      0.4829   -999.2500   -999.2500      0.4735   -999.2500
  7089.5000      0.4416      0.4067      0.4805   -999.2500   -999.2500      0.4772   -999.2500
  7090.0000      0.4439      0.4033      0.4692   -999.2500   -999.2500      0.4803   -999.2500
  7090.5000      0.4406      0.4053      0.4619   -999.2500   -999.2500      0.4766   -999.2500
  7091.0000      0.4346      0.4067      0.4634   -999.2500   -999.2500      0.4687   -999.2500
  7091.5000      0.4317      0.4111      0.4678   -999.2500   -999.2500      0.4634   -999.2500
  7092.0000      0.4352      0.4185      0.4727   -999.2500   -999.2500      0.4648   -999.2500
  7092.5000      0.4446      0.4233      0.4795   -999.2500   -999.2500      0.4728   -999.2500
  7093.0000      0.4560      0.4268      0.4849   -999.2500   -999.2500      0.4830   -999.2500
  7093.5000      0.4634      0.4312      0.4785   -999.2500   -999.2500      0.4887   -999.2500
  7094.0000      0.4640      0.4346      0.4756   -999.2500   -999.2500      0.4865   -999.2500
  7094.5000      0.4605      0.4380      0.4741   -999.2500   -999.2500      0.4794   -999.2500
  7095.0000      0.4569      0.4404      0.4727   -999.2500   -999.2500      0.4719   -999.2500
  7095.5000      0.4544      0.4404      0.4634   -999.2500   -999.2500      0.4658   -999.2500
  7096.0000      0.4523      0.4395      0.4590   -999.2500   -999.2500      0.4606   -999.2500
  7096.5000      0.4509      0.4390      0.4536   -999.2500   -999.2500      0.4564   -999.2500
  7097.0000      0.4488      0.4429      0.4463   -999.2500   -999.2500      0.4521   -999.2500
  7097.5000      0.4447      0.4541      0.4429   -999.2500   -999.2500      0.4462   -999.2500
  7098.0000      0.4435      0.4712      0.4565   -999.2500   -999.2500      0.4432   -999.2500
  7098.5000      0.4567      0.4873      0.4917   -999.2500   -999.2500      0.4542   -999.2500
  7099.0000      0.4914      0.4985      0.5273   -999.2500   -999.2500      0.4873   -999.2500
  7099.5000      0.5377      0.4976      0.5391   -999.2500   -999.2500      0.5346   -999.2500
  7100.0000      0.5644      0.4888      0.5234   -999.2500   -999.2500      0.5665   -999.2500
  7100.5000      0.5482      0.4854      0.5029   -999.2500   -999.2500      0.5564   -999.2500
  7101.0000      0.5040      0.4849      0.4829   -999.2500   -999.2500      0.5152   -999.2500
  7101.5000      0.4614      0.4819      0.4717   -999.2500   -999.2500      0.4729   -999.2500
  7102.0000      0.4378      0.4658      0.4756   -999.2500   -999.2500      0.4490   -999.2500
  7102.5000      0.4373      0.4478      0.4902   -999.2500   -999.2500      0.4491   -999.2500
  7103.0000   -999.2500   -999.2500      0.4995   -999.2500   -999.2500      0.4694   -999.2500
  7103.5000   -999.2500   -999.2500      0.4956   -999.2500   -999.2500      0.4968   -999.2500
  7104.0000   -999.2500   -999.2500      0.4893   -999.2500   -999.2500      0.5124   -999.2500
  7104.5000   -999.2500   -999.2500      0.4839   -999.2500   -999.2500      0.5079   -999.2500
  7105.0000   -999.2500   -999.2500      0.4834   -999.2500   -999.2500      0.4925   -999.2500
  7105.5000   -999.2500   -999.2500      0.4873   -999.2500   -999.2500   -999.2500   -999.2500
  7106.0000   -999.2500   -999.2500      0.4956   -999.2500   -999.2500   -999.2500   -999.2500
  7106.5000   -999.2500   -999.2500   -999.2500   -999.2500   -999.2500   -999.2500   -999.2500
