~Version Information
 VERS.                2.00:   CWLS log ASCII Standard -VERSION 2.00
 WRAP.                  NO:   One line per frame
~Well Information Block
#MNEM.UNIT              Data                Description
#--------- -------------------------------  -------------------------------
 STRT.F                          393.0000:   Starting Depth
 STOP.F                         7106.5000:   Ending Depth
 STEP.F                            0.5000:   Level Spacing
 NULL.                          -999.2500:   Absent Value
 COMP.     486                           :   Company
 WELL.     9/13b-53                      :   Well
 FLD .                                   :   Field
 LOC .                                   :   Location
 PROV.                                   :   Province
 SRVC.                                   :   Service Company
 LIC .                                   :   License Number
 DATE.                                   :   Log Date
 UWI .                                   :   Unique Well ID
~Curve Information Block
#MNEM.UNIT       API Codes    Curve Description
#---------    -------------   -------------------------------
 DEPT.F        0   0  0  0:   Primary Index
 IDER.         0   0  0  0:   Deep Induction Enhanced Resolution Phasor Resistivity
 ILD .OHMM     0   0  0  0:   Deep Induction Standard Processed Resistivity
 ILM .OHMM     0   0  0  0:   Medium Induction Standard Processed Resistivity
 CALI.IN       0   0  0  0:   Caliper
 GR  .GAPI     0   0  0  0:   Gamma Ray
 IMER.         0   0  0  0:   Medium Induction Enhanced Resolution Phasor Resistivity
 DTLN.         0   0  0  0:   Delta-T Long Spacing Near
~Parameter Information Block
#MNEM.UNIT              Value             Description
#---------    -------------------------   -------------------------------
 TOOL.        DITE/SDT/SGT (COMPOSITED):   Epl Of All Possible Sensors
#  Curve Data
~A   DEPT        IDER        ILD         ILM         CALI        GR          IMER        DTLN
# ...
  6399.0000      0.9329      0.9839      0.9351     14.3594     57.5938      0.9065    132.2000
  6399.5000      0.9316      0.9766      0.9395     14.1172     57.7188      0.9024    129.3000
  6400.0000      0.9515      0.9453      0.9502     14.0703     56.2813      0.9189    127.1000
  6400.5000      0.9739      0.9360      0.9370     13.9688     51.6250      0.9392    127.2000
  6401.0000      0.9732      0.9360      0.8975     13.5547     49.2500      0.9396    131.0000
  6401.5000      0.9469      0.9434      0.9014     13.6094     46.4375      0.9155    130.5000
  6402.0000      0.9242      0.9653      0.9292     13.3672     45.2500      0.8921    132.2000
  6402.5000      0.9334      0.9878      0.9575     13.6563     45.6563      0.8974    134.1000
  6403.0000      0.9786      0.9907      0.9834     13.2500     49.1563      0.9375    129.7000
  6403.5000      1.0329      0.9766      0.9897     13.3750     52.7188      0.9884    125.8000
  6404.0000      1.0516      0.9492      0.9438     13.6484     53.0625      1.0091    124.5000
  6404.5000      1.0127      0.9268      0.9058     13.4063     54.0000      0.9774    125.0000
  6405.0000      0.9371      0.9121      0.8696     13.2813     52.2500      0.9091    129.2000
  6405.5000      0.8647      0.9067      0.8413     13.5078     53.2813      0.8405    131.8000
  6406.0000      0.8241      0.9014      0.8457     13.5469     51.5313      0.8003    135.4000
  6406.5000      0.8243      0.8901      0.8599     14.2266     50.2188      0.7984    133.9000
  6407.0000      0.8564      0.8755      0.8721     13.5313     49.8750      0.8275    131.0000
  6407.5000      0.8968      0.8599      0.8662     13.4297     47.2188      0.8664    128.9000
  6408.0000      0.9168      0.8540      0.8560     12.9766     46.7813      0.8881    128.2000
  6408.5000      0.9097      0.8584      0.8579     13.5781     44.5000      0.8836    128.1000
  6409.0000      0.8936      0.8633      0.8701     13.6875     46.0000      0.8688    127.4000
  6409.5000      0.8835      0.8638      0.8667     13.6406     45.7500      0.8593    127.6000
  6410.0000      0.8777      0.8516      0.8545     13.1406     45.0313      0.8540    126.5000
  6410.5000      0.8672      0.8394      0.8359     13.0156     45.9063      0.8446    128.4000
  6411.0000      0.8470      0.8257      0.8091     12.8203     50.0313      0.8258    134.4000
  6411.5000      0.8194      0.8105      0.7876     13.6250     56.1875      0.7995    132.6000
  6412.0000      0.7937      0.8022      0.7793     13.5469     51.5313      0.7740    132.8000
  6412.5000      0.7823      0.8037      0.7866     13.6484     47.0000      0.7614    134.3000
  6413.0000      0.7926      0.8057      0.8071     13.0156     45.0313      0.7694    132.0000
  6413.5000      0.8216      0.8115      0.8247     13.5156     51.3438      0.7959    131.0000
  6414.0000      0.8570      0.8262      0.8369     13.1484     52.5938      0.8297    127.2000
  6414.5000      0.8858      0.8413      0.8496     13.6406     51.5000      0.8580    125.0000
  6415.0000      0.9016      0.8574      0.8608     13.5078     50.7813      0.8742    124.2000
  6415.5000      0.9056      0.8765      0.8677     14.4609     50.9063      0.8789    124.9000
  6416.0000      0.9024      0.8916      0.8770     14.2188     51.0000      0.8762    125.7000
  6416.5000      0.8992      0.9009      0.8818     13.6484     50.0313      0.8728    128.4000
  6417.0000      0.9022      0.8999      0.8940     13.3750     46.1250      0.8749    125.3000
  6417.5000      0.9106      0.8970      0.8906     12.9609     46.0313      0.8824    125.9000
  6418.0000      0.9142      0.8945      0.8789     13.6406     45.8750      0.8862    124.4000
  6418.5000      0.9045      0.8945      0.8657     13.7813     50.0938      0.8776    126.5000
  6419.0000      0.8869      0.9014      0.8638     13.4609     48.6875      0.8602    129.2000
  6419.5000      0.8768      0.9077      0.8750     13.4688     47.1875      0.8488    131.4000
  6420.0000      0.8857      0.9097      0.8906     14.3125     48.8438      0.8550    126.1000
  6420.5000      0.9111      0.9067      0.9004     13.6016     52.9375      0.8776    127.2000
  6421.0000      0.9345      0.9019      0.8950     14.2188     55.4375      0.9001    124.2000
  6421.5000      0.9360      0.8999      0.8809     13.5313     57.6563      0.9032    126.1000
  6422.0000      0.9187      0.9019      0.8770     12.9844     53.1875      0.8876    127.7000
  6422.5000      0.9034      0.8999      0.8853     13.4453     51.9063      0.8726    132.8000
  6423.0000      0.9003      0.8960      0.8853     13.4453     49.8125      0.8691    128.9000
  6423.5000      0.8991      0.8887      0.8677     13.1484     52.7500      0.8685    129.2000
  6424.0000      0.8874      0.8770      0.8486     13.2813     53.7500      0.8586    127.8000
  6424.5000      0.8706      0.8652      0.8501     13.4141     53.6250      0.8430    127.5000
  6425.0000      0.8621      0.8604      0.8506     13.1563     54.0938      0.8344    129.3000
  6425.5000      0.8641      0.8555      0.8452     13.1563     50.5938      0.8360    131.1000
  6426.0000      0.8668      0.8442      0.8384     12.9141     49.6250      0.8392    128.6000
  6426.5000      0.8633      0.8447      0.8350     12.7734     48.1250      0.8365    131.6000
  6427.0000      0.8579      0.8491      0.8379     12.7578     51.5000      0.8313    132.3000
  6427.5000      0.8588      0.8579      0.8467     12.6250     49.2500      0.8319    130.1000
  6428.0000      0.8690      0.8701      0.8579     12.8281     50.8125      0.8414    128.6000
  6428.5000      0.8855      0.8813      0.8726     13.0156     49.6250      0.8570    126.1000
  6429.0000      0.9043      0.8975      0.8882     12.7734     50.8750      0.8749    125.1000
  6429.5000      0.9255      0.9121      0.9092     13.2344     49.1875      0.8947    124.9000
  6430.0000      0.9493      0.9189      0.9248     13.3359     50.5000      0.9174    126.2000
  6430.5000      0.9664      0.9248      0.9233     12.9141     53.0625      0.9350    129.9000
  6431.0000      0.9596      0.9233      0.8999     12.7578     50.8125      0.9315    125.2000
  6431.5000      0.9279      0.9263      0.8848     12.8359     49.0000      0.9034    128.1000
  6432.0000      0.8946      0.9282      0.8867     13.3516     47.2500      0.8713    127.7000
  6432.5000      0.8819      0.9204      0.8940     12.6797     47.6563      0.8573    128.4000
  6433.0000      0.8905      0.9043      0.8940     12.7969     50.4688      0.8643    128.1000
  6433.5000      0.9038      0.8853      0.8809     12.9453     49.9688      0.8771    127.1000
  6434.0000      0.9059      0.8701      0.8701     13.1250     51.2188      0.8802    129.8000
  6434.5000      0.8954      0.8652      0.8599     13.5859     49.3750      0.8712    126.1000
  6435.0000      0.8787      0.8628      0.8506     13.3750     52.1563      0.8555    126.3000
  6435.5000      0.8608      0.8662      0.8398     13.3047     50.3750      0.8380    126.1000
  6436.0000      0.8482      0.8682      0.8384     13.2891     50.9375      0.8246    128.6000
  6436.5000      0.8483      0.8638      0.8477     13.5156     49.1875      0.8230    129.1000
  6437.0000      0.8606      0.8540      0.8535     13.5078     51.7188      0.8337    129.2000
  6437.5000      0.8735      0.8457      0.8408     13.4844     46.9375      0.8464    130.3000
  6438.0000      0.8747      0.8398      0.8325     13.0313     46.6250      0.8489    126.0000
  6438.5000      0.8635      0.8428      0.8320     13.6406     43.6563      0.8388    128.6000
  6439.0000      0.8503      0.8516      0.8315     13.4297     47.3750      0.8256    128.4000
  6439.5000      0.8468      0.8521      0.8379     13.1250     47.0313      0.8208    127.1000
  6440.0000      0.8542      0.8394      0.8433     13.2109     48.5938      0.8269    127.4000
  6440.5000      0.8617      0.8286      0.8330     13.0000     50.0625      0.8341    127.4000
