~Version Information
 VERS.                2.00:   CWLS log ASCII Standard -VERSION 2.00
 WRAP.                  NO:   One line per frame
~Well Information Block
#MNEM.UNIT              Data                Description
#--------- -------------------------------  -------------------------------
 STRT.F                          393.0000:   Starting Depth
 STOP.F                         7106.5000:   Ending Depth
 STEP.F                            0.5000:   Level Spacing
 NULL.                          -999.2500:   Absent Value
 COMP.     486                           :   Company
 WELL.     9/13b-53                      :   Well
 FLD .                                   :   Field
 LOC .                                   :   Location
 PROV.                                   :   Province
 SRVC.                                   :   Service Company
 LIC .                                   :   License Number
 DATE.                                   :   Log Date
 UWI .                                   :   Unique Well ID
~Curve Information Block
#MNEM.UNIT       API Codes    Curve Description
#---------    -------------   -------------------------------
 DEPT.F        0   0  0  0:   Primary Index
 IDER.         0   0  0  0:   Deep Induction Enhanced Resolution Phasor Resistivity
 ILD .OHMM     0   0  0  0:   Deep Induction Standard Processed Resistivity
 ILM .OHMM     0   0  0  0:   Medium Induction Standard Processed Resistivity
 CALI.IN       0   0  0  0:   Caliper
 GR  .GAPI     0   0  0  0:   Gamma Ray
 IMER.         0   0  0  0:   Medium Induction Enhanced Resolution Phasor Resistivity
 DTLN.         0   0  0  0:   Delta-T Long Spacing Near
~Parameter Information Block
#MNEM.UNIT              Value             Description
#---------    -------------------------   -------------------------------
 TOOL.        DITE/SDT/SGT (COMPOSITED):   Epl Of All Possible Sensors
#  Curve Data
~A   DEPT        IDER        ILD         ILM         CALI        GR          IMER        DTLN
# ...
  2409.0000      1.7817      1.7295      1.5713     14.2578     47.1250      1.5536    153.6000
  2409.5000      1.7952      1.7148      1.5664     15.2891     46.3750      1.5691    153.1000
  2410.0000      1.7965      1.7002      1.5645     15.1797     46.3750      1.5764    153.1000
  2410.5000      1.7700      1.6963      1.5332     14.5781     44.9063      1.5623    153.5000
  2411.0000      1.7182      1.6924      1.5107     14.4609     46.8750      1.5264    155.6000
  2411.5000      1.6720      1.6973      1.5234     13.8594     45.1563      1.4913    157.0000
  2412.0000      1.6694      1.7012      1.5605     14.2813     47.2813      1.4876    156.6000
  2412.5000      1.7233      1.6943      1.5947     14.2500     46.2188      1.5286    152.7000
  2413.0000      1.8058      1.6826      1.6035     14.4063     43.8438      1.5941    150.2000
  2413.5000      1.8567      1.6865      1.5801     14.4453     46.3750      1.6363    148.5000
  2414.0000      1.8427      1.6875      1.5615     14.4375     47.4375      1.6251    148.0000
  2414.5000      1.7900      1.6992      1.5615     14.5000     48.5938      1.5784    147.6000
  2415.0000      1.7506      1.7109      1.5469     14.7266     48.9375      1.5373    147.2000
  2415.5000      1.7536      1.7207      1.5791     14.7813     47.3750      1.5259    145.1000
  2416.0000      1.7917      1.7334      1.5625     14.8672     48.7500      1.5395    144.8000
  2416.5000      1.8339      1.7764      1.5498     15.0703     48.8438      1.5546    144.3000
  2417.0000      1.8603      1.8291      1.5469     15.0625     48.7813      1.5552    144.4000
  2417.5000      1.8779      1.9004      1.5664     15.0313     48.6250      1.5452    143.9000
  2418.0000      1.9193      1.9229      1.5996     14.9609     48.5313      1.5460    140.5000
  2418.5000      2.0067      1.8867      1.6152     14.9609     51.8750      1.5728    139.4000
  2419.0000      2.1160      1.7539      1.5703     14.9063     47.5938      1.6123    136.2000
  2419.5000      2.1091      1.6084      1.4229     15.0703     39.5938      1.5914    136.6000
  2420.0000      1.8383      1.4863      1.1885     15.6641     30.5156      1.4251    143.5000
  2420.5000      1.4384      1.3867      1.0234     16.4063     28.1250      1.1663    151.3000
  2421.0000      1.1373      1.3174      0.9316     17.7969     27.1563      0.9509    159.8000
  2421.5000      0.9890      1.2441      0.9141     18.6719     26.6875      0.8341    169.5999
  2422.0000      0.9646      1.1670      0.9180     21.2344     24.4063      0.8070    173.6000
  2422.5000      1.0232      1.0996      0.9072     21.9688     21.8438      0.8419    176.4000
  2423.0000      1.1037      0.9834      0.8745     21.9688     19.2813      0.8960    175.6000
  2423.5000      1.1243      0.9355      0.8296     21.9688     20.6563      0.9134    165.5000
  2424.0000      1.0566      0.9126      0.7852     21.9688     19.7969      0.8713    165.0999
  2424.5000      0.9583      0.9219      0.7642     21.9688     19.9531      0.8032    164.9999
  2425.0000      0.8900      0.9429      0.7671     21.9688     16.1563      0.7518    170.3000
  2425.5000      0.8743      0.9771      0.7935     21.9688     15.9141      0.7366    174.1000
  2426.0000      0.9149      0.9834      0.8184     21.9688     16.3438      0.7614    174.8000
  2426.5000      1.0043      0.9785      0.8584     21.9688     18.7656      0.8206    172.7000
  2427.0000      1.1100      0.9756      0.8652     21.9688     17.6719      0.8910    171.3000
  2427.5000      1.1617      0.9829      0.8423     21.9688     18.4375      0.9278    171.3000
  2428.0000      1.1204      1.0000      0.8218     21.9688     17.9844      0.9037    174.0000
  2428.5000      1.0356      1.0322      0.8188     21.9688     22.6094      0.8465    174.0000
  2429.0000      0.9736      1.0508      0.8213     21.9688     20.7813      0.8010    173.6000
  2429.5000      0.9563      1.0518      0.8223     21.9688     20.9219      0.7859    170.1000
  2430.0000      0.9712      1.0303      0.8174     21.9688     16.7656      0.7944    168.0999
  2430.5000      0.9934      1.0098      0.8081     21.9688     17.2344      0.8094    166.8999
  2431.0000      1.0031      1.0039      0.8027     21.9688     17.3594      0.8168    167.3000
  2431.5000      0.9993      1.0166      0.8062     21.9688     20.3906      0.8147    169.4000
  2432.0000      1.0008      1.0283      0.8311     21.9688     20.8438      0.8149    172.2000
  2432.5000      1.0272      1.0303      0.8594     21.9688     22.3594      0.8316    171.9999
  2433.0000      1.0741      1.0205      0.8726     21.9688     20.5313      0.8635    171.0000
  2433.5000      1.1053      1.0107      0.8564     21.9688     20.2344      0.8879    170.8000
  2434.0000      1.0861      1.0078      0.8291     21.9688     18.4375      0.8809    167.9000
  2434.5000      1.0288      1.0205      0.8145     21.9688     18.4375      0.8468    169.5000
  2435.0000      0.9726      1.0518      0.8145     21.9688     19.6250      0.8103    169.9999
  2435.5000      0.9472      1.0713      0.8315     21.9688     19.0313      0.7939    167.5000
  2436.0000      0.9668      1.0811      0.8647     21.9688     21.2813      0.8097    168.4000
  2436.5000      1.0283      1.0703      0.9082     21.9688     23.1250      0.8576    166.7000
  2437.0000      1.1038      1.0469      0.9175     21.9688     26.1875      0.9198    164.2000
  2437.5000      1.1422      1.0195      0.9067     21.9688     24.0781      0.9613    164.6000
  2438.0000      1.1185      1.0010      0.9014     21.9688     21.7344      0.9597    160.4000
  2438.5000      1.0628      0.9990      0.8960     21.9688     20.0000      0.9316    160.9000
  2439.0000      1.0075      1.0195      0.8848     21.9688     21.8438      0.9006    162.7000
  2439.5000      0.9618      1.0459      0.8906     21.9688     21.1563      0.8741    165.7000
  2440.0000      0.9417      1.1064      0.9385     21.9688     21.5938      0.8647    169.2000
  2440.5000      0.9926      1.1748      1.0645     21.9688     22.8125      0.9116    169.1000
  2441.0000      1.1852      1.2324      1.3486     21.9688     22.9531      1.0772    165.7000
  2441.5000      1.6063      1.2656      1.5205     21.8906     26.9063      1.4369    161.4000
  2442.0000      2.1850      1.3271      1.5713     20.2969     29.3281      1.9510    154.7000
  2442.5000      2.3634      1.4189      1.5635     17.7813     37.1875      2.1748    149.9000
  2443.0000      2.0178      1.5078      1.5811     16.8438     41.0625      1.9134    144.1000
  2443.5000      1.6942      1.6816      1.6123     15.9922     44.2500      1.6219    142.5000
  2444.0000      1.5568      1.8057      1.6611     15.9141     46.4688      1.4878    143.4000
  2444.5000      1.5588      1.8604      1.6582     15.0469     49.3750      1.4809    145.7000
  2445.0000      1.6376      1.8408      1.6699     14.9063     51.9688      1.5446    144.1000
  2445.5000      1.7342      1.7871      1.6533     14.8672     49.8750      1.6257    143.4000
  2446.0000      1.7950      1.7109      1.6191     14.9297     46.8125      1.6745    143.5000
  2446.5000      1.7985      1.6787      1.6162     15.0703     44.0938      1.6714    144.4000
  2447.0000      1.7616      1.6514      1.5977     15.0781     46.2188      1.6317    144.7000
  2447.5000      1.7138      1.6426      1.5879     15.0781     46.7188      1.5823    145.2000
  2448.0000      1.6763      1.6357      1.5801     15.0781     47.4375      1.5411    145.6000
  2448.5000      1.6625      1.6328      1.5615     15.0781     45.2500      1.5202    145.6000
  2449.0000      1.6729      1.6260      1.5400     15.0703     42.8125      1.5208    145.6000
  2449.5000      1.6886      1.6309      1.5195     15.0469     37.7188      1.5268    144.7000
  2450.0000      1.6922      1.6357      1.5088     15.0625     36.4063      1.5225    143.8000
  2450.5000      1.6865      1.6445      1.5068     15.1094     37.7813      1.5094    144.0000
