~Version Information
 VERS.                2.00:   CWLS log ASCII Standard -VERSION 2.00
 WRAP.                  NO:   One line per frame
~Well Information Block
#MNEM.UNIT              Data                Description
#--------- -------------------------------  -------------------------------
 STRT.F                          393.0000:   Starting Depth
 STOP.F                         7106.5000:   Ending Depth
 STEP.F                            0.5000:   Level Spacing
 NULL.                          -999.2500:   Absent Value
 COMP.     486                           :   Company
 WELL.     9/13b-53                      :   Well
 FLD .                                   :   Field
 LOC .                                   :   Location
 PROV.                                   :   Province
 SRVC.                                   :   Service Company
 LIC .                                   :   License Number
 DATE.                                   :   Log Date
 UWI .                                   :   Unique Well ID
~Curve Information Block
#MNEM.UNIT       API Codes    Curve Description
#---------    -------------   -------------------------------
 DEPT.F        0   0  0  0:   Primary Index
 IDER.         0   0  0  0:   Deep Induction Enhanced Resolution Phasor Resistivity
 ILD .OHMM     0   0  0  0:   Deep Induction Standard Processed Resistivity
 ILM .OHMM     0   0  0  0:   Medium Induction Standard Processed Resistivity
 CALI.IN       0   0  0  0:   Caliper
 GR  .GAPI     0   0  0  0:   Gamma Ray
 IMER.         0   0  0  0:   Medium Induction Enhanced Resolution Phasor Resistivity
 DTLN.         0   0  0  0:   Delta-T Long Spacing Near
~Parameter Information Block
#MNEM.UNIT              Value             Description
#---------    -------------------------   -------------------------------
 TOOL.        DITE/SDT/SGT (COMPOSITED):   Epl Of All Possible Sensors
#  Curve Data
~A   DEPT        IDER        ILD         ILM         CALI        GR          IMER        DTLN
# ...
  3753.0000      1.4106      1.3770      1.2637     15.1719     33.7813      1.2675    151.4000
  3753.5000      1.4198      1.3818      1.2676     15.6641     30.0469      1.2737    150.5000
  3754.0000      1.4230      1.3857      1.2783     15.8281     29.2813      1.2744    148.9000
  3754.5000      1.4273      1.3936      1.2822     16.2969     28.9844      1.2760    149.1000
  3755.0000      1.4289      1.4014      1.2744     16.4844     30.4844      1.2759    149.3000
  3755.5000      1.4208      1.4014      1.2637     16.8750     30.6094      1.2680    150.4000
  3756.0000      1.4073      1.3906      1.2578     17.1563     29.6094      1.2550    149.7000
  3756.5000      1.3981      1.3682      1.2520     16.9531     29.1719      1.2451    148.2000
  3757.0000      1.3895      1.3428      1.2314     16.1250     30.0781      1.2365    149.1000
  3757.5000      1.3678      1.3291      1.2031     16.6406     30.0781      1.2180    149.2000
  3758.0000      1.3355      1.3242      1.1904     16.3750     32.8750      1.1900    152.2000
  3758.5000      1.3159      1.3203      1.1973     15.2188     31.0938      1.1701    154.5000
  3759.0000      1.3244      1.3184      1.2080     14.4688     31.8281      1.1718    152.4000
  3759.5000      1.3524      1.3242      1.2041     15.8906     29.9063      1.1895    152.5000
  3760.0000      1.3760      1.3311      1.1934     16.4531     30.2031      1.2047    152.5000
  3760.5000      1.3792      1.3301      1.1943     15.3281     32.7188      1.2039    150.9000
  3761.0000      1.3706      1.3350      1.1973     15.0625     31.3750      1.1931    150.1000
  3761.5000      1.3715      1.3398      1.1992     15.3906     34.0625      1.1892    148.7000
  3762.0000      1.3863      1.3291      1.1992     15.6797     31.1094      1.1971    148.4000
  3762.5000      1.3856      1.3203      1.1709     15.4531     31.4375      1.1957    145.6000
  3763.0000      1.3413      1.3281      1.1152     15.1094     28.7500      1.1630    148.8000
  3763.5000      1.2772      1.3291      1.1162     15.0781     28.5938      1.1132    150.9000
  3764.0000      1.2444      1.3301      1.1406     15.1563     29.2813      1.0851    151.6000
  3764.5000      1.2679      1.3330      1.1709     14.4688     30.5000      1.1008    151.3000
  3765.0000      1.3321      1.3193      1.1797     14.1719     33.5000      1.1508    148.2000
  3765.5000      1.3907      1.2998      1.1816     13.4375     33.9375      1.1997    147.4000
  3766.0000      1.4061      1.2949      1.1787     13.8203     34.2188      1.2176    148.4000
  3766.5000      1.3828      1.2959      1.1738     15.0313     31.6719      1.2051    149.1000
  3767.0000      1.3492      1.3086      1.1758     14.9063     27.5156      1.1831    150.4000
  3767.5000      1.3286      1.3281      1.1924     14.2813     24.9531      1.1693    145.3000
  3768.0000      1.3325      1.3564      1.2168     13.9766     23.2500      1.1735    147.9000
  3768.5000      1.3662      1.3975      1.2500     14.4375     24.0000      1.2001    148.9000
  3769.0000      1.4310      1.4355      1.3008     14.2422     24.7500      1.2500    147.6000
  3769.5000      1.5215      1.4688      1.3496     13.8516     26.1719      1.3190    139.3000
  3770.0000      1.6139      1.4863      1.3701     13.2891     27.8281      1.3903    121.7000
  3770.5000      1.6608      1.4912      1.3594     13.8906     28.4219      1.4295    114.7000
  3771.0000      1.6287      1.4893      1.3398     12.9844     27.1094      1.4093    107.9000
  3771.5000      1.5416      1.5029      1.3037     12.9609     27.1719      1.3444    112.1000
  3772.0000      1.4531      1.5107      1.2773     13.4141     27.4844      1.2747    133.5000
  3772.5000      1.3991      1.4902      1.2773     12.8906     28.0313      1.2297    141.4000
  3773.0000      1.3869      1.4541      1.2676     12.9688     28.4063      1.2173    144.4000
  3773.5000      1.4040      1.4063      1.2588     13.6172     28.2344      1.2292    145.1000
  3774.0000      1.4251      1.3750      1.2520     13.8906     28.9844      1.2462    144.6000
  3774.5000      1.4309      1.3633      1.2393     13.6406     27.4844      1.2522    141.9000
  3775.0000      1.4208      1.3643      1.2354     13.8672     26.8906      1.2456    147.2000
  3775.5000      1.4058      1.3691      1.2402     14.2656     27.6250      1.2343    151.2000
  3776.0000      1.3986      1.3828      1.2520     14.1563     28.0938      1.2282    148.3000
  3776.5000      1.4112      1.3936      1.2627     14.0000     29.9063      1.2374    148.2000
  3777.0000      1.4402      1.3936      1.2754     13.9766     29.7500      1.2605    150.8000
  3777.5000      1.4578      1.3916      1.2529     14.3359     30.6563      1.2765    149.5000
  3778.0000      1.4386      1.3965      1.2256     14.4219     28.5781      1.2646    150.4000
  3778.5000      1.3971      1.3945      1.2217     14.2500     28.2969      1.2333    150.3000
  3779.0000      1.3693      1.3975      1.2412     14.7500     30.3125      1.2104    150.6000
  3779.5000      1.3721      1.4063      1.2520     14.0156     31.3281      1.2118    149.7000
  3780.0000      1.3958      1.4092      1.2568     14.1016     32.6875      1.2311    149.0000
  3780.5000      1.4245      1.4131      1.2803     14.2266     30.8594      1.2553    147.0000
  3781.0000      1.4576      1.4277      1.3057     13.7813     29.7969      1.2831    144.9000
  3781.5000      1.5012      1.4375      1.3281     14.1016     28.2813      1.3201    143.1000
  3782.0000      1.5357      1.4268      1.3311     15.1406     29.7813      1.3529    139.0000
  3782.5000      1.5221      1.4248      1.2939     14.9531     29.9375      1.3501    137.6000
  3783.0000      1.4598      1.4229      1.2686     14.4063     30.5469      1.3071    138.6000
  3783.5000      1.3949      1.4053      1.2676     13.9219     30.4688      1.2581    140.1000
  3784.0000      1.3571      1.3887      1.2637     13.6484     31.5313      1.2290    143.6000
  3784.5000      1.3439      1.3740      1.2432     13.4063     31.0781      1.2205    147.9000
  3785.0000      1.3443      1.3633      1.2383     14.0625     28.8594      1.2241    150.1000
  3785.5000      1.3525      1.3613      1.2568     13.6875     28.6719      1.2337    153.5000
  3786.0000      1.3669      1.3730      1.2900     13.6016     27.4688      1.2467    154.0000
  3786.5000      1.4025      1.4004      1.3252     13.1484     27.3438      1.2752    153.5000
  3787.0000      1.4889      1.4063      1.4111     14.0313     27.4531      1.3440    146.0000
  3787.5000      1.6217      1.3828      1.4688     13.9453     28.8125      1.4517    131.0000
  3788.0000      1.6941      1.3770      1.3730     13.9297     29.7188      1.5177    129.9000
  3788.5000      1.5898      1.3828      1.2461     13.4609     30.1406      1.4429    129.9000
  3789.0000      1.3946      1.3828      1.2256     13.7656     31.9688      1.2802    130.1000
  3789.5000      1.2588      1.4209      1.2256     14.3281     33.0938      1.1570    149.4000
  3790.0000      1.2285      1.4209      1.2363     14.3359     33.5000      1.1223    148.3000
  3790.5000      1.2840      1.3896      1.2676     13.9609     32.0625      1.1622    148.5000
  3791.0000      1.3809      1.3691      1.2852     14.3984     33.6563      1.2385    149.8000
  3791.5000      1.4625      1.3623      1.2588     13.9609     32.1250      1.3056    148.5000
  3792.0000      1.4783      1.3379      1.2500     13.7891     30.1875      1.3221    147.4000
  3792.5000      1.4317      1.3379      1.2432     14.2500     28.3750      1.2862    149.0000
  3793.0000      1.3815      1.3643      1.2471     14.2422     27.9531      1.2436    151.1000
  3793.5000      1.3683      1.3613      1.2705     14.5000     29.0625      1.2305    148.5000
  3794.0000      1.3753      1.3564      1.2578     14.1094     28.3125      1.2356    149.1000
  3794.5000      1.3701      1.3623      1.2158     13.8750     29.4688      1.2316    147.1000
