~Version Information
 VERS.                2.00:   CWLS log ASCII Standard -VERSION 2.00
 WRAP.                  NO:   One line per frame
~Well Information Block
#MNEM.UNIT              Data                Description
#--------- -------------------------------  -------------------------------
 STRT.F                          393.0000:   Starting Depth
 STOP.F                         7106.5000:   Ending Depth
 STEP.F                            0.5000:   Level Spacing
 NULL.                          -999.2500:   Absent Value
 COMP.     486                           :   Company
 WELL.     9/13b-53                      :   Well
 FLD .                                   :   Field
 LOC .                                   :   Location
 PROV.                                   :   Province
 SRVC.                                   :   Service Company
 LIC .                                   :   License Number
 DATE.                                   :   Log Date
 UWI .                                   :   Unique Well ID
~Curve Information Block
#MNEM.UNIT       API Codes    Curve Description
#---------    -------------   -------------------------------
 DEPT.F        0   0  0  0:   Primary Index
 IDER.         0   0  0  0:   Deep Induction Enhanced Resolution Phasor Resistivity
 ILD .OHMM     0   0  0  0:   Deep Induction Standard Processed Resistivity
 ILM .OHMM     0   0  0  0:   Medium Induction Standard Processed Resistivity
 CALI.IN       0   0  0  0:   Caliper
 GR  .GAPI     0   0  0  0:   Gamma Ray
 IMER.         0   0  0  0:   Medium Induction Enhanced Resolution Phasor Resistivity
 DTLN.         0   0  0  0:   Delta-T Long Spacing Near
~Parameter Information Block
#MNEM.UNIT              Value             Description
#---------    -------------------------   -------------------------------
 TOOL.        DITE/SDT/SGT (COMPOSITED):   Epl Of All Possible Sensors
#  Curve Data
~A   DEPT        IDER        ILD         ILM         CALI        GR          IMER        DTLN
# ...
  3081.0000      1.6055      1.6113      1.4033     12.8438     43.6875      1.3861    152.6000
  3081.5000      1.6027      1.6250      1.4063     13.1563     44.7188      1.3821    148.5000
  3082.0000      1.6126      1.6367      1.4170     13.3672     44.7188      1.3875    147.7000
  3082.5000      1.6295      1.6328      1.4189     13.4141     39.0938      1.3982    147.9000
  3083.0000      1.6398      1.6104      1.4111     13.7578     40.1875      1.4041    147.9000
  3083.5000      1.6383      1.5664      1.3906     13.6250     42.3125      1.4016    151.6000
  3084.0000      1.6194      1.5078      1.3516     13.3594     44.4375      1.3880    151.5000
  3084.5000      1.5556      1.4531      1.2852     13.3359     41.5625      1.3438    146.2000
  3085.0000      1.4342      1.4297      1.1904     13.4766     38.0938      1.2557    144.4000
  3085.5000      1.3049      1.4180      1.1650     13.5781     35.2813      1.1552    141.3000
  3086.0000      1.2377      1.4102      1.2012     13.7344     33.0000      1.0978    145.0000
  3086.5000      1.2707      1.4033      1.2646     13.6563     32.2500      1.1187    153.4000
  3087.0000      1.4001      1.3818      1.3037     13.0547     30.5469      1.2180    157.0000
  3087.5000      1.5440      1.3271      1.2891     13.2656     33.7188      1.3346    159.0000
  3088.0000      1.5596      1.2832      1.2139     13.3984     35.0938      1.3599    154.9000
  3088.5000      1.4407      1.2598      1.1631     12.7266     37.6563      1.2781    149.9000
  3089.0000      1.3053      1.2354      1.1416     12.7734     39.9063      1.1747    146.7000
  3089.5000      1.2018      1.2305      1.0947     13.6172     37.6563      1.0931    144.5000
  3090.0000      1.1206      1.2500      1.0449     14.3203     36.4375      1.0280    147.1000
  3090.5000      1.0748      1.2441      1.0625     14.2578     31.2969      0.9885    149.7000
  3091.0000      1.1102      1.2500      1.1797     14.8906     29.1250      1.0140    148.8000
  3091.5000      1.2663      1.2529      1.2949     14.7813     29.5781      1.1401    149.7000
  3092.0000      1.5065      1.2412      1.2861     13.0313     34.0938      1.3412    149.4000
  3092.5000      1.6329      1.2578      1.2529     12.6563     40.3750      1.4618    148.7000
  3093.0000      1.5430      1.3389      1.2598     12.6875     41.8438      1.4021    154.3000
  3093.5000      1.4274      1.4531      1.3389     12.3750     39.8750      1.3060    152.7000
  3094.0000      1.4074      1.5000      1.4004     12.2344     38.0000      1.2851    151.8000
  3094.5000      1.4539      1.5176      1.3730     12.1953     40.7500      1.3233    150.9000
  3095.0000      1.4940      1.4980      1.3418     12.0938     42.0625      1.3600    148.4000
  3095.5000      1.4899      1.4600      1.3252     12.1484     44.5938      1.3608    149.0000
  3096.0000      1.4459      1.4258      1.2900     12.2344     43.5625      1.3271    153.0000
  3096.5000      1.3724      1.3896      1.2314     12.2656     42.8125      1.2669    158.7000
  3097.0000      1.2973      1.3652      1.2090     12.3672     38.8750      1.2019    159.8000
  3097.5000      1.2652      1.3457      1.2627     12.5000     34.6250      1.1703    160.0000
  3098.0000      1.2978      1.3301      1.2920     13.3203     34.1875      1.1943    156.1000
  3098.5000      1.3686      1.3057      1.2842     12.8359     36.5625      1.2546    146.1000
  3099.0000      1.4144      1.3057      1.2549     13.0703     38.7813      1.2978    145.6000
  3099.5000      1.4024      1.3115      1.2441     12.5547     37.2813      1.2912    142.8000
  3100.0000      1.3659      1.3047      1.2500     12.5781     37.7500      1.2602    142.2000
  3100.5000      1.3352      1.2803      1.2324     12.7188     38.5938      1.2333    144.4000
  3101.0000      1.3013      1.2432      1.1738     12.7578     37.5313      1.2053    142.4000
  3101.5000      1.2400      1.1846      1.1055     12.9375     36.0000      1.1556    140.3000
  3102.0000      1.1454      1.1396      1.0244     13.1797     33.6875      1.0765    142.0000
  3102.5000      1.0422      1.1016      0.9731     13.9766     31.8750      0.9861    139.9000
  3103.0000      0.9706      1.0625      0.9644     14.7188     27.7969      0.9196    144.5000
  3103.5000      0.9582      1.0264      0.9941     15.2031     24.1094      0.9045    150.1000
  3104.0000      1.0080      0.9629      1.0205     14.8516     25.1563      0.9461    150.4000
  3104.5000      1.0828      0.9087      1.0020     13.7578     25.3125      1.0146    149.1000
  3105.0000      1.1054      0.8950      0.9341     13.6484     26.8438      1.0426    148.2000
  3105.5000      1.0356      0.8950      0.8848     14.4609     23.3594      0.9868    146.4000
  3106.0000      0.9327      0.9268      0.8662     15.2500     21.0938      0.8933    147.3000
  3106.5000      0.8727      0.9712      0.8950     15.4297     19.3594      0.8329    154.1000
  3107.0000      0.8933      1.0137      0.9829     15.7109     22.1250      0.8438    158.8000
  3107.5000      1.0101      1.0400      1.0889     16.3438     27.1094      0.9397    161.0000
  3108.0000      1.2096      1.0684      1.1328     15.0703     32.5625      1.1083    162.2000
  3108.5000      1.3972      1.0967      1.1387     14.7813     37.1875      1.2699    160.3000
  3109.0000      1.4412      1.1455      1.1416     15.1563     39.8750      1.3119    158.6000
  3109.5000      1.3642      1.2305      1.1563     14.6172     41.5313      1.2458    158.3000
  3110.0000      1.2807      1.3057      1.1719     13.6094     39.4063      1.1684    158.1000
  3110.5000      1.2423      1.3623      1.1914     13.3750     38.3750      1.1276    162.6000
  3111.0000      1.2519      1.3926      1.2070     13.5156     37.5000      1.1270    163.8000
  3111.5000      1.2989      1.4043      1.2207     13.2500     40.0938      1.1579    164.1000
  3112.0000      1.3646      1.4111      1.2266     13.2578     42.6563      1.2054    165.2000
  3112.5000      1.4217      1.4326      1.2373     13.3750     42.3750      1.2476    164.7000
  3113.0000      1.4530      1.4658      1.2656     13.2109     40.5625      1.2698    164.4000
  3113.5000      1.4732      1.5361      1.3154     13.3203     39.1875      1.2824    162.4000
  3114.0000      1.5239      1.5947      1.4014     13.0313     39.3125      1.3165    155.9000
  3114.5000      1.6387      1.5977      1.4844     12.6484     35.3750      1.3981    149.8000
  3115.0000      1.7890      1.5977      1.5049     12.3203     32.7813      1.5093    145.8000
  3115.5000      1.8539      1.6113      1.4404     12.2656     32.6250      1.5660    145.7000
  3116.0000      1.7585      1.6318      1.3799     12.3359     34.1250      1.5063    149.4000
  3116.5000      1.6096      1.6641      1.3848     12.2969     35.6563      1.3966    153.3000
  3117.0000      1.5229      1.6699      1.4063     12.1875     34.4688      1.3267    156.6000
  3117.5000      1.5170      1.6260      1.4033     12.2344     36.1250      1.3184    155.7000
  3118.0000      1.5534      1.5703      1.3945     12.2266     34.4688      1.3452    155.1000
  3118.5000      1.5867      1.5371      1.3838     12.2031     34.7500      1.3719    154.5000
  3119.0000      1.5953      1.5098      1.3711     12.2891     34.5938      1.3810    152.5000
  3119.5000      1.5757      1.4951      1.3418     12.3359     35.3438      1.3697    152.9000
  3120.0000      1.5309      1.4883      1.3145     12.1484     37.3438      1.3391    152.2000
  3120.5000      1.4744      1.4746      1.2949     12.1484     38.6563      1.2984    151.7000
  3121.0000      1.4235      1.4668      1.2754     12.1484     40.3125      1.2613    153.1000
  3121.5000      1.3880      1.4561      1.2646     12.3203     39.5000      1.2362    152.6000
  3122.0000      1.3726      1.4463      1.2646     12.4141     42.1875      1.2271    152.7000
  3122.5000      1.3807      1.4414      1.2744     12.4297     44.6250      1.2378    152.6000
