~Version Information
 VERS.                2.00:   CWLS log ASCII Standard -VERSION 2.00
 WRAP.                  NO:   One line per frame
~Well Information Block
#MNEM.UNIT              Data                Description
#--------- -------------------------------  -------------------------------
 STRT.F                          393.0000:   Starting Depth
 STOP.F                         7106.5000:   Ending Depth
 STEP.F                            0.5000:   Level Spacing
 NULL.                          -999.2500:   Absent Value
 COMP.     486                           :   Company
 WELL.     9/13b-53                      :   Well
 FLD .                                   :   Field
 LOC .                                   :   Location
 PROV.                                   :   Province
 SRVC.                                   :   Service Company
 LIC .                                   :   License Number
 DATE.                                   :   Log Date
 UWI .                                   :   Unique Well ID
~Curve Information Block
#MNEM.UNIT       API Codes    Curve Description
#---------    -------------   -------------------------------
 DEPT.F        0   0  0  0:   Primary Index
 IDER.         0   0  0  0:   Deep Induction Enhanced Resolution Phasor Resistivity
 ILD .OHMM     0   0  0  0:   Deep Induction Standard Processed Resistivity
 ILM .OHMM     0   0  0  0:   Medium Induction Standard Processed Resistivity
 CALI.IN       0   0  0  0:   Caliper
 GR  .GAPI     0   0  0  0:   Gamma Ray
 IMER.         0   0  0  0:   Medium Induction Enhanced Resolution Phasor Resistivity
 DTLN.         0   0  0  0:   Delta-T Long Spacing Near
~Parameter Information Block
#MNEM.UNIT              Value             Description
#---------    -------------------------   -------------------------------
 TOOL.        DITE/SDT/SGT (COMPOSITED):   Epl Of All Possible Sensors
#  Curve Data
~A   DEPT        IDER        ILD         ILM         CALI        GR          IMER        DTLN
# ...
  6735.0000      0.8598      0.8564      0.8369     12.8047     43.0313      0.8434    128.6000
  6735.5000      0.8495      0.8564      0.8398     12.9844     44.8750      0.8329    127.0000
  6736.0000      0.8512      0.8491      0.8604     13.3984     45.4375      0.8333    126.5000
  6736.5000      0.8627      0.8438      0.8477     12.9844     48.0000      0.8440    126.0000
  6737.0000      0.8683      0.8369      0.8335     12.7578     49.2813      0.8502    121.4000
  6737.5000      0.8581      0.8301      0.8267     12.8438     47.3125      0.8409    123.4000
  6738.0000      0.8408      0.8359      0.8306     12.7344     44.7500      0.8233    126.7000
  6738.5000      0.8351      0.8438      0.8374     13.0391     42.3750      0.8158    128.0000
  6739.0000      0.8477      0.8423      0.8496     13.1641     42.3438      0.8263    128.2000
  6739.5000      0.8656      0.8403      0.8516     13.0078     45.0000      0.8429    126.9000
  6740.0000      0.8721      0.8486      0.8384     13.0547     49.9375      0.8491    131.0000
  6740.5000      0.8718      0.8555      0.8501     12.9688     50.2500      0.8477    129.3000
  6741.0000      0.8806      0.8589      0.8818     12.6953     49.5938      0.8541    132.1000
  6741.5000      0.8986      0.8608      0.8750     12.9297     48.5938      0.8700    130.7000
  6742.0000      0.9074      0.8569      0.8545     12.7734     51.1563      0.8790    124.6000
  6742.5000      0.8949      0.8481      0.8486     12.8594     47.9063      0.8678    129.9000
  6743.0000      0.8740      0.8579      0.8530     12.6563     44.8125      0.8465    127.2000
  6743.5000      0.8668      0.8789      0.8623     12.6797     41.5313      0.8375    128.2000
  6744.0000      0.8791      0.9048      0.8706     12.6875     43.5000      0.8478    128.0000
  6744.5000      0.9022      0.9399      0.9043     12.9141     46.4375      0.8690    123.4000
  6745.0000      0.9353      0.9956      0.9448     12.5703     48.1563      0.8990    127.4000
  6745.5000      0.9952      1.0518      1.0078     12.7578     46.1875      0.9528    128.1000
  6746.0000      1.0972      1.0674      1.1074     12.4766     41.2500      1.0454    118.4000
  6746.5000      1.2104      1.0732      1.1152     12.5234     39.4063      1.1527    118.2000
  6747.0000      1.2412      1.0820      1.0420     12.5391     40.5313      1.1928    118.0000
  6747.5000      1.1496      1.0850      1.0146     12.5234     45.0000      1.1175    117.4000
  6748.0000      1.0286      1.1152      1.0049     12.6875     48.6563      1.0040    128.0000
  6748.5000      0.9663      1.1201      1.0205     12.7266     49.3438      0.9407    127.7000
  6749.0000      0.9771      1.0674      1.0518     12.8281     45.4063      0.9474    118.0000
  6749.5000      1.0282      1.0029      1.0430     13.0078     42.9375      0.9953    120.5000
  6750.0000      1.0660      0.9707      1.0020     12.9141     45.6250      1.0347    117.3000
  6750.5000      1.0559      0.9590      0.9814     12.6797     49.4688      1.0304    119.6000
  6751.0000      1.0118      0.9575      0.9639     13.0156     54.7500      0.9909    125.5000
  6751.5000      0.9682      0.9746      0.9521     12.9297     53.5313      0.9491    123.7000
  6752.0000      0.9426      0.9614      0.9448     12.7891     53.6875      0.9238    123.5000
  6752.5000      0.9325      0.9443      0.9390     12.8203     50.8750      0.9137    122.3000
  6753.0000      0.9308      0.9268      0.9292     12.9766     50.8438      0.9121    122.9000
  6753.5000      0.9328      0.9072      0.9209     12.6172     54.2813      0.9148    123.7000
  6754.0000      0.9332      0.8926      0.9116     12.9375     55.8438      0.9164    122.9000
  6754.5000      0.9269      0.8896      0.8970     13.2578     56.4063      0.9113    124.3000
  6755.0000      0.9162      0.8955      0.8970     12.9141     52.6563      0.9011    126.8000
  6755.5000      0.9053      0.8984      0.8979     13.3047     54.3438      0.8902    128.4000
  6756.0000      0.8970      0.9067      0.8945     12.5469     56.8438      0.8814    129.6000
  6756.5000      0.8985      0.9072      0.9048     12.8047     55.1250      0.8818    128.1000
  6757.0000      0.9143      0.8994      0.9170     13.0000     51.1563      0.8963    123.8000
  6757.5000      0.9325      0.8833      0.9087     12.6641     53.1563      0.9142    121.5000
  6758.0000      0.9298      0.8672      0.8740     12.8438     56.7813      0.9131    123.4000
  6758.5000      0.9002      0.8511      0.8486     13.0000     55.0938      0.8854    125.2000
  6759.0000      0.8619      0.8423      0.8452     12.8594     50.2813      0.8477    124.4000
  6759.5000      0.8326      0.8481      0.8296     13.0469     50.5625      0.8179    130.1000
  6760.0000      0.8200      0.8472      0.8291     13.0703     54.5625      0.8044    128.1000
  6760.5000      0.8287      0.8418      0.8516     13.3906     56.8438      0.8110    127.2000
  6761.0000      0.8597      0.8438      0.8779     12.9375     58.1250      0.8388    126.9000
  6761.5000      0.9039      0.8496      0.8901     13.0469     54.7813      0.8804    122.2000
  6762.0000      0.9389      0.8550      0.8882     13.0547     53.1875      0.9149    122.8000
  6762.5000      0.9468      0.8745      0.8906     13.2500     50.6875      0.9238    122.3000
  6763.0000      0.9311      0.8906      0.8911     13.1563     48.8438      0.9089    123.1000
  6763.5000      0.9095      0.9004      0.8809     12.9063     45.6250      0.8871    123.6000
  6764.0000      0.8975      0.8989      0.8916     13.0000     42.3438      0.8730    125.4000
  6764.5000      0.9005      0.8984      0.8979     13.0000     42.6250      0.8725    124.5000
  6765.0000      0.9122      0.9077      0.8936     12.8750     46.5625      0.8806    126.4000
  6765.5000      0.9243      0.9146      0.8926     12.7656     47.8750      0.8894    126.0000
  6766.0000      0.9382      0.9277      0.9199     12.7969     49.5625      0.8988    123.9000
  6766.5000      0.9621      0.9458      0.9390     12.8203     48.8438      0.9166    126.4000
  6767.0000      0.9922      0.9492      0.9443     12.8672     49.9375      0.9409    123.8000
  6767.5000      1.0116      0.9487      0.9434     13.0703     53.6250      0.9567    123.7000
  6768.0000      1.0095      0.9609      0.9312     12.8047     56.7188      0.9536    124.8000
  6768.5000      0.9901      0.9614      0.9180     13.1953     56.7813      0.9355    123.8000
  6769.0000      0.9607      0.9536      0.9009     14.6172     55.2500      0.9087    122.6000
  6769.5000      0.9320      0.9663      0.8838     14.6563     50.7500      0.8821    127.3000
  6770.0000      0.9206      0.9741      0.9072     14.1406     49.5625      0.8703    123.3000
  6770.5000      0.9370      0.9819      0.9297     14.4219     46.7500      0.8837    127.1000
  6771.0000      0.9758      1.0098      0.9502     14.1016     45.7813      0.9185    130.0000
  6771.5000      1.0240      1.0313      0.9858     14.7188     45.4688      0.9633    128.5000
  6772.0000      1.0780      1.0508      1.0420     14.5625     46.3125      1.0138    127.6000
  6772.5000      1.1460      1.0967      1.1025     15.7500     49.1250      1.0775    127.6000
  6773.0000      1.2236      1.1514      1.1504     16.5938     55.0000      1.1523    118.8000
  6773.5000      1.2786      1.1875      1.1699     16.7813     53.3438      1.2093    113.6000
  6774.0000      1.2827      1.2422      1.1758     14.1250     52.2813      1.2189    117.4000
  6774.5000      1.2581      1.2861      1.1992     13.8906     47.3438      1.1982    119.0000
  6775.0000      1.2527      1.2930      1.2510     13.5078     51.3750      1.1921    121.0000
  6775.5000      1.2829      1.2900      1.2676     14.2656     51.5938      1.2196    123.3000
  6776.0000      1.3160      1.2754      1.2451     14.2188     50.3438      1.2541    120.5000
  6776.5000      1.3048      1.2627      1.2002     13.8594     46.8125      1.2503    120.3000
