~Version Information
 VERS.                2.00:   CWLS log ASCII Standard -VERSION 2.00
 WRAP.                  NO:   One line per frame
~Well Information Block
#MNEM.UNIT              Data                Description
#--------- -------------------------------  -------------------------------
 STRT.F                          393.0000:   Starting Depth
 STOP.F                         7106.5000:   Ending Depth
 STEP.F                            0.5000:   Level Spacing
 NULL.                          -999.2500:   Absent Value
 COMP.     486                           :   Company
 WELL.     9/13b-53                      :   Well
 FLD .                                   :   Field
 LOC .                                   :   Location
 PROV.                                   :   Province
 SRVC.                                   :   Service Company
 LIC .                                   :   License Number
 DATE.                                   :   Log Date
 UWI .                                   :   Unique Well ID
~Curve Information Block
#MNEM.UNIT       API Codes    Curve Description
#---------    -------------   -------------------------------
 DEPT.F        0   0  0  0:   Primary Index
 IDER.         0   0  0  0:   Deep Induction Enhanced Resolution Phasor Resistivity
 ILD .OHMM     0   0  0  0:   Deep Induction Standard Processed Resistivity
 ILM .OHMM     0   0  0  0:   Medium Induction Standard Processed Resistivity
 CALI.IN       0   0  0  0:   Caliper
 GR  .GAPI     0   0  0  0:   Gamma Ray
 IMER.         0   0  0  0:   Medium Induction Enhanced Resolution Phasor Resistivity
 DTLN.         0   0  0  0:   Delta-T Long Spacing Near
~Parameter Information Block
#MNEM.UNIT              Value             Description
#---------    -------------------------   -------------------------------
 TOOL.        DITE/SDT/SGT (COMPOSITED):   Epl Of All Possible Sensors
#  Curve Data
~A   DEPT        IDER        ILD         ILM         CALI        GR          IMER        DTLN
# ...
  5055.0000      0.9847      0.9688      0.9023     14.3125     28.7969      0.9128    133.9000
  5055.5000      0.9454      0.9780      0.8955     13.8750     29.3594      0.8796    139.3000
  5056.0000      0.9282      0.9688      0.8931     13.7969     29.2188      0.8641    136.3000
  5056.5000      0.9299      0.9443      0.8906     13.7969     28.0781      0.8644    138.9000
  5057.0000      0.9382      0.9229      0.8813     13.4297     30.3281      0.8712    138.5000
  5057.5000      0.9404      0.9092      0.8706     13.6953     32.1563      0.8738    138.0000
  5058.0000      0.9323      0.9014      0.8628     13.3594     34.9375      0.8682    139.5000
  5058.5000      0.9218      0.9014      0.8643     13.3047     37.0625      0.8601    141.0000
  5059.0000      0.9167      0.9004      0.8652     13.2969     33.0000      0.8562    137.3000
  5059.5000      0.9142      0.8979      0.8564     13.4609     30.8906      0.8546    139.6000
  5060.0000      0.9079      0.8994      0.8486     13.6797     28.9219      0.8493    141.2000
  5060.5000      0.8998      0.9043      0.8511     14.3672     33.4063      0.8417    141.9000
  5061.0000      0.9005      0.9087      0.8643     14.3125     34.3750      0.8414    145.3000
  5061.5000      0.9164      0.9092      0.8789     13.6719     33.5625      0.8550    144.2000
  5062.0000      0.9408      0.9067      0.8867     13.1875     33.4063      0.8774    138.1000
  5062.5000      0.9573      0.9033      0.8843     13.2109     36.7813      0.8939    138.0000
  5063.0000      0.9549      0.9053      0.8774     13.1875     36.3438      0.8940    135.1000
  5063.5000      0.9391      0.9121      0.8750     13.4141     36.5000      0.8812    135.0000
  5064.0000      0.9238      0.9160      0.8770     13.1875     32.6875      0.8677    135.1000
  5064.5000      0.9166      0.9170      0.8770     13.2656     33.6563      0.8609    135.6000
  5065.0000      0.9167      0.9185      0.8745     13.3203     29.7344      0.8605    136.3000
  5065.5000      0.9216      0.9116      0.8784     13.4063     28.0469      0.8641    134.8000
  5066.0000      0.9292      0.9038      0.8794     13.3047     24.8438      0.8699    134.5000
  5066.5000      0.9346      0.8975      0.8726     13.1172     25.4531      0.8738    136.4000
  5067.0000      0.9318      0.8916      0.8623     13.1484     25.7500      0.8708    137.8000
  5067.5000      0.9217      0.8921      0.8569     13.1094     26.3125      0.8616    138.5000
  5068.0000      0.9104      0.9009      0.8550     13.1563     27.3906      0.8511    139.6000
  5068.5000      0.9013      0.9155      0.8545     13.1172     29.3281      0.8423    142.6000
  5069.0000      0.8995      0.9482      0.8613     13.2188     29.8906      0.8391    140.8000
  5069.5000      0.9176      0.9712      0.8970     13.2656     28.3750      0.8519    139.6000
  5070.0000      0.9656      0.9790      0.9424     13.5078     25.2969      0.8898    134.1000
  5070.5000      1.0321      0.9897      0.9609     13.8984     25.5000      0.9452    132.9000
  5071.0000      1.0818      0.9980      0.9551     13.9453     25.0469      0.9896    131.0000
  5071.5000      1.0833      0.9980      0.9497     13.5391     23.9219      0.9950    130.5000
  5072.0000      1.0427      1.0107      0.9331     13.3359     24.5625      0.9635    137.2000
  5072.5000      0.9912      1.0068      0.9136     13.8047     27.9219      0.9197    138.3000
  5073.0000      0.9529      0.9844      0.9053     14.7969     33.5625      0.8851    136.5000
  5073.5000      0.9350      0.9595      0.9023     13.1094     32.8125      0.8679    138.7000
  5074.0000      0.9318      0.9370      0.8872     13.4375     31.0156      0.8646    137.0000
  5074.5000      0.9314      0.9082      0.8691     13.4453     30.4531      0.8652    136.3000
  5075.0000      0.9251      0.8867      0.8604     13.5781     36.5000      0.8616    136.0000
  5075.5000      0.9117      0.8726      0.8442     13.7500     41.9063      0.8516    136.1000
  5076.0000      0.8930      0.8647      0.8296     13.9063     46.5313      0.8366    135.7000
  5076.5000      0.8730      0.8647      0.8218     14.1172     43.0000      0.8195    135.8000
  5077.0000      0.8598      0.8716      0.8271     14.4375     39.0000      0.8074    137.7000
  5077.5000      0.8634      0.8813      0.8418     13.9375     36.9063      0.8096    139.3000
  5078.0000      0.8854      0.8838      0.8569     13.9219     36.7500      0.8287    135.7000
  5078.5000      0.9173      0.8867      0.8716     13.4688     40.9688      0.8575    133.4000
  5079.0000      0.9460      0.8950      0.8823     13.3750     44.5000      0.8841    132.5000
  5079.5000      0.9608      0.9053      0.8838     13.1484     49.5313      0.8989    132.6000
  5080.0000      0.9579      0.9136      0.8813     12.9688     50.8125      0.8979    132.1000
  5080.5000      0.9407      0.9175      0.8740     13.2109     49.8750      0.8835    131.9000
  5081.0000      0.9176      0.9155      0.8613     13.3359     48.1875      0.8630    134.0000
  5081.5000      0.8966      0.9023      0.8511     13.3281     47.2188      0.8440    135.5000
  5082.0000      0.8823      0.8892      0.8442     13.4063     47.4375      0.8306    137.0000
  5082.5000      0.8744      0.8862      0.8379     12.7031     50.0313      0.8231    137.3000
  5083.0000      0.8716      0.8853      0.8354     12.7500     47.7813      0.8201    136.6000
  5083.5000      0.8762      0.8848      0.8457     12.7891     47.0625      0.8236    134.8000
  5084.0000      0.8910      0.8818      0.8564     12.7656     41.9688      0.8362    135.1000
  5084.5000      0.9086      0.8687      0.8550     12.5859     42.4063      0.8526    126.8000
  5085.0000      0.9100      0.8486      0.8335     12.5703     37.4375      0.8562    127.2000
  5085.5000      0.8832      0.8320      0.8008     12.7031     37.5625      0.8347    130.1000
  5086.0000      0.8403      0.8169      0.7813     12.7656     38.5313      0.7972    135.4000
  5086.5000      0.8002      0.7910      0.7583     12.8672     41.2500      0.7609    146.1000
  5087.0000      0.7687      0.7578      0.7324     12.6953     41.9375      0.7322    149.7000
  5087.5000      0.7435      0.7393      0.7158     12.5938     40.4063      0.7091    152.6000
  5088.0000      0.7278      0.7334      0.7100     12.5938     38.4375      0.6938    147.1000
  5088.5000      0.7301      0.7236      0.7227     12.6172     39.1563      0.6946    142.5000
  5089.0000      0.7508      0.7114      0.7319     12.6406     41.0938      0.7126    135.8000
  5089.5000      0.7735      0.7109      0.7256     12.6563     42.5000      0.7339    132.7000
  5090.0000      0.7795      0.7236      0.7153     12.5156     44.2813      0.7410    131.1000
  5090.5000      0.7704      0.7476      0.7256     12.5469     46.5625      0.7336    142.7000
  5091.0000      0.7640      0.7729      0.7427     12.4688     49.3750      0.7274    148.3000
  5091.5000      0.7727      0.7954      0.7568     12.3359     51.2188      0.7350    147.6000
  5092.0000      0.7950      0.8047      0.7764     12.4141     52.6250      0.7561    144.4000
  5092.5000      0.8213      0.8179      0.7944     12.3594     55.4375      0.7825    137.0000
  5093.0000      0.8430      0.8442      0.8062     12.4063     60.4688      0.8064    134.3000
  5093.5000      0.8569      0.8779      0.8228     12.4063     64.0625      0.8248    131.6000
  5094.0000      0.8636      0.9116      0.8477     12.2734     67.1875      0.8376    137.3000
  5094.5000      0.8678      0.9478      0.8730     12.2266     70.1250      0.8487    139.2000
  5095.0000      0.8826      0.9697      0.9155     12.6250     70.0000      0.8707    138.4000
  5095.5000      0.9179      0.9609      0.9658     13.2969     65.5000      0.9156    125.8000
  5096.0000      0.9572      0.9268      0.9717     13.9922     50.1563      0.9704    116.7000
  5096.5000      0.9536      0.8799      0.9155     14.4688     33.5938      0.9871    109.8000
