~Version Information
 VERS.                2.00:   CWLS log ASCII Standard -VERSION 2.00
 WRAP.                  NO:   One line per frame
~Well Information Block
#MNEM.UNIT              Data                Description
#--------- -------------------------------  -------------------------------
 STRT.F                          393.0000:   Starting Depth
 STOP.F                         7106.5000:   Ending Depth
 STEP.F                            0.5000:   Level Spacing
 NULL.                          -999.2500:   Absent Value
 COMP.     486                           :   Company
 WELL.     9/13b-53                      :   Well
 FLD .                                   :   Field
 LOC .                                   :   Location
 PROV.                                   :   Province
 SRVC.                                   :   Service Company
 LIC .                                   :   License Number
 DATE.                                   :   Log Date
 UWI .                                   :   Unique Well ID
~Curve Information Block
#MNEM.UNIT       API Codes    Curve Description
#---------    -------------   -------------------------------
 DEPT.F        0   0  0  0:   Primary Index
 IDER.         0   0  0  0:   Deep Induction Enhanced Resolution Phasor Resistivity
 ILD .OHMM     0   0  0  0:   Deep Induction Standard Processed Resistivity
 ILM .OHMM     0   0  0  0:   Medium Induction Standard Processed Resistivity
 CALI.IN       0   0  0  0:   Caliper
 GR  .GAPI     0   0  0  0:   Gamma Ray
 IMER.         0   0  0  0:   Medium Induction Enhanced Resolution Phasor Resistivity
 DTLN.         0   0  0  0:   Delta-T Long Spacing Near
~Parameter Information Block
#MNEM.UNIT              Value             Description
#---------    -------------------------   -------------------------------
 TOOL.        DITE/SDT/SGT (COMPOSITED):   Epl Of All Possible Sensors
#  Curve Data
~A   DEPT        IDER        ILD         ILM         CALI        GR          IMER        DTLN
# ...
  4089.0000      1.0245      0.9971      0.9268     12.8672     35.9063      0.9137    152.1000
  4089.5000      1.0447      1.0088      0.9160     13.1250     36.1875      0.9306    149.8000
  4090.0000      1.0486      1.0195      0.9336     13.5859     34.3750      0.9336    149.4000
  4090.5000      1.0556      1.0459      0.9590     14.2422     36.0625      0.9375    147.6000
  4091.0000      1.0784      1.0732      0.9712     12.6797     37.8125      0.9542    152.1000
  4091.5000      1.1080      1.0859      0.9780     12.8281     38.9688      0.9775    150.1000
  4092.0000      1.1221      1.0791      0.9844     12.1250     36.3438      0.9894    149.0000
  4092.5000      1.1112      1.0742      0.9634     12.9688     36.3750      0.9818    145.8000
  4093.0000      1.0897      1.0547      0.9604     13.0703     36.3750      0.9652    140.5000
  4093.5000      1.0724      1.0449      0.9609     13.3672     38.0000      0.9517    154.8000
  4094.0000      1.0536      1.0410      0.9277     12.8750     38.7188      0.9378    154.5000
  4094.5000      1.0243      1.0342      0.9092     11.9922     38.0625      0.9156    153.5000
  4095.0000      0.9955      1.0244      0.9111     13.0156     34.5625      0.8926    150.0000
  4095.5000      0.9914      1.0186      0.9282     13.3984     31.3281      0.8880    144.7000
  4096.0000      1.0181      1.0088      0.9492     12.8906     29.2031      0.9090    144.7000
  4096.5000      1.0524      1.0107      0.9321     13.0938     33.8438      0.9385    155.7000
  4097.0000      1.0668      1.0146      0.9360     13.3906     35.5313      0.9528    155.1000
  4097.5000      1.0635      1.0205      0.9512     13.2578     38.2500      0.9516    154.8000
  4098.0000      1.0621      1.0322      0.9619     12.2969     38.2500      0.9506    151.4000
  4098.5000      1.0706      1.0410      0.9653     12.2891     37.9375      0.9575    151.2000
  4099.0000      1.0808      1.0430      0.9712     13.1484     36.1875      0.9662    149.8000
  4099.5000      1.0847      1.0557      0.9697     12.8047     35.7813      0.9697    145.5000
  4100.0000      1.0824      1.0654      0.9678     13.5078     36.7188      0.9680    152.2000
  4100.5000      1.0790      1.0742      0.9707     13.4609     37.2500      0.9646    153.1000
  4101.0000      1.0808      1.0889      0.9834     13.6563     34.7188      0.9645    153.9000
  4101.5000      1.0930      1.1035      0.9956     12.6641     35.1563      0.9723    154.2000
  4102.0000      1.1169      1.1182      1.0127     13.5156     34.9063      0.9895    150.6000
  4102.5000      1.1499      1.1270      1.0352     13.9297     37.6563      1.0143    148.1000
  4103.0000      1.1800      1.1318      1.0352     12.3438     33.5625      1.0375    148.8000
  4103.5000      1.1890      1.1289      1.0205     12.2031     33.1875      1.0454    146.5000
  4104.0000      1.1691      1.1270      1.0078     12.3359     32.2813      1.0310    143.0000
  4104.5000      1.1328      1.1318      0.9946     13.1875     33.7188      1.0023    141.4000
  4105.0000      1.1008      1.1240      0.9893     13.5547     33.5625      0.9759    144.4000
  4105.5000      1.0839      1.1094      0.9829     13.5547     32.9688      0.9612    147.3000
  4106.0000      1.0816      1.1006      0.9814     12.8359     35.1875      0.9584    144.9000
  4106.5000      1.0900      1.0830      0.9844     13.0078     37.7188      0.9642    150.8000
  4107.0000      1.1027      1.0762      0.9819     13.3906     38.3438      0.9741    153.5000
  4107.5000      1.1118      1.0742      0.9805     12.8750     37.6250      0.9816    150.1000
  4108.0000      1.1122      1.0752      0.9795     12.6875     37.7813      0.9821    151.8000
  4108.5000      1.1054      1.0801      0.9756     12.8438     37.3438      0.9766    153.9000
  4109.0000      1.0982      1.0801      0.9751     12.3047     37.4688      0.9705    154.5000
  4109.5000      1.0948      1.0742      0.9756     12.5469     37.5938      0.9674    154.0000
  4110.0000      1.0912      1.0752      0.9658     12.5703     38.0000      0.9645    153.2000
  4110.5000      1.0813      1.0732      0.9556     12.9141     37.1875      0.9568    151.5000
  4111.0000      1.0699      1.0713      0.9565     12.9141     35.6563      0.9474    151.1000
  4111.5000      1.0707      1.0732      0.9688     12.6797     36.0625      0.9469    154.4000
  4112.0000      1.0863      1.0732      0.9741     12.7266     35.6875      0.9587    151.6000
  4112.5000      1.0989      1.0703      0.9629     12.7344     34.7500      0.9696    150.5000
  4113.0000      1.0934      1.0830      0.9570     13.1797     33.0625      0.9664    148.4000
  4113.5000      1.0817      1.0938      0.9727     13.3594     31.9375      0.9569    150.3000
  4114.0000      1.0891      1.1045      1.0000     12.8984     32.4063      0.9614    153.8000
  4114.5000      1.1220      1.1084      1.0127     13.3984     32.6250      0.9866    153.0000
  4115.0000      1.1553      1.0938      1.0039     12.6953     37.0000      1.0142    150.3000
  4115.5000      1.1545      1.0762      0.9829     12.4141     37.0000      1.0166    150.7000
  4116.0000      1.1172      1.0684      0.9580     12.7188     38.8750      0.9896    153.1000
  4116.5000      1.0707      1.0488      0.9438     12.9141     36.0625      0.9533    155.5000
  4117.0000      1.0315      1.0332      0.9282     12.6172     33.9688      0.9220    156.3000
  4117.5000      0.9996      1.0342      0.9038     13.5859     34.0938      0.8963    158.6000
  4118.0000      0.9797      1.0352      0.9033     13.8984     35.4063      0.8795    158.9000
  4118.5000      0.9843      1.0273      0.9297     13.6719     37.2500      0.8818    158.7000
  4119.0000      1.0179      1.0225      0.9497     13.7578     35.5313      0.9079    158.8000
  4119.5000      1.0640      1.0098      0.9473     12.5156     36.7500      0.9459    156.6000
  4120.0000      1.0909      0.9800      0.9370     13.0547     37.5938      0.9707    156.6000
  4120.5000      1.0777      0.9590      0.9194     13.3672     36.9688      0.9639    156.9000
  4121.0000      1.0285      0.9473      0.8818     12.8359     37.8125      0.9272    159.2000
  4121.5000      0.9623      0.9336      0.8501     13.0781     39.9375      0.8745    160.5000
  4122.0000      0.9042      0.9370      0.8364     13.8203     40.0313      0.8255    159.4000
  4122.5000      0.8790      0.9463      0.8516     13.5391     37.3438      0.8018    160.2000
  4123.0000      0.9006      0.9448      0.8833     13.2188     37.5000      0.8167    162.2000
  4123.5000      0.9624      0.9414      0.9102     12.7266     36.8125      0.8661    161.4000
  4124.0000      1.0349      0.9487      0.9194     12.7578     37.2813      0.9258    159.9000
  4124.5000      1.0801      0.9731      0.9248     12.4141     38.0938      0.9649    157.4000
  4125.0000      1.0853      1.0137      0.9385     12.1641     41.1250      0.9711    156.5000
  4125.5000      1.0703      1.0586      0.9546     12.4453     40.5000      0.9593    154.5000
  4126.0000      1.0619      1.0840      0.9707     12.7578     38.5000      0.9515    155.1000
  4126.5000      1.0719      1.0918      0.9868     12.5781     38.8438      0.9586    152.7000
  4127.0000      1.0938      1.0840      0.9985     13.0859     38.6875      0.9762    152.3000
  4127.5000      1.1108      1.0801      0.9829     13.4688     36.9375      0.9915    153.5000
  4128.0000      1.1093      1.0703      0.9731     13.3516     34.6875      0.9930    153.3000
  4128.5000      1.0870      1.0654      0.9639     13.4453     39.0625      0.9772    153.6000
  4129.0000      1.0571      1.0703      0.9575     13.3984     40.5625      0.9536    156.0000
  4129.5000      1.0416      1.0830      0.9688     12.3203     40.6563      0.9406    157.7000
  4130.0000      1.0559      1.0879      1.0059     12.0391     37.4375      0.9515    157.7000
  4130.5000      1.0957      1.0967      1.0264     12.7188     34.9063      0.9836    155.8000
