~Version Information
 VERS.                2.00:   CWLS log ASCII Standard -VERSION 2.00
 WRAP.                  NO:   One line per frame
~Well Information Block
#MNEM.UNIT              Data                Description
#--------- -------------------------------  -------------------------------
 STRT.F                          393.0000:   Starting Depth
 STOP.F                         7106.5000:   Ending Depth
 STEP.F                            0.5000:   Level Spacing
 NULL.                          -999.2500:   Absent Value
 COMP.     486                           :   Company
 WELL.     9/13b-53                      :   Well
 FLD .                                   :   Field
 LOC .                                   :   Location
 PROV.                                   :   Province
 SRVC.                                   :   Service Company
 LIC .                                   :   License Number
 DATE.                                   :   Log Date
 UWI .                                   :   Unique Well ID
~Curve Information Block
#MNEM.UNIT       API Codes    Curve Description
#---------    -------------   -------------------------------
 DEPT.F        0   0  0  0:   Primary Index
 IDER.         0   0  0  0:   Deep Induction Enhanced Resolution Phasor Resistivity
 ILD .OHMM     0   0  0  0:   Deep Induction Standard Processed Resistivity
 ILM .OHMM     0   0  0  0:   Medium Induction Standard Processed Resistivity
 CALI.IN       0   0  0  0:   Caliper
 GR  .GAPI     0   0  0  0:   Gamma Ray
 IMER.         0   0  0  0:   Medium Induction Enhanced Resolution Phasor Resistivity
 DTLN.         0   0  0  0:   Delta-T Long Spacing Near
~Parameter Information Block
#MNEM.UNIT              Value             Description
#---------    -------------------------   -------------------------------
 TOOL.        DITE/SDT/SGT (COMPOSITED):   Epl Of All Possible Sensors
#  Curve Data
~A   DEPT        IDER        ILD         ILM         CALI        GR          IMER        DTLN
# ...
  3417.0000      1.4162      1.2881      1.1699     13.0078     35.0938      1.2050    160.1000
  3417.5000      1.3980      1.3037      1.1445     13.0469     36.5000      1.1956    159.3999
  3418.0000      1.3500      1.3115      1.1484     13.3203     38.1563      1.1615    160.5000
  3418.5000      1.3162      1.3291      1.1768     13.2578     38.2188      1.1341    161.2000
  3419.0000      1.3203      1.3350      1.1816     13.3984     39.3438      1.1340    161.6000
  3419.5000      1.3500      1.3154      1.1729     12.7188     36.0000      1.1546    161.4000
  3420.0000      1.3743      1.2842      1.1553     12.9766     34.5938      1.1729    161.6000
  3420.5000      1.3621      1.2637      1.1260     12.6172     34.5938      1.1659    164.1000
  3421.0000      1.3007      1.2529      1.0752     12.5000     34.6250      1.1223    163.5000
  3421.5000      1.2205      1.2539      1.0547     13.5156     34.6250      1.0612    163.2000
  3422.0000      1.1779      1.2568      1.0820     14.3281     31.7813      1.0248    158.2000
  3422.5000      1.2007      1.2598      1.1152     13.6484     33.4063      1.0378    160.8000
  3423.0000      1.2607      1.2539      1.1074     14.0859     32.5625      1.0817    163.1000
  3423.5000      1.3002      1.2539      1.0869     13.8516     31.8125      1.1128    164.2000
  3424.0000      1.3103      1.2471      1.1133     13.7813     32.5625      1.1204    164.0000
  3424.5000      1.3291      1.2490      1.1504     13.3359     32.5625      1.1327    162.3000
  3425.0000      1.3538      1.2500      1.1357     12.6953     33.3125      1.1513    158.5999
  3425.5000      1.3378      1.2520      1.0889     13.0313     29.5469      1.1421    160.8000
  3426.0000      1.2819      1.2529      1.0889     14.8125     32.4375      1.1012    162.0000
  3426.5000      1.2437      1.2686      1.1152     15.3672     34.0938      1.0700    165.0000
  3427.0000      1.2498      1.2725      1.1133     12.9688     40.0000      1.0719    165.4000
  3427.5000      1.2724      1.2588      1.0879     13.6797     38.7188      1.0885    163.8000
  3428.0000      1.2758      1.2432      1.0791     14.1016     37.1563      1.0919    161.9000
  3428.5000      1.2636      1.2402      1.0811     13.7109     37.3125      1.0830    162.2000
  3429.0000      1.2541      1.2246      1.0840     13.5859     36.0938      1.0760    164.0000
  3429.5000      1.2452      1.2227      1.0703     13.0469     38.6563      1.0705    167.5000
  3430.0000      1.2323      1.2275      1.0645     12.5234     36.0000      1.0620    168.2999
  3430.5000      1.2291      1.2334      1.0859     12.8906     37.5000      1.0599    164.7000
  3431.0000      1.2480      1.2471      1.1074     12.5547     37.0625      1.0742    162.4000
  3431.5000      1.2817      1.2686      1.1191     12.2891     37.0000      1.1001    153.2000
  3432.0000      1.3183      1.2998      1.1406     13.2891     36.8438      1.1284    151.0999
  3432.5000      1.3602      1.3242      1.1768     14.2813     36.4063      1.1606    148.4000
  3433.0000      1.4085      1.3350      1.2051     13.9766     38.5938      1.1981    147.3000
  3433.5000      1.4386      1.3545      1.2051     12.6641     38.5938      1.2238    148.0000
  3434.0000      1.4280      1.3682      1.1885     12.7578     37.9063      1.2196    149.6000
  3434.5000      1.3982      1.3730      1.1992     12.8984     36.8438      1.1987    151.6000
  3435.0000      1.3833      1.3584      1.2119     12.4297     38.6563      1.1871    153.5000
  3435.5000      1.3763      1.3291      1.1729     12.9688     38.9375      1.1833    156.2000
  3436.0000      1.3418      1.3057      1.1250     13.1641     37.5625      1.1612    160.8000
  3436.5000      1.2764      1.2744      1.1045     13.3750     32.2813      1.1138    160.7000
  3437.0000      1.2225      1.2695      1.1035     12.9141     31.7188      1.0716    165.5001
  3437.5000      1.2175      1.2725      1.1348     12.4844     31.5938      1.0658    166.4000
  3438.0000      1.2622      1.2725      1.1504     12.4531     32.9063      1.0993    166.9000
  3438.5000      1.3221      1.2695      1.1533     12.2656     34.8750      1.1465    166.0000
  3439.0000      1.3527      1.2686      1.1367     12.5547     36.5000      1.1733    166.9000
  3439.5000      1.3407      1.2598      1.1377     12.9063     38.3125      1.1673    165.6000
  3440.0000      1.3102      1.2529      1.1367     13.5547     35.1875      1.1452    165.3000
  3440.5000      1.2833      1.2520      1.1279     13.0859     36.0938      1.1249    165.1000
  3441.0000      1.2653      1.2510      1.1182     12.5703     34.5313      1.1114    167.4000
  3441.5000      1.2528      1.2363      1.1084     12.5859     35.5938      1.1016    165.3000
  3442.0000      1.2416      1.2246      1.0977     12.3203     36.2188      1.0918    164.8000
  3442.5000      1.2289      1.2188      1.0830     12.7188     40.0000      1.0809    164.8000
  3443.0000      1.2182      1.2178      1.0771     13.5469     41.1875      1.0717    162.1000
  3443.5000      1.2177      1.2188      1.0957     13.4063     38.9063      1.0700    159.4000
  3444.0000      1.2335      1.2354      1.1143     12.5938     39.1563      1.0812    158.7000
  3444.5000      1.2671      1.2471      1.1309     12.6797     39.5938      1.1062    157.9000
  3445.0000      1.3136      1.2461      1.1572     13.1563     42.3125      1.1408    159.0000
  3445.5000      1.3561      1.2471      1.1689     13.2969     41.4063      1.1725    159.1000
  3446.0000      1.3695      1.2578      1.1475     13.9219     42.5938      1.1836    159.4000
  3446.5000      1.3455      1.2578      1.1289     13.2109     41.2500      1.1671    157.5000
  3447.0000      1.3019      1.2598      1.1260     12.3047     41.0938      1.1342    158.7000
  3447.5000      1.2599      1.2715      1.1074     12.4297     40.1875      1.1013    161.4000
  3448.0000      1.2298      1.2715      1.0879     13.1484     40.6563      1.0766    162.6000
  3448.5000      1.2175      1.2617      1.0967     13.7656     37.8750      1.0645    162.0000
  3449.0000      1.2288      1.2559      1.1074     12.5859     34.5313      1.0698    162.7000
  3449.5000      1.2602      1.2568      1.1104     12.7344     35.5313      1.0915    163.4000
  3450.0000      1.2908      1.2539      1.1055     13.2266     38.0313      1.1142    162.2000
  3450.5000      1.2995      1.2549      1.1045     14.2422     39.8750      1.1204    159.2000
  3451.0000      1.2910      1.2627      1.1113     14.7813     36.7500      1.1121    159.2000
  3451.5000      1.2893      1.2734      1.1289     14.5469     34.7813      1.1074    159.3000
  3452.0000      1.3100      1.2900      1.1475     14.2188     36.1563      1.1189    158.3000
  3452.5000      1.3466      1.2988      1.1592     13.1406     39.6875      1.1430    158.3000
  3453.0000      1.3723      1.3027      1.1455     13.5000     40.1250      1.1606    156.5000
  3453.5000      1.3663      1.3008      1.1289     13.3906     37.3750      1.1555    158.4001
  3454.0000      1.3405      1.2939      1.1250     13.8281     34.7500      1.1346    157.5000
  3454.5000      1.3176      1.2852      1.1201     14.1797     33.1250      1.1150    159.4000
  3455.0000      1.2977      1.2773      1.0947     13.0000     33.7500      1.0985    162.1000
  3455.5000      1.2676      1.2695      1.0693     12.1328     33.4063      1.0756    163.4000
  3456.0000      1.2368      1.2666      1.0693     12.8438     36.7188      1.0515    164.6000
  3456.5000      1.2325      1.2666      1.0879     12.5859     35.3438      1.0457    165.6000
  3457.0000      1.2621      1.2656      1.0986     12.5703     34.2500      1.0652    165.9000
  3457.5000      1.3013      1.2607      1.0938     13.4063     34.9688      1.0937    165.2000
  3458.0000      1.3193      1.2666      1.0898     13.8672     36.1875      1.1084    165.8000
  3458.5000      1.3150      1.2754      1.1016     14.3203     35.9063      1.1069    164.5001
