~Version Information
 VERS.                2.00:   CWLS log ASCII Standard -VERSION 2.00
 WRAP.                  NO:   One line per frame
~Well Information Block
#MNEM.UNIT              Data                Description
#--------- -------------------------------  -------------------------------
 STRT.F                          393.0000:   Starting Depth
 STOP.F                         7106.5000:   Ending Depth
 STEP.F                            0.5000:   Level Spacing
 NULL.                          -999.2500:   Absent Value
 COMP.     486                           :   Company
 WELL.     9/13b-53                      :   Well
 FLD .                                   :   Field
 LOC .                                   :   Location
 PROV.                                   :   Province
 SRVC.                                   :   Service Company
 LIC .                                   :   License Number
 DATE.                                   :   Log Date
 UWI .                                   :   Unique Well ID
~Curve Information Block
#MNEM.UNIT       API Codes    Curve Description
#---------    -------------   -------------------------------
 DEPT.F        0   0  0  0:   Primary Index
 IDER.         0   0  0  0:   Deep Induction Enhanced Resolution Phasor Resistivity
 ILD .OHMM     0   0  0  0:   Deep Induction Standard Processed Resistivity
 ILM .OHMM     0   0  0  0:   Medium Induction Standard Processed Resistivity
 CALI.IN       0   0  0  0:   Caliper
 GR  .GAPI     0   0  0  0:   Gamma Ray
 IMER.         0   0  0  0:   Medium Induction Enhanced Resolution Phasor Resistivity
 DTLN.         0   0  0  0:   Delta-T Long Spacing Near
~Parameter Information Block
#MNEM.UNIT              Value             Description
#---------    -------------------------   -------------------------------
 TOOL.        DITE/SDT/SGT (COMPOSITED):   Epl Of All Possible Sensors
#  Curve Data
~A   DEPT        IDER        ILD         ILM         CALI        GR          IMER        DTLN
# ...
  4425.0000      0.5592      0.5913      0.6460     21.9688     16.9531      0.6073    123.5000
  4425.5000      0.5979      0.6191      0.6895     21.9688     19.4688      0.6512    121.8000
  4426.0000      0.6470      0.6465      0.7290     18.7188     21.7656      0.7100    123.7000
  4426.5000      0.6895      0.6719      0.7480     16.7656     23.1406      0.7648    125.1000
  4427.0000      0.7078      0.6948      0.7598     16.5625     21.3125      0.7922    123.6000
  4427.5000      0.7019      0.7114      0.7710     16.6719     22.5000      0.7890    125.9000
  4428.0000      0.6882      0.7158      0.7832     16.5938     23.5469      0.7743    123.1000
  4428.5000      0.6789      0.7046      0.7856     16.7656     24.8125      0.7647    122.4000
  4429.0000      0.6718      0.6816      0.7705     16.9844     22.2188      0.7587    121.5000
  4429.5000      0.6584      0.6499      0.7407     17.1719     23.2969      0.7453    120.3000
  4430.0000      0.6359      0.6157      0.7129     17.3906     23.4375      0.7196    120.2000
  4430.5000      0.6101      0.5923      0.6875     16.8125     24.7969      0.6885    119.6000
  4431.0000      0.5884      0.5762      0.6689     15.2578     21.4219      0.6617    119.2000
  4431.5000      0.5731      0.5669      0.6519     14.9375     23.2500      0.6429    118.9000
  4432.0000      0.5620      0.5615      0.6343     14.8672     21.9063      0.6294    118.7000
  4432.5000      0.5525      0.5576      0.6221     15.0703     21.7813      0.6178    119.6000
  4433.0000      0.5459      0.5522      0.6187     15.5078     20.8281      0.6093    119.8000
  4433.5000      0.5462      0.5474      0.6260     15.6797     20.6563      0.6092    120.1000
  4434.0000      0.5553      0.5425      0.6348     15.7188     20.7969      0.6200    121.4000
  4434.5000      0.5677      0.5381      0.6357     15.9219     21.7344      0.6362    121.3000
  4435.0000      0.5734      0.5347      0.6294     16.1875     21.4375      0.6447    120.5000
  4435.5000      0.5675      0.5361      0.6211     16.4375     21.7031      0.6383    122.0000
  4436.0000      0.5568      0.5405      0.6230     16.7500     20.6094      0.6247    122.7000
  4436.5000      0.5515      0.5459      0.6318     16.4219     23.4844      0.6168    122.0000
  4437.0000      0.5545      0.5513      0.6362     16.3750     26.4375      0.6194    121.2000
  4437.5000      0.5619      0.5537      0.6362     17.0938     24.8906      0.6280    120.0000
  4438.0000      0.5688      0.5562      0.6387     17.0938     23.8438      0.6363    120.1000
  4438.5000      0.5725      0.5596      0.6396     16.7813     21.7656      0.6406    120.2000
  4439.0000      0.5725      0.5635      0.6353     16.7500     22.1250      0.6400    119.1000
  4439.5000      0.5691      0.5684      0.6338     16.8125     21.0000      0.6351    119.8000
  4440.0000      0.5658      0.5752      0.6387     16.9844     20.3594      0.6297    120.6000
  4440.5000      0.5672      0.5796      0.6479     17.1719     19.2969      0.6296    122.1000
  4441.0000      0.5749      0.5791      0.6548     17.4531     19.6406      0.6377    123.2000
  4441.5000      0.5857      0.5747      0.6592     17.2813     18.7344      0.6502    122.5000
  4442.0000      0.5928      0.5708      0.6514     16.9844     19.2969      0.6589    121.8000
  4442.5000      0.5905      0.5674      0.6426     16.9063     19.1406      0.6563    119.6000
  4443.0000      0.5791      0.5674      0.6318     17.1875     19.9688      0.6423    120.6000
  4443.5000      0.5655      0.5703      0.6274     17.5469     19.1250      0.6251    121.4000
  4444.0000      0.5575      0.5723      0.6304     17.8594     19.7656      0.6142    122.0000
  4444.5000      0.5580      0.5713      0.6333     18.0781     19.3594      0.6138    122.4000
  4445.0000      0.5640      0.5649      0.6323     18.0313     22.0781      0.6209    122.9000
  4445.5000      0.5699      0.5542      0.6294     17.8438     20.3906      0.6287    121.3000
  4446.0000      0.5714      0.5469      0.6240     17.9531     19.2031      0.6315    121.4000
  4446.5000      0.5671      0.5420      0.6147     18.2813     16.0781      0.6274    120.6000
  4447.0000      0.5577      0.5410      0.6069     18.7188     16.7969      0.6167    119.7000
  4447.5000      0.5466      0.5474      0.6079     18.7031     18.8906      0.6032    121.8000
  4448.0000      0.5421      0.5605      0.6191     18.2969     21.5625      0.5967    124.7000
  4448.5000      0.5540      0.5723      0.6543     17.3750     21.0156      0.6093    125.5000
  4449.0000      0.5855      0.5845      0.6934     16.9531     23.8750      0.6462    127.0000
  4449.5000      0.6270      0.6011      0.7065     16.7656     24.9375      0.6980    124.1000
  4450.0000      0.6575      0.6123      0.7119     16.5938     28.4531      0.7392    119.2000
  4450.5000      0.6607      0.6221      0.7095     16.1875     26.5156      0.7469    118.9000
  4451.0000      0.6407      0.6357      0.6978     16.1875     26.1406      0.7237    118.0000
  4451.5000      0.6142      0.6416      0.6890     16.3906     24.4219      0.6908    118.2000
  4452.0000      0.5938      0.6396      0.6836     17.0469     23.9688      0.6652    119.9000
  4452.5000      0.5837      0.6304      0.6792     17.6563     22.1406      0.6527    120.7000
  4453.0000      0.5819      0.6084      0.6699     17.6875     21.7031      0.6513    122.1000
  4453.5000      0.5826      0.5864      0.6616     18.2969     21.6875      0.6541    121.5000
  4454.0000      0.5805      0.5659      0.6519     18.6094     21.8281      0.6540    122.3000
  4454.5000      0.5738      0.5488      0.6416     18.6250     21.5313      0.6481    121.4000
  4455.0000      0.5639      0.5405      0.6338     19.2344     20.7031      0.6376    121.7000
  4455.5000      0.5541      0.5391      0.6304     19.2813     19.8594      0.6263    122.2000
  4456.0000      0.5486      0.5430      0.6323     19.5781     19.5156      0.6197    121.6000
  4456.5000      0.5503      0.5479      0.6401     19.3750     18.8281      0.6217    121.6000
  4457.0000      0.5587      0.5562      0.6479     19.1406     20.9375      0.6322    121.4000
  4457.5000      0.5707      0.5635      0.6572     19.4844     19.9531      0.6474    121.7000
  4458.0000      0.5824      0.5693      0.6650     19.9688     19.5000      0.6623    121.3000
  4458.5000      0.5903      0.5742      0.6689     19.4688     19.9219      0.6722    121.0000
  4459.0000      0.5922      0.5757      0.6675     18.5156     22.3125      0.6740    120.6000
  4459.5000      0.5883      0.5752      0.6611     17.9531     23.8281      0.6679    120.7000
  4460.0000      0.5800      0.5737      0.6514     18.1719     21.5625      0.6559    120.1000
  4460.5000      0.5688      0.5718      0.6372     18.3281     19.9063      0.6403    120.7000
  4461.0000      0.5572      0.5708      0.6265     18.9375     19.2500      0.6240    121.4000
  4461.5000      0.5490      0.5708      0.6235     19.4375     20.6563      0.6118    121.9000
  4462.0000      0.5478      0.5684      0.6265     19.9063     22.8906      0.6082    122.1000
  4462.5000      0.5542      0.5669      0.6318     20.5625     21.4219      0.6143    121.6000
  4463.0000      0.5647      0.5640      0.6357     20.6719     21.0000      0.6260    121.2000
  4463.5000      0.5738      0.5620      0.6367     21.3125     19.8281      0.6364    120.9000
  4464.0000      0.5776      0.5605      0.6357     21.2188     22.6875      0.6406    121.0000
  4464.5000      0.5762      0.5586      0.6333     21.1875     21.6094      0.6381    121.8000
  4465.0000      0.5713      0.5581      0.6265     21.3281     19.5469      0.6311    122.3000
  4465.5000      0.5639      0.5552      0.6167     21.5469     18.3438      0.6211    122.7000
  4466.0000      0.5545      0.5537      0.6060     21.6719     20.2813      0.6087    122.9000
  4466.5000      0.5454      0.5537      0.5986     21.9219     22.2500      0.5964    123.3000
