~Version Information
 VERS.                2.00:   CWLS log ASCII Standard -VERSION 2.00
 WRAP.                  NO:   One line per frame
~Well Information Block
#MNEM.UNIT              Data                Description
#--------- -------------------------------  -------------------------------
 STRT.F                          393.0000:   Starting Depth
 STOP.F                         7106.5000:   Ending Depth
 STEP.F                            0.5000:   Level Spacing
 NULL.                          -999.2500:   Absent Value
 COMP.     486                           :   Company
 WELL.     9/13b-53                      :   Well
 FLD .                                   :   Field
 LOC .                                   :   Location
 PROV.                                   :   Province
 SRVC.                                   :   Service Company
 LIC .                                   :   License Number
 DATE.                                   :   Log Date
 UWI .                                   :   Unique Well ID
~Curve Information Block
#MNEM.UNIT       API Codes    Curve Description
#---------    -------------   -------------------------------
 DEPT.F        0   0  0  0:   Primary Index
 IDER.         0   0  0  0:   Deep Induction Enhanced Resolution Phasor Resistivity
 ILD .OHMM     0   0  0  0:   Deep Induction Standard Processed Resistivity
 ILM .OHMM     0   0  0  0:   Medium Induction Standard Processed Resistivity
 CALI.IN       0   0  0  0:   Caliper
 GR  .GAPI     0   0  0  0:   Gamma Ray
 IMER.         0   0  0  0:   Medium Induction Enhanced Resolution Phasor Resistivity
 DTLN.         0   0  0  0:   Delta-T Long Spacing Near
~Parameter Information Block
#MNEM.UNIT              Value             Description
#---------    -------------------------   -------------------------------
 TOOL.        DITE/SDT/SGT (COMPOSITED):   Epl Of All Possible Sensors
#  Curve Data
~A   DEPT        IDER        ILD         ILM         CALI        GR          IMER        DTLN
# ...
  6063.0000      1.0028      1.0127      0.9702     12.3594     48.1563      0.9720    126.7000
  6063.5000      0.9909      1.0146      0.9785     12.9766     54.5000      0.9576    126.6000
  6064.0000      0.9949      1.0205      0.9893     13.0156     53.5313      0.9587    128.0000
  6064.5000      1.0110      1.0303      0.9995     12.8047     54.2188      0.9723    125.2000
  6065.0000      1.0260      1.0439      0.9956     12.2266     46.4688      0.9861    125.4000
  6065.5000      1.0349      1.0527      0.9990     12.9375     47.4375      0.9946    125.6000
  6066.0000      1.0443      1.0547      1.0273     13.6250     46.7500      1.0030    123.9000
  6066.5000      1.0580      1.0557      1.0313     13.2500     49.8125      1.0155    125.0000
  6067.0000      1.0647      1.0488      1.0195     13.0781     49.5625      1.0227    124.7000
  6067.5000      1.0528      1.0352      1.0127     13.3203     50.5313      1.0126    128.1000
  6068.0000      1.0358      1.0205      1.0176     12.6641     52.6563      0.9962    128.8000
  6068.5000      1.0355      0.9995      1.0234     12.4063     51.5313      0.9949    126.7000
  6069.0000      1.0415      0.9819      0.9976     12.4375     46.8750      1.0020    121.9000
  6069.5000      1.0188      0.9707      0.9395     12.1172     42.6250      0.9844    123.5000
  6070.0000      0.9620      0.9727      0.9043     12.8594     40.6563      0.9332    125.5000
  6070.5000      0.9107      0.9805      0.9185     13.0000     41.2813      0.8832    126.4000
  6071.0000      0.9017      0.9976      0.9536     13.4453     44.1250      0.8712    128.7000
  6071.5000      0.9459      1.0293      0.9990     13.5156     42.5625      0.9101    132.9000
  6072.0000      1.0294      1.0605      1.0410     13.1172     45.0938      0.9887    125.7000
  6072.5000      1.1154      1.0840      1.0703     12.9297     43.9063      1.0732    126.7000
  6073.0000      1.1665      1.0947      1.0879     12.8203     48.4375      1.1273    126.0000
  6073.5000      1.1769      1.0967      1.1104     12.1797     50.1563      1.1428    123.5000
  6074.0000      1.1633      1.0957      1.1133     12.4844     50.5938      1.1346    124.5000
  6074.5000      1.1324      1.0938      1.0898     12.1172     46.0625      1.1095    123.7000
  6075.0000      1.0819      1.0811      1.0498     12.7344     45.5000      1.0645    125.3000
  6075.5000      1.0242      1.0566      1.0215     13.4453     44.6563      1.0095    122.6000
  6076.0000      0.9852      1.0176      1.0156     13.4375     49.9688      0.9699    125.8000
  6076.5000      0.9771      0.9775      1.0059     13.1094     48.3125      0.9603    124.0000
  6077.0000      0.9840      0.9458      0.9800     12.5859     48.4375      0.9673    122.6000
  6077.5000      0.9756      0.9268      0.9380     12.0625     43.6563      0.9612    122.2000
  6078.0000      0.9432      0.9116      0.9126     12.0781     43.8125      0.9308    118.3000
  6078.5000      0.9081      0.9077      0.9072     12.1250     42.8125      0.8955    120.4000
  6079.0000      0.8915      0.9185      0.9121     12.2344     43.0000      0.8771    122.2000
  6079.5000      0.8991      0.9429      0.9238     12.5703     39.7500      0.8824    124.1000
  6080.0000      0.9275      0.9814      0.9541     13.5313     38.3750      0.9085    126.9000
  6080.5000      0.9736      1.0215      0.9995     13.5391     40.6875      0.9523    127.1000
  6081.0000      1.0367      1.0596      1.0527     13.1094     44.5000      1.0132    127.1000
  6081.5000      1.1111      1.1016      1.1035     13.4453     49.1250      1.0869    125.9000
  6082.0000      1.1752      1.1143      1.1289     12.8203     48.1563      1.1537    128.5000
  6082.5000      1.1937      1.1055      1.1211     12.3828     48.8125      1.1785    130.0000
  6083.0000      1.1527      1.0908      1.0908     12.1094     48.8125      1.1444    128.8000
  6083.5000      1.0822      1.0654      1.0557     12.0938     50.3438      1.0777    129.0000
  6084.0000      1.0184      1.0156      1.0205     12.1094     53.0938      1.0154    127.1000
  6084.5000      0.9668      0.9766      0.9785     12.1250     52.6875      0.9654    127.5000
  6085.0000      0.9156      0.9624      0.9102     12.3203     53.6563      0.9162    127.8000
  6085.5000      0.8680      0.9346      0.8887     12.3203     50.5313      0.8691    126.0000
  6086.0000      0.8431      0.8931      0.8936     12.2500     46.1875      0.8431    129.1000
  6086.5000      0.8475      0.8530      0.8853     12.1953     44.6250      0.8472    125.6000
  6087.0000      0.8603      0.8105      0.8599     12.2500     44.7813      0.8627    123.1000
  6087.5000      0.8488      0.7891      0.8130     12.2500     46.8438      0.8558    124.4000
  6088.0000      0.8090      0.7896      0.7896     12.3594     46.0000      0.8188    118.8000
  6088.5000      0.7661      0.7871      0.7813     12.6641     43.1875      0.7760    118.5000
  6089.0000      0.7395      0.7642      0.7720     12.5781     42.3750      0.7488    119.2000
  6089.5000      0.7335      0.7417      0.7627     12.1094     42.4375      0.7430    118.5000
  6090.0000      0.7378      0.7124      0.7500     12.1641     44.8438      0.7496    117.1000
  6090.5000      0.7290      0.6729      0.7085     12.7734     44.4063      0.7446    118.0000
  6091.0000      0.6903      0.6494      0.6582     12.8047     40.5625      0.7083    118.5000
  6091.5000      0.6391      0.6392      0.6367     12.4453     35.5313      0.6557    123.0000
  6092.0000      0.6069      0.6377      0.6514     12.2969     33.9688      0.6205    123.2000
  6092.5000      0.6067      0.6382      0.6680     12.0859     36.2188      0.6182    122.7000
  6093.0000      0.6299      0.6313      0.6714     12.0859     38.0313      0.6417    119.7000
  6093.5000      0.6583      0.6211      0.6748     12.2266     39.7188      0.6722    116.4000
  6094.0000      0.6766      0.6069      0.6738     12.2891     40.9688      0.6932    115.7000
  6094.5000      0.6735      0.5874      0.6479     12.2344     41.5938      0.6923    115.2000
  6095.0000      0.6396      0.5674      0.5986     12.0859     39.1875      0.6591    119.2000
  6095.5000      0.5829      0.5508      0.5542     12.1172     37.6563      0.6004    121.3000
  6096.0000      0.5284      0.5332      0.5283     12.2031     36.9063      0.5420    124.5000
  6096.5000      0.4919      0.5059      0.5068     12.1563     36.4063      0.5021    125.8000
  6097.0000      0.4746      0.4800      0.4922     12.1328     32.8750      0.4826    126.7000
  6097.5000      0.4716      0.4688      0.4883     12.1250     32.0313      0.4783    126.7000
  6098.0000      0.4789      0.4736      0.4956     12.1875     32.2813      0.4848    126.8000
  6098.5000      0.4959      0.4941      0.5156     12.1953     34.2813      0.5016    125.9000
  6099.0000      0.5244      0.5146      0.5449     12.0938     35.5313      0.5303    125.4000
  6099.5000      0.5625      0.5264      0.5747     12.2578     38.7813      0.5697    125.5000
  6100.0000      0.5970      0.5396      0.5913     12.4531     44.9063      0.6073    126.6000
  6100.5000      0.6083      0.5518      0.5791     12.3672     46.0313      0.6224    127.6000
  6101.0000      0.5931      0.5586      0.5747     12.4375     43.0938      0.6089    126.4000
  6101.5000      0.5676      0.5557      0.5708     12.7500     36.6875      0.5827    124.8000
  6102.0000      0.5443      0.5352      0.5488     12.8359     34.8438      0.5580    124.1000
  6102.5000      0.5241      0.5020      0.5239     12.7500     33.5938      0.5370    123.6000
  6103.0000      0.5043      0.4868      0.5098     13.3984     35.0938      0.5164    123.3000
  6103.5000      0.4873      0.4893      0.4980     13.9766     35.3750      0.4979    125.8000
  6104.0000      0.4803      0.5010      0.5073     14.3594     36.3438      0.4893    127.0000
  6104.5000      0.4916      0.5200      0.5356     13.4844     35.0938      0.4990    126.8000
