~Version Information
 VERS.                2.00:   CWLS log ASCII Standard -VERSION 2.00
 WRAP.                  NO:   One line per frame
~Well Information Block
#MNEM.UNIT              Data                Description
#--------- -------------------------------  -------------------------------
 STRT.F                          393.0000:   Starting Depth
 STOP.F                         7106.5000:   Ending Depth
 STEP.F                            0.5000:   Level Spacing
 NULL.                          -999.2500:   Absent Value
 COMP.     486                           :   Company
 WELL.     9/13b-53                      :   Well
 FLD .                                   :   Field
 LOC .                                   :   Location
 PROV.                                   :   Province
 SRVC.                                   :   Service Company
 LIC .                                   :   License Number
 DATE.                                   :   Log Date
 UWI .                                   :   Unique Well ID
~Curve Information Block
#MNEM.UNIT       API Codes    Curve Description
#---------    -------------   -------------------------------
 DEPT.F        0   0  0  0:   Primary Index
 IDER.         0   0  0  0:   Deep Induction Enhanced Resolution Phasor Resistivity
 ILD .OHMM     0   0  0  0:   Deep Induction Standard Processed Resistivity
 ILM .OHMM     0   0  0  0:   Medium Induction Standard Processed Resistivity
 CALI.IN       0   0  0  0:   Caliper
 GR  .GAPI     0   0  0  0:   Gamma Ray
 IMER.         0   0  0  0:   Medium Induction Enhanced Resolution Phasor Resistivity
 DTLN.         0   0  0  0:   Delta-T Long Spacing Near
~Parameter Information Block
#MNEM.UNIT              Value             Description
#---------    -------------------------   -------------------------------
 TOOL.        DITE/SDT/SGT (COMPOSITED):   Epl Of All Possible Sensors
#  Curve Data
~A   DEPT        IDER        ILD         ILM         CALI        GR          IMER        DTLN
# ...
  5391.0000      0.6817      0.7236      0.7046     22.0000     14.6016      0.7151    103.0000
  5391.5000      0.6541      0.7163      0.6831     21.7188     14.3125      0.6822    112.3000
  5392.0000      0.6370      0.7031      0.6743     19.9688     14.6484      0.6610    106.1000
  5392.5000      0.6314      0.6714      0.6704     19.5938     13.6875      0.6535    105.6000
  5393.0000      0.6260      0.6274      0.6343     19.7500     13.4063      0.6481    109.0000
  5393.5000      0.6097      0.6021      0.6060     20.4375     14.3125      0.6322    101.1000
  5394.0000      0.5842      0.5894      0.5879     21.0469     15.1406      0.6062     99.3000
  5394.5000      0.5584      0.5977      0.5732     21.1406     15.1406      0.5793    107.5000
  5395.0000      0.5406      0.6099      0.5796     21.5313     15.4453      0.5602    112.7000
  5395.5000      0.5417      0.6162      0.6040     21.3750     16.5625      0.5604    120.4000
  5396.0000      0.5773      0.6055      0.6758     20.1094     17.2656      0.5973    114.5000
  5396.5000      0.6516      0.5938      0.7217     19.5156     15.6094      0.6793    109.0000
  5397.0000      0.7193      0.5835      0.6777     18.8594     14.4844      0.7634    103.9000
  5397.5000      0.6997      0.5781      0.6167     19.0625     13.5000      0.7541     97.1000
  5398.0000      0.6147      0.5903      0.6030     19.6875     15.0156      0.6610     97.1000
  5398.5000      0.5528      0.6260      0.6260     20.1875     16.2813      0.5875    107.5000
  5399.0000      0.5464      0.6396      0.6675     20.6563     16.7031      0.5761    108.4000
  5399.5000      0.5836      0.6318      0.6812     19.5625     16.3906      0.6158    106.7000
  5400.0000      0.6276      0.6201      0.6655     20.2188     15.5469      0.6672    110.5000
  5400.5000      0.6449      0.6055      0.6484     18.9063     16.2500      0.6900    107.9000
  5401.0000      0.6403      0.5933      0.6704     18.6563     15.5781      0.6855    105.4000
  5401.5000      0.6329      0.5962      0.6748     19.3594     17.1094      0.6760    103.4000
  5402.0000      0.6231      0.6035      0.6436     19.5469     16.5625      0.6640    104.2000
  5402.5000      0.6051      0.6035      0.6284     18.6875     16.7656      0.6430    102.9000
  5403.0000      0.5842      0.6016      0.6323     18.8906     16.2031      0.6178    104.0000
  5403.5000      0.5720      0.6084      0.6221     20.0469     14.6641      0.6014    106.6000
  5404.0000      0.5743      0.6050      0.6201     20.2188     14.9766      0.6013    107.4000
  5404.5000      0.5883      0.5981      0.6328     19.1875     15.8125      0.6146    105.1000
  5405.0000      0.6048      0.5947      0.6333     17.5313     17.7813      0.6315    107.5000
  5405.5000      0.6124      0.5908      0.6196     16.9531     18.2344      0.6397    103.1000
  5406.0000      0.6047      0.5791      0.6113     16.8438     19.0781      0.6313    104.2000
  5406.5000      0.5877      0.5752      0.6040     16.7969     18.7969      0.6117    106.9000
  5407.0000      0.5730      0.5776      0.5962     16.8125     17.5469      0.5939    105.2000
  5407.5000      0.5652      0.5786      0.5879     17.0625     16.6875      0.5837    106.1000
  5408.0000      0.5621      0.5786      0.5889     17.2813     15.0313      0.5787    104.9000
  5408.5000      0.5639      0.5786      0.5918     17.3125     16.2969      0.5785    105.0000
  5409.0000      0.5733      0.5776      0.5986     17.0938     15.3203      0.5862    108.7000
  5409.5000      0.5882      0.5747      0.6055     16.7500     18.5313      0.6000    104.6000
  5410.0000      0.5995      0.5732      0.6011     16.6406     19.2344      0.6105    104.4000
  5410.5000      0.5985      0.5757      0.5874     16.5938     19.0938      0.6084    111.9000
  5411.0000      0.5857      0.5771      0.5796     16.7344     18.2500      0.5937    117.4000
  5411.5000      0.5703      0.5791      0.5757     16.7500     18.8906      0.5755    121.1000
  5412.0000      0.5608      0.5806      0.5698     16.8750     18.1875      0.5630    126.4000
  5412.5000      0.5583      0.5781      0.5635     17.0313     18.1875      0.5583    125.3000
  5413.0000      0.5580      0.5742      0.5581     17.5625     15.1641      0.5562    124.8000
  5413.5000      0.5571      0.5732      0.5532     18.7031     14.5938      0.5538    130.4000
  5414.0000      0.5579      0.5723      0.5562     19.5781     11.9297      0.5533    131.8000
  5414.5000      0.5619      0.5718      0.5601     17.5313     11.6484      0.5563    133.2000
  5415.0000      0.5657      0.5728      0.5586     18.0156     12.2109      0.5598    129.6000
  5415.5000      0.5666      0.5752      0.5596     17.6250     12.5156      0.5611    124.7000
  5416.0000      0.5674      0.5786      0.5674     17.4844     12.5078      0.5626    120.4000
  5416.5000      0.5725      0.5781      0.5771     17.2813     12.3750      0.5686    116.6000
  5417.0000      0.5798      0.5757      0.5752     17.4531     12.6328      0.5780    112.3000
  5417.5000      0.5800      0.5771      0.5659     17.9844     13.0547      0.5818    109.5000
  5418.0000      0.5689      0.5874      0.5649     16.1250     13.4688      0.5744    116.4000
  5418.5000      0.5577      0.6084      0.5815     15.5391     13.5156      0.5657    111.8000
  5419.0000      0.5634      0.6177      0.6123     15.5938     13.9453      0.5735    123.9000
  5419.5000      0.5934      0.6123      0.6514     15.9688     15.4922      0.6079    105.5000
  5420.0000      0.6359      0.6118      0.6660     14.9219     16.4219      0.6595    107.6000
  5420.5000      0.6609      0.6255      0.6587     15.1563     17.1250      0.6966     96.3000
  5421.0000      0.6529      0.6499      0.6694     16.4688     18.2344      0.6967     94.1000
  5421.5000      0.6381      0.6992      0.7168     18.1563     20.4844      0.6842    102.8000
  5422.0000      0.6549      0.7578      0.8062     18.4063     24.9844      0.7043    111.4000
  5422.5000      0.7236      0.7847      0.9111     14.7031     26.8125      0.7858    117.8000
  5423.0000      0.8319      0.7910      0.9663     13.2188     29.9375      0.9232    118.7000
  5423.5000      0.9156      0.7993      0.9580     12.9453     29.2500      1.0428    109.4000
  5424.0000      0.9084      0.7915      0.9253     12.8594     31.1563      1.0468    100.9000
  5424.5000      0.8382      0.7773      0.8940     12.8281     30.5781      0.9589     97.9000
  5425.0000      0.7649      0.7480      0.8457     12.4844     29.8594      0.8630    104.4000
  5425.5000      0.7030      0.7036      0.7734     12.2031     26.1094      0.7832     98.9000
  5426.0000      0.6420      0.6685      0.6875     12.1484     23.5781      0.7072    104.5000
  5426.5000      0.5839      0.6313      0.6313     12.1563     22.5938      0.6356    106.1000
  5427.0000      0.5427      0.5918      0.6069     12.0391     23.2969      0.5843    109.0000
  5427.5000      0.5267      0.5562      0.5962     12.0078     23.7188      0.5628    106.1000
  5428.0000      0.5312      0.5283      0.5889     11.9766     23.2188      0.5660    104.9000
  5428.5000      0.5430      0.5112      0.5801     11.9531     23.9375      0.5792    103.8000
  5429.0000      0.5499      0.5107      0.5762     11.9375     24.7813      0.5879    104.2000
  5429.5000      0.5495      0.5205      0.5762     11.9453     24.7031      0.5881    105.2000
  5430.0000      0.5465      0.5288      0.5801     11.9766     23.0156      0.5851    105.4000
  5430.5000      0.5464      0.5361      0.5889     11.9922     21.0469      0.5852    105.7000
  5431.0000      0.5518      0.5425      0.6011     11.9688     21.6094      0.5919    104.7000
  5431.5000      0.5630      0.5464      0.6167     11.9063     23.8281      0.6055    103.1000
  5432.0000      0.5763      0.5493      0.6270     11.8047     23.2656      0.6221    102.3000
  5432.5000      0.5852      0.5537      0.6265     12.0078     24.1094      0.6341    102.9000
