~Version Information
 VERS.                2.00:   CWLS log ASCII Standard -VERSION 2.00
 WRAP.                  NO:   One line per frame
~Well Information Block
#MNEM.UNIT              Data                Description
#--------- -------------------------------  -------------------------------
 STRT.F                          393.0000:   Starting Depth
 STOP.F                         7106.5000:   Ending Depth
 STEP.F                            0.5000:   Level Spacing
 NULL.                          -999.2500:   Absent Value
 COMP.     486                           :   Company
 WELL.     9/13b-53                      :   Well
 FLD .                                   :   Field
 LOC .                                   :   Location
 PROV.                                   :   Province
 SRVC.                                   :   Service Company
 LIC .                                   :   License Number
 DATE.                                   :   Log Date
 UWI .                                   :   Unique Well ID
~Curve Information Block
#MNEM.UNIT       API Codes    Curve Description
#---------    -------------   -------------------------------
 DEPT.F        0   0  0  0:   Primary Index
 IDER.         0   0  0  0:   Deep Induction Enhanced Resolution Phasor Resistivity
 ILD .OHMM     0   0  0  0:   Deep Induction Standard Processed Resistivity
 ILM .OHMM     0   0  0  0:   Medium Induction Standard Processed Resistivity
 CALI.IN       0   0  0  0:   Caliper
 GR  .GAPI     0   0  0  0:   Gamma Ray
 IMER.         0   0  0  0:   Medium Induction Enhanced Resolution Phasor Resistivity
 DTLN.         0   0  0  0:   Delta-T Long Spacing Near
~Parameter Information Block
#MNEM.UNIT              Value             Description
#---------    -------------------------   -------------------------------
 TOOL.        DITE/SDT/SGT (COMPOSITED):   Epl Of All Possible Sensors
#  Curve Data
~A   DEPT        IDER        ILD         ILM         CALI        GR          IMER        DTLN
# ...
  5727.0000      1.1120      1.1270      1.0684     12.3750     47.0625      1.0717    117.2000
  5727.5000      1.0856      1.1240      1.0576     12.4766     52.2188      1.0399    119.0000
  5728.0000      1.0711      1.1172      1.0605     12.1875     51.3438      1.0177    117.8000
  5728.5000      1.0809      1.1113      1.0752     12.4766     53.0625      1.0169    118.5000
  5729.0000      1.1187      1.1104      1.0869     12.3750     51.9375      1.0412    118.5000
  5729.5000      1.1696      1.1045      1.0859     12.2891     53.0625      1.0774    117.5000
  5730.0000      1.1971      1.1045      1.0586     12.2500     53.4688      1.0950    119.4000
  5730.5000      1.1710      1.1338      1.0254     12.2500     54.3438      1.0679    125.4000
  5731.0000      1.1184      1.1895      1.0225     12.6250     56.1875      1.0167    130.2000
  5731.5000      1.0997      1.2383      1.0762     13.6172     53.2500      0.9914    120.5000
  5732.0000      1.1430      1.2227      1.1221     12.2969     55.3438      1.0163    125.8000
  5732.5000      1.2218      1.1426      1.1084     12.2969     49.4688      1.0710    127.7000
  5733.0000      1.2743      1.0508      1.0391     12.3828     50.1250      1.1101    129.0000
  5733.5000      1.2326      0.9644      0.9438     12.4844     45.3438      1.0837    134.0000
  5734.0000      1.0628      0.8896      0.8047     13.1406     42.3750      0.9584    145.9000
  5734.5000      0.8405      0.8647      0.6841     13.3516     39.6875      0.7775    156.4000
  5735.0000      0.6832      0.8916      0.6504     13.8672     33.3750      0.6385    166.6000
  5735.5000      0.6354      0.9014      0.7451     15.4688     33.9063      0.5897    174.9000
  5736.0000      0.7083      0.8804      0.8716     17.2813     34.3750      0.6446    164.5000
  5736.5000      0.9233      0.8486      0.9326     13.1797     40.4375      0.8184    158.5000
  5737.0000      1.2326      0.8369      0.9365     12.8672     42.1250      1.0726    134.5000
  5737.5000      1.3742      0.8901      0.9404     13.2344     44.5938      1.2059    131.5000
  5738.0000      1.2641      1.0059      0.9658     13.2344     43.3125      1.1331    133.3000
  5738.5000      1.1205      1.1299      0.9951     13.2500     44.0000      1.0193    133.0000
  5739.0000      1.0383      1.1553      1.0078     13.0781     42.2500      0.9492    125.7000
  5739.5000      1.0089      1.0977      0.9917     12.6172     46.8750      0.9227    129.5000
  5740.0000      1.0065      0.9590      0.9414     12.8594     45.3438      0.9223    133.9000
  5740.5000      0.9827      0.8394      0.8501     12.9688     46.0000      0.9090    140.1000
  5741.0000      0.8894      0.7646      0.7329     13.3281     39.9688      0.8360    147.1000
  5741.5000      0.7537      0.7349      0.6509     13.5078     39.9375      0.7185    162.0000
  5742.0000      0.6516      0.7412      0.6416     12.6563     37.0625      0.6233    165.1000
  5742.5000      0.6216      0.7388      0.6992     12.0938     37.3438      0.5912    162.7000
  5743.0000      0.6708      0.7324      0.7637     12.2578     39.7500      0.6315    156.5000
  5743.5000      0.7874      0.7266      0.7949     12.1328     44.4063      0.7357    147.1000
  5744.0000      0.9180      0.7485      0.8130     12.3750     42.7813      0.8581    137.9000
  5744.5000      0.9935      0.8193      0.8511     12.5547     43.0313      0.9345    130.8000
  5745.0000      1.0216      0.8906      0.9180     12.5703     40.8750      0.9665    128.2000
  5745.5000      1.0331      0.9351      0.9399     12.8438     49.6563      0.9834    128.3000
  5746.0000      1.0077      0.9443      0.9043     12.5703     51.1563      0.9683    132.4000
  5746.5000      0.9372      0.9644      0.8813     12.1484     52.4375      0.9083    139.7000
  5747.0000      0.8756      0.9692      0.9009     12.4844     48.7813      0.8503    139.6000
  5747.5000      0.8765      0.9575      0.9775     12.6797     45.2188      0.8476    136.8000
  5748.0000      0.9508      0.9468      1.0176     12.0938     46.6250      0.9152    128.1000
  5748.5000      1.0567      0.9326      1.0098     12.0547     46.3125      1.0176    120.8000
  5749.0000      1.1122      0.9468      1.0059     12.0859     53.1875      1.0771    119.6000
  5749.5000      1.0930      0.9990      1.0205     12.1641     54.3750      1.0627    119.6000
  5750.0000      1.0584      1.0674      1.0537     12.0625     55.3750      1.0286    119.8000
  5750.5000      1.0529      1.1191      1.0732     12.0547     53.6875      1.0203    119.1000
  5751.0000      1.0752      1.1230      1.0811     12.0625     51.2500      1.0387    118.2000
  5751.5000      1.1052      1.1143      1.0879     12.0859     52.6250      1.0655    119.0000
  5752.0000      1.1246      1.0859      1.0859     12.0859     53.8750      1.0827    120.2000
  5752.5000      1.1252      1.0742      1.0713     12.0938     57.8438      1.0821    123.6000
  5753.0000      1.1147      1.0742      1.0664     12.0078     57.8438      1.0702    125.3000
  5753.5000      1.1063      1.0752      1.0771     12.1563     53.0625      1.0593    124.7000
  5754.0000      1.1063      1.0898      1.0820     12.1953     51.2813      1.0559    125.2000
  5754.5000      1.1132      1.1064      1.0859     12.2266     47.7813      1.0589    121.6000
  5755.0000      1.1266      1.1230      1.0977     12.3438     47.9063      1.0675    120.2000
  5755.5000      1.1504      1.1436      1.1191     12.2969     47.8438      1.0847    120.1000
  5756.0000      1.1849      1.1689      1.1318     12.3594     51.1250      1.1113    120.1000
  5756.5000      1.2233      1.1904      1.1494     12.2734     53.7813      1.1416    120.1000
  5757.0000      1.2553      1.2285      1.1650     12.1328     51.2813      1.1662    117.8000
  5757.5000      1.2721      1.2813      1.1729     12.0938     49.6875      1.1772    117.0000
  5758.0000      1.2753      1.3467      1.1807     12.1328     51.5313      1.1758    115.1000
  5758.5000      1.2852      1.4258      1.2207     12.1641     57.5313      1.1789    114.6000
  5759.0000      1.3289      1.4893      1.2920     12.2266     62.0625      1.2087    113.9000
  5759.5000      1.4119      1.5518      1.3564     12.3750     60.6250      1.2708    114.1000
  5760.0000      1.5198      1.5811      1.3945     12.2578     61.7188      1.3540    115.0000
  5760.5000      1.6243      1.5029      1.4141     12.2969     58.5313      1.4357    116.7000
  5761.0000      1.6485      1.3809      1.3389     12.2578     57.8125      1.4597    117.9000
  5761.5000      1.4908      1.2100      1.1553     12.2969     49.4375      1.3442    116.6000
  5762.0000      1.2101      1.0479      0.9585     12.3750     43.6563      1.1187    114.4000
  5762.5000      0.9621      0.9346      0.8481     12.1484     34.9375      0.9059    115.2000
  5763.0000      0.7975      0.8115      0.7485     12.0469     28.2031      0.7586    115.4000
  5763.5000      0.6902      0.6938      0.6489     12.1094     22.8750      0.6615    117.7000
  5764.0000      0.6147      0.6118      0.5820     12.1250     20.7656      0.5927    116.3000
  5764.5000      0.5637      0.5508      0.5522     12.0859     20.0781      0.5452    116.3000
  5765.0000      0.5383      0.5156      0.5352     12.0859     21.3438      0.5209    116.5000
  5765.5000      0.5350      0.4990      0.5283     12.0781     22.2969      0.5177    117.4000
  5766.0000      0.5444      0.4951      0.5269     11.9922     23.7031      0.5272    118.1000
  5766.5000      0.5558      0.4976      0.5278     11.9688     24.5469      0.5394    118.2000
  5767.0000      0.5632      0.5039      0.5298     12.0859     25.9531      0.5482    118.5000
  5767.5000      0.5650      0.5098      0.5327     12.1797     24.5625      0.5518    116.8000
  5768.0000      0.5625      0.5156      0.5352     12.3047     25.2188      0.5512    114.6000
  5768.5000      0.5584      0.5210      0.5366     12.4297     25.9219      0.5487    113.9000
