~Version Information
 VERS.                2.00:   CWLS log ASCII Standard -VERSION 2.00
 WRAP.                  NO:   One line per frame
~Well Information Block
#MNEM.UNIT              Data                Description
#--------- -------------------------------  -------------------------------
 STRT.F                          393.0000:   Starting Depth
 STOP.F                         7106.5000:   Ending Depth
 STEP.F                            0.5000:   Level Spacing
 NULL.                          -999.2500:   Absent Value
 COMP.     486                           :   Company
 WELL.     9/13b-53                      :   Well
 FLD .                                   :   Field
 LOC .                                   :   Location
 PROV.                                   :   Province
 SRVC.                                   :   Service Company
 LIC .                                   :   License Number
 DATE.                                   :   Log Date
 UWI .                                   :   Unique Well ID
~Curve Information Block
#MNEM.UNIT       API Codes    Curve Description
#---------    -------------   -------------------------------
 DEPT.F        0   0  0  0:   Primary Index
 IDER.         0   0  0  0:   Deep Induction Enhanced Resolution Phasor Resistivity
 ILD .OHMM     0   0  0  0:   Deep Induction Standard Processed Resistivity
 ILM .OHMM     0   0  0  0:   Medium Induction Standard Processed Resistivity
 CALI.IN       0   0  0  0:   Caliper
 GR  .GAPI     0   0  0  0:   Gamma Ray
 IMER.         0   0  0  0:   Medium Induction Enhanced Resolution Phasor Resistivity
 DTLN.         0   0  0  0:   Delta-T Long Spacing Near
~Parameter Information Block
#MNEM.UNIT              Value             Description
#---------    -------------------------   -------------------------------
 TOOL.        DITE/SDT/SGT (COMPOSITED):   Epl Of All Possible Sensors
#  Curve Data
~A   DEPT        IDER        ILD         ILM         CALI        GR          IMER        DTLN
# ...
  2745.0000      1.5608      1.5244      1.4199     12.9453     45.3438      1.4131    144.7000
  2745.5000      1.5549      1.5234      1.4189     13.0469     45.4688      1.4046    145.4000
  2746.0000      1.5566      1.5225      1.4131     13.2109     45.6250      1.4025    145.4000
  2746.5000      1.5607      1.5215      1.4072     13.3906     46.6563      1.4024    145.6000
  2747.0000      1.5644      1.5254      1.4053     13.4063     46.8750      1.4020    147.1000
  2747.5000      1.5693      1.5332      1.4082     13.3672     45.2813      1.4023    147.9000
  2748.0000      1.5774      1.5371      1.4092     13.3984     46.7813      1.4050    149.7000
  2748.5000      1.5855      1.5400      1.4102     13.4453     48.2813      1.4079    151.4000
  2749.0000      1.5903      1.5469      1.4111     13.5547     48.0313      1.4082    153.3000
  2749.5000      1.5957      1.5586      1.4170     13.5781     44.9063      1.4086    154.3000
  2750.0000      1.6068      1.5664      1.4229     13.6094     46.5625      1.4135    154.7000
  2750.5000      1.6198      1.5742      1.4238     13.6719     49.5625      1.4206    153.8000
  2751.0000      1.6263      1.5850      1.4170     13.6797     49.2500      1.4234    153.3000
  2751.5000      1.6253      1.5986      1.4199     13.6719     47.1250      1.4206    150.2000
  2752.0000      1.6256      1.6152      1.4326     13.6797     43.6875      1.4186    149.4000
  2752.5000      1.6354      1.6387      1.4443     13.7109     42.8750      1.4241    149.8000
  2753.0000      1.6562      1.6582      1.4561     13.7500     42.7500      1.4389    146.8000
  2753.5000      1.6838      1.6689      1.4766     13.8047     45.9063      1.4595    146.5000
  2754.0000      1.7115      1.6787      1.4893     13.8906     46.2500      1.4813    144.7000
  2754.5000      1.7337      1.6846      1.4941     13.7813     45.8125      1.4999    145.3000
  2755.0000      1.7434      1.6807      1.5000     13.6094     43.9688      1.5102    146.9000
  2755.5000      1.7339      1.6787      1.4902     13.5859     45.5000      1.5064    146.2000
  2756.0000      1.7073      1.6699      1.4736     13.6016     45.9375      1.4894    146.6000
  2756.5000      1.6754      1.6484      1.4688     13.5859     45.6875      1.4673    146.8000
  2757.0000      1.6495      1.6309      1.4629     13.5156     46.5625      1.4489    150.1000
  2757.5000      1.6344      1.6211      1.4570     13.4844     44.4063      1.4385    153.2000
  2758.0000      1.6300      1.6074      1.4551     13.4609     41.5313      1.4363    153.7000
  2758.5000      1.6365      1.5947      1.4648     13.4063     41.6875      1.4422    152.3000
  2759.0000      1.6529      1.5859      1.4727     13.3984     43.6875      1.4558    151.3000
  2759.5000      1.6691      1.5791      1.4658     13.3984     46.8750      1.4704    148.8000
  2760.0000      1.6681      1.5645      1.4492     13.4063     47.4063      1.4724    147.7000
  2760.5000      1.6395      1.5576      1.4258     13.4297     47.4063      1.4528    148.2000
  2761.0000      1.5926      1.5537      1.4014     13.4297     47.1250      1.4177    150.2000
  2761.5000      1.5478      1.5449      1.3867     13.4297     44.4688      1.3831    152.2000
  2762.0000      1.5180      1.5273      1.3789     13.4375     44.4688      1.3596    154.5000
  2762.5000      1.5063      1.5176      1.3730     13.4844     43.5625      1.3504    152.8000
  2763.0000      1.5166      1.5234      1.3857     13.5078     44.7500      1.3596    157.2000
  2763.5000      1.5510      1.5645      1.4150     13.5391     43.0938      1.3893    154.0999
  2764.0000      1.6005      1.6357      1.4678     13.5859     44.1250      1.4320    153.3000
  2764.5000      1.6620      1.8135      1.5527     13.6094     42.5938      1.4836    153.5000
  2765.0000      1.7891      2.0098      1.7422     13.3359     43.0625      1.5824    146.9000
  2765.5000      2.1098      2.1777      2.1230     13.5703     41.0313      1.8235    131.5000
  2766.0000      2.7868      2.2305      2.4141     13.5469     38.5938      2.3165    105.2000
  2766.5000      3.6293      2.2324      2.3203     12.4766     34.8125      2.9303     89.9000
  2767.0000      3.5225      2.2441      2.0527     12.1797     34.3125      2.9365     91.9000
  2767.5000      2.6389      2.2559      1.8857     12.4531     31.9063      2.3193    117.8000
  2768.0000      2.0173      2.2227      1.7930     12.1484     37.0000      1.8176    142.3000
  2768.5000      1.7388      2.0605      1.7246     12.1172     37.0313      1.5750    152.1000
  2769.0000      1.6439      1.8359      1.6152     12.0859     42.0313      1.4870    150.5000
  2769.5000      1.6156      1.6748      1.5264     12.0859     40.2188      1.4592    148.8000
  2770.0000      1.5986      1.5879      1.4766     12.0859     44.4063      1.4431    148.3000
  2770.5000      1.5850      1.5449      1.4434     12.0859     41.0000      1.4296    147.6000
  2771.0000      1.5819      1.5381      1.4355     12.0859     41.9375      1.4241    146.4000
  2771.5000      1.5906      1.5488      1.4395     12.0547     39.6563      1.4280    148.2000
  2772.0000      1.6084      1.5674      1.4521     12.0234     42.3438      1.4390    147.8000
  2772.5000      1.6325      1.5693      1.4658     12.0234     41.4063      1.4549    147.7000
  2773.0000      1.6553      1.5674      1.4648     12.0234     42.7500      1.4700    147.0000
  2773.5000      1.6650      1.5654      1.4463     12.0938     41.5938      1.4754    145.7000
  2774.0000      1.6538      1.5664      1.4229     12.1484     41.3438      1.4646    147.3000
  2774.5000      1.6218      1.5664      1.4082     12.1641     42.5000      1.4373    148.0000
  2775.0000      1.5784      1.5791      1.3945     12.1797     45.6563      1.3998    151.6000
  2775.5000      1.5433      1.5967      1.3936     12.1797     47.7813      1.3673    155.2000
  2776.0000      1.5438      1.6084      1.4209     12.2344     45.6563      1.3619    143.4000
  2776.5000      1.5939      1.6025      1.4609     12.3281     43.6563      1.3957    132.8000
  2777.0000      1.6693      1.6016      1.4561     12.3672     42.7500      1.4518    131.9000
  2777.5000      1.7110      1.5967      1.4326     12.3828     43.3438      1.4859    131.4000
  2778.0000      1.6855      1.5996      1.4131     12.4453     42.7188      1.4695    147.9000
  2778.5000      1.6284      1.6104      1.4180     12.4453     43.7500      1.4258    159.3000
  2779.0000      1.5918      1.6182      1.4268     12.4141     40.1563      1.3960    160.3000
  2779.5000      1.5911      1.6113      1.4336     12.2891     39.7188      1.3949    160.1000
  2780.0000      1.6104      1.6035      1.4326     12.2656     41.9688      1.4112    158.4000
  2780.5000      1.6280      1.5967      1.4316     12.2344     43.6563      1.4278    157.4000
  2781.0000      1.6334      1.5928      1.4268     12.2188     43.3125      1.4362    158.1000
  2781.5000      1.6274      1.5850      1.4297     12.1953     39.2813      1.4357    157.5000
  2782.0000      1.6166      1.5898      1.4307     12.1797     43.1875      1.4309    157.4000
  2782.5000      1.6088      1.5898      1.4395     12.1563     44.5938      1.4283    157.8000
  2783.0000      1.6099      1.5889      1.4521     12.1484     47.0000      1.4326    158.0000
  2783.5000      1.6195      1.5830      1.4619     12.1484     45.0000      1.4438    157.1000
  2784.0000      1.6321      1.5781      1.4619     12.1484     43.0625      1.4580    155.8000
  2784.5000      1.6401      1.5693      1.4619     12.1172     40.3125      1.4689    153.0000
  2785.0000      1.6386      1.5713      1.4619     12.1094     37.9375      1.4717    150.9000
  2785.5000      1.6279      1.5771      1.4609     12.1094     40.7813      1.4663    147.6000
  2786.0000      1.6141      1.5889      1.4619     12.1094     37.5938      1.4577    145.7000
  2786.5000      1.6060      1.6016      1.4697     12.1172     35.9375      1.4529    145.5000
