~Version Information Section
VERS.          2.0                                     : CWLS LOG ASCII Standard
WRAP.          NO                                      : One line per depth step
CREA.          05/26/17                                : LAS Creation Date
~Well Information Section
STRT.ft        10050.5000                              : Start Depth
STOP.ft        12688.0000                              : Stop Depth
STEP.ft        0.5000                                  : Step
NULL.          -999.2500                               : Null Value
COMP.          CONOCO U.K. LTD                         : Company
WELL.          9/19-10Z                                : Well
FLD .          SORBY                                   : Field
LOC .          NORTH SEA                               : Location
LOC1.          -                                       : Location (UTM)
CTRY.          UK                                      : Country
PROV.          UKCS                                    : Province
UWI .          18190                                   : UWI Number
API .          -                                       : API Number
SECT.          -                                       : Section
TOWN.          -                                       : Township
RNGE.          -                                       : Range
PDAT.          M.S.L.                                  : Perm Datum
EPD .ft        0.00                                    : Elevation
LMF .          RT                                      : Log Measured From
DMF .          RT                                      : Drill Measured From
APD .ft        75.00                                   : Above Perm Datum
EKB .          -                                       : Elev-Kelly Bushing
EDF .ft        75.00                                   : Elev-Drill Floor
EGL .ft        -385.00                                 : Elev-Ground Level (Water Depth)
TDD .ft        12700.00                                : Total Depth (Driller)
SRVC.          ATLAS WIRELINE                          : Service Company
LATI.          59 25 54.97 N                           : Latitude
LONG.          01 40 32.75 E                           : Longitude
DATE.          JUN-AUG-1993                            : Logging Date
PROJ.          UKCS                                    : Project
SET .          COMP WIRE                               : Set
~Curve Information Section
DEPTH.ft                                               : Depth Curve
CALX.in                                                : Caliper
CNC.pu                                                 : Compensated Neutron Porosity
DT24.us/ft                                             : Delta-T
GR.gAPI                                                : Gamma Ray
PE.B/e                                                 : Photo-electric
RIPD.Ohm*m                                             : Deep Induction Resistivity
RIPM.Ohm*m                                             : Medium Induction Resistivity
ZCOR.g/cc                                              : ZDL Density Correction
ZDEN.g/cc                                              : ZDL Bulk Density
~ASCII Log Data Section
# ...
11296.0000         8.8857        28.2289        88.6872        81.3083         3.6340         1.7250         1.7397         0.0362         2.5484     
11296.5000         8.8827        28.5551        88.4505        80.5254         3.6575         1.7155         1.7642         0.0386         2.5509     
11297.0000         8.8809        29.2899        88.2820        80.6427         3.6592         1.7143         1.7756         0.0398         2.5507     
11297.5000         8.8815        29.3279        88.4803        81.4199         3.6735         1.7187         1.7784         0.0383         2.5486     
11298.0000         8.8825        29.7466        88.7819        82.4568         3.6822         1.7077         1.7540         0.0319         2.5462     
11298.5000         8.8837        31.2253        88.9124        83.8593         3.5638         1.7277         1.7488         0.0240         2.5463     
11299.0000         8.8855        32.9976        88.9939        84.5589         3.3885         1.7212         1.7441         0.0220         2.5500     
11299.5000         8.8866        34.9404        88.8277        84.0445         3.3432         1.7274         1.7451         0.0277         2.5537     
11300.0000         8.8859        34.0565        88.4585        83.2937         3.3825         1.7284         1.7581         0.0344         2.5544     
11300.5000         8.8828        30.3017        88.1870        82.2598         3.4100         1.7129         1.7783         0.0391         2.5552     
11301.0000         8.8780        27.2460        87.8174        81.2241         3.4296         1.7083         1.7823         0.0420         2.5574     
11301.5000         8.8742        27.1178        87.5551        81.3531         3.4734         1.7202         1.7671         0.0414         2.5562     
11302.0000         8.8730        28.8873        87.6885        82.4480         3.6499         1.6994         1.7401         0.0377         2.5522     
11302.5000         8.8724        30.8006        88.2191        82.9159         3.8155         1.6930         1.7126         0.0339         2.5511     
11303.0000         8.8722        31.1922        89.0799        83.0076         3.8408         1.6714         1.6789         0.0320         2.5510     
11303.5000         8.8736        29.6573        89.8866        83.9797         3.7858         1.6709         1.6680         0.0374         2.5483     
11304.0000         8.8752        26.6520        90.3306        85.4529         3.7301         1.6541         1.6607         0.0440         2.5441     
11304.5000         8.8752        24.4230        90.2606        86.8203         3.7031         1.6329         1.6571         0.0429         2.5402     
11305.0000         8.8749        24.5496        89.8547        86.6761         3.6927         1.6279         1.6536         0.0384         2.5371     
11305.5000         8.8750        26.7716        89.4417        84.8871         3.6970         1.6225         1.6675         0.0380         2.5377     
11306.0000         8.8748        28.3369        89.1419        82.7916         3.6486         1.6216         1.6956         0.0353         2.5414     
11306.5000         8.8743        28.0263        88.9366        81.8712         3.4973         1.6426         1.6991         0.0298         2.5440     
11307.0000         8.8750        27.5842        88.8514        82.1096         3.4270         1.6657         1.7076         0.0269         2.5452     
11307.5000         8.8764        27.6391        88.8050        83.4853         3.3977         1.6774         1.7276         0.0291         2.5492     
11308.0000         8.8770        28.7379        88.8372        83.7106         3.2995         1.7092         1.7506         0.0328         2.5553     
11308.5000         8.8761        31.8044        89.0602        81.2797         3.1582         1.7244         1.7735         0.0334         2.5568     
11309.0000         8.8739        32.7832        89.2549        79.0938         3.1106         1.7290         1.7930         0.0329         2.5533     
11309.5000         8.8721        29.6878        89.3379        78.7719         3.1231         1.7289         1.7971         0.0355         2.5502     
11310.0000         8.8731        27.3767        89.2735        79.3847         3.2380         1.7294         1.7896         0.0365         2.5489     
11310.5000         8.8770        28.5016        88.9851        80.9506         3.4453         1.7251         1.7746         0.0329         2.5476     
11311.0000         8.8801        29.8877        88.7262        82.4234         3.6208         1.7203         1.7637         0.0319         2.5468     
11311.5000         8.8792        28.6709        88.6216        82.7574         3.6356         1.7188         1.7435         0.0342         2.5463     
11312.0000         8.8767        26.5992        88.3971        83.6171         3.6040         1.7002         1.7294         0.0358         2.5460     
11312.5000         8.8771        26.3790        88.3778        85.3314         3.6191         1.6835         1.7244         0.0363         2.5449     
11313.0000         8.8798        28.4842        88.5634        85.4617         3.6385         1.6853         1.7184         0.0334         2.5399     
11313.5000         8.8819        31.4474        88.6656        84.6186         3.6400         1.6827         1.7129         0.0269         2.5316     
11314.0000         8.8828        31.6972        88.8824        84.8602         3.6515         1.6945         1.7363         0.0224         2.5264     
11314.5000         8.8842        30.1686        88.9212        85.5040         3.6930         1.6993         1.7435         0.0243         2.5288     
11315.0000         8.8852        29.2713        88.7983        84.9827         3.8574         1.7194         1.7656         0.0304         2.5351     
11315.5000         8.8835        29.1502        88.7437        84.2072         4.0459         1.7286         1.7561         0.0326         2.5379     
11316.0000         8.8803        28.4004        88.7528        83.9786         4.0372         1.7439         1.7750         0.0289         2.5359     
11316.5000         8.8782        27.8447        88.7623        82.8361         3.9732         1.7498         1.7793         0.0270         2.5349     
11317.0000         8.8788        28.7968        88.6160        80.4920         3.9352         1.7239         1.7568         0.0270         2.5374     
11317.5000         8.8812        31.7639        88.7816        79.5985         3.8999         1.6880         1.7121         0.0223         2.5404     
11318.0000         8.8836        32.3208        89.3987        81.6636         3.8918         1.6780         1.6759         0.0168         2.5410     
11318.5000         8.8848        31.3835        90.0918        84.6034         3.8177         1.6463         1.6374         0.0187         2.5384     
11319.0000         8.8855        32.6536        90.7193        86.6536         3.7296         1.6355         1.6443         0.0265         2.5357     
11319.5000         8.8873        32.9583        90.8729        87.6569         3.7916         1.6304         1.6478         0.0343         2.5354     
11320.0000         8.8908        29.0665        90.5841        86.9793         3.9106         1.6044         1.6477         0.0360         2.5355     
11320.5000         8.8948        26.4494        90.2437        83.9187         3.8834         1.6091         1.6577         0.0317         2.5332     
11321.0000         8.8987        26.2398        89.9424        81.0658         3.8689         1.6082         1.6744         0.0268         2.5300     
11321.5000         8.9008        25.7316        89.4650        80.3463         3.8734         1.6238         1.6847         0.0260         2.5308     
11322.0000         8.8998        25.2341        89.0130        80.5361         3.8913         1.6038         1.6603         0.0285         2.5376     
