~Version Information Section
VERS.          2.0                                     : CWLS LOG ASCII Standard
WRAP.          NO                                      : One line per depth step
CREA.          05/26/17                                : LAS Creation Date
~Well Information Section
STRT.ft        10050.5000                              : Start Depth
STOP.ft        12688.0000                              : Stop Depth
STEP.ft        0.5000                                  : Step
NULL.          -999.2500                               : Null Value
COMP.          CONOCO U.K. LTD                         : Company
WELL.          9/19-10Z                                : Well
FLD .          SORBY                                   : Field
LOC .          NORTH SEA                               : Location
LOC1.          -                                       : Location (UTM)
CTRY.          UK                                      : Country
PROV.          UKCS                                    : Province
UWI .          18190                                   : UWI Number
API .          -                                       : API Number
SECT.          -                                       : Section
TOWN.          -                                       : Township
RNGE.          -                                       : Range
PDAT.          M.S.L.                                  : Perm Datum
EPD .ft        0.00                                    : Elevation
LMF .          RT                                      : Log Measured From
DMF .          RT                                      : Drill Measured From
APD .ft        75.00                                   : Above Perm Datum
EKB .          -                                       : Elev-Kelly Bushing
EDF .ft        75.00                                   : Elev-Drill Floor
EGL .ft        -385.00                                 : Elev-Ground Level (Water Depth)
TDD .ft        12700.00                                : Total Depth (Driller)
SRVC.          ATLAS WIRELINE                          : Service Company
LATI.          59 25 54.97 N                           : Latitude
LONG.          01 40 32.75 E                           : Longitude
DATE.          JUN-AUG-1993                            : Logging Date
PROJ.          UKCS                                    : Project
SET .          COMP WIRE                               : Set
~Curve Information Section
DEPTH.ft                                               : Depth Curve
CALX.in                                                : Caliper
CNC.pu                                                 : Compensated Neutron Porosity
DT24.us/ft                                             : Delta-T
GR.gAPI                                                : Gamma Ray
PE.B/e                                                 : Photo-electric
RIPD.Ohm*m                                             : Deep Induction Resistivity
RIPM.Ohm*m                                             : Medium Induction Resistivity
ZCOR.g/cc                                              : ZDL Density Correction
ZDEN.g/cc                                              : ZDL Bulk Density
~ASCII Log Data Section
# ...
11879.0000         8.6905        36.7296        95.1840       117.9206         4.8628         2.3475         2.4457         0.0057         2.6222     
11879.5000         8.6907        39.8250        94.7688       118.1544         4.8679         2.3023         2.4079         0.0182         2.5919     
11880.0000         8.6908        44.1330        95.1164       116.2227         4.8640         2.3285         2.3521         0.0219         2.5919     
11880.5000         8.6906        46.6653        96.0449       115.4724         4.8806         2.3750         2.3542         0.0169         2.6002     
11881.0000         8.6895        47.7209        97.4681       118.3206         4.8272         2.3846         2.4192         0.0080         2.5873     
11881.5000         8.6882        46.6942        97.5963       122.0972         4.6895         2.3680         2.4492         0.0074         2.5611     
11882.0000         8.6878        43.7423        96.4617       123.8687         4.4430         2.3237         2.4194         0.0158         2.5513     
11882.5000         8.6880        42.4003        95.4870       123.7831         4.2871         2.2812         2.3506         0.0268         2.5641     
11883.0000         8.6878        42.1494        95.4918       123.0019         4.3239         2.2580         2.2741         0.0297         2.5797     
11883.5000         8.6866        41.4888        96.7003       122.8664         4.3775         2.2587         2.2316         0.0183         2.5808     
11884.0000         8.6842        43.0361        98.3204       124.4605         4.3483         2.2476         2.2249         0.0102         2.5671     
11884.5000         8.6822        45.4109        99.3524       126.6837         4.1592         2.2562         2.2745         0.0176         2.5513     
11885.0000         8.6835        44.1929        99.3334       127.4532         3.9325         2.2738         2.2947         0.0304         2.5455     
11885.5000         8.6867        41.2505        98.6206       126.4285         3.8700         2.2637         2.3325         0.0345         2.5482     
11886.0000         8.6882        40.6553        98.1704       124.9092         3.9628         2.2939         2.4039         0.0271         2.5518     
11886.5000         8.6888        40.3357        98.6898       124.5043         4.0512         2.3742         2.5145         0.0185         2.5552     
11887.0000         8.6899        39.2858        99.6943       123.9171         4.0350         2.4290         2.6643         0.0181         2.5565     
11887.5000         8.6888        40.1897        97.5925       119.5322         4.0178         2.4693         2.6818         0.0251         2.5523     
11888.0000         8.6853        45.4919        91.7251       110.0105         4.3323         2.5112         2.6028         0.0379         2.5584     
11888.5000         8.6833        52.0251        87.9229        99.9351         5.1104         2.5196         2.5693         0.0469         2.6026     
11889.0000         8.6841        47.8867        87.1027        96.9319         5.8223         2.5399         2.5776         0.0232         2.6810     
11889.5000         8.6861        40.9533        89.7936       104.5164         5.5007         2.5768         2.5720        -0.0244         2.7306     
11890.0000         8.6890        40.6465        95.4665       117.1608         4.6107         2.5227         2.5025        -0.0377         2.6949     
11890.5000         8.6928        42.2942        97.8010       126.5860         4.1209         2.4404         2.4649        -0.0010         2.6149     
11891.0000         8.6958        41.4871        97.1027       129.6947         3.9089         2.3939         2.4297         0.0337         2.5576     
11891.5000         8.6966        40.0478        96.4345       129.3926         3.8486         2.3590         2.3686         0.0401         2.5354     
11892.0000         8.6952        39.5973        96.1884       129.6989         3.9765         2.3148         2.3349         0.0337         2.5294     
11892.5000         8.6939        40.0813        96.4922       130.8061         4.1711         2.3060         2.3003         0.0257         2.5265     
11893.0000         8.6938        40.6521        97.0414       131.4946         4.2877         2.2880         2.3185         0.0195         2.5243     
11893.5000         8.6921        41.1443        97.0358       130.7163         4.4516         2.2790         2.3252         0.0133         2.5239     
11894.0000         8.6892        42.0044        96.6163       126.9792         4.6777         2.2870         2.3195         0.0132         2.5293     
11894.5000         8.6879        41.7616        96.5640       121.4112         4.7863         2.2523         2.2863         0.0212         2.5423     
11895.0000         8.6882        40.2526        96.7562       118.3112         4.8158         2.2843         2.2660         0.0285         2.5580     
11895.5000         8.6878        39.3301        97.3108       119.5397         4.8666         2.3545         2.3176         0.0300         2.5697     
11896.0000         8.6880        38.8263        98.0700       121.8565         4.8977         2.4295         2.4285         0.0289         2.5742     
11896.5000         8.6893        38.7652        98.3700       122.3503         4.8599         2.4678         2.5174         0.0263         2.5730     
11897.0000         8.6897        40.1904        98.4797       120.9420         4.7746         2.4854         2.5389         0.0254         2.5689     
11897.5000         8.6897        43.0010        98.8511       119.7191         4.6630         2.5554         2.5697         0.0298         2.5622     
11898.0000         8.6906        44.8109        99.1648       119.4590         4.6834         2.6406         2.6691         0.0354         2.5507     
11898.5000         8.6899        43.1686        98.6592       120.2597         4.6557         2.7444         2.8629         0.0363         2.5368     
11899.0000         8.6872        39.0159        97.5339       121.3742         4.7902         2.7565         2.8931         0.0319         2.5326     
11899.5000         8.6856        36.2076        97.3127       121.5829         4.8625         2.7457         2.8061         0.0254         2.5466     
11900.0000         8.6868        37.4792        97.5633       121.4770         4.8034         2.7832         2.7783         0.0189         2.5639     
11900.5000         8.6881        42.9703        98.0368       122.7975         4.7527         2.8076         2.7872         0.0149         2.5611     
11901.0000         8.6881        47.6165        98.4885       125.5070         4.7551         2.8574         2.8941         0.0133         2.5443     
11901.5000         8.6864        47.7059        97.9932       127.9224         4.7096         2.8436         2.9147         0.0175         2.5395     
11902.0000         8.6846        45.1078        98.2915       127.5880         4.3915         2.7206         2.7786         0.0267         2.5484     
11902.5000         8.6841        43.6622        99.1511       123.7364         4.0513         2.6745         2.6801         0.0291         2.5486     
11903.0000         8.6838        45.8966        99.7234       120.3863         3.9652         2.6405         2.6630         0.0231         2.5344     
11903.5000         8.6822        48.9038        99.8432       121.4852         4.0623         2.6289         2.6544         0.0236         2.5234     
11904.0000         8.6817        46.2069        98.5830       125.2980         4.1471         2.5838         2.6035         0.0299         2.5289     
11904.5000         8.6830        42.1785        97.6093       126.8247         4.1914         2.5506         2.4843         0.0305         2.5458     
11905.0000         8.6829        41.0433        97.5539       126.3524         4.2416         2.5000         2.4330         0.0292         2.5599     
