~Version Information Section
VERS.          2.0                                     : CWLS LOG ASCII Standard
WRAP.          NO                                      : One line per depth step
CREA.          05/26/17                                : LAS Creation Date
~Well Information Section
STRT.ft        10050.5000                              : Start Depth
STOP.ft        12688.0000                              : Stop Depth
STEP.ft        0.5000                                  : Step
NULL.          -999.2500                               : Null Value
COMP.          CONOCO U.K. LTD                         : Company
WELL.          9/19-10Z                                : Well
FLD .          SORBY                                   : Field
LOC .          NORTH SEA                               : Location
LOC1.          -                                       : Location (UTM)
CTRY.          UK                                      : Country
PROV.          UKCS                                    : Province
UWI .          18190                                   : UWI Number
API .          -                                       : API Number
SECT.          -                                       : Section
TOWN.          -                                       : Township
RNGE.          -                                       : Range
PDAT.          M.S.L.                                  : Perm Datum
EPD .ft        0.00                                    : Elevation
LMF .          RT                                      : Log Measured From
DMF .          RT                                      : Drill Measured From
APD .ft        75.00                                   : Above Perm Datum
EKB .          -                                       : Elev-Kelly Bushing
EDF .ft        75.00                                   : Elev-Drill Floor
EGL .ft        -385.00                                 : Elev-Ground Level (Water Depth)
TDD .ft        12700.00                                : Total Depth (Driller)
SRVC.          ATLAS WIRELINE                          : Service Company
LATI.          59 25 54.97 N                           : Latitude
LONG.          01 40 32.75 E                           : Longitude
DATE.          JUN-AUG-1993                            : Logging Date
PROJ.          UKCS                                    : Project
SET .          COMP WIRE                               : Set
~Curve Information Section
DEPTH.ft                                               : Depth Curve
CALX.in                                                : Caliper
CNC.pu                                                 : Compensated Neutron Porosity
DT24.us/ft                                             : Delta-T
GR.gAPI                                                : Gamma Ray
PE.B/e                                                 : Photo-electric
RIPD.Ohm*m                                             : Deep Induction Resistivity
RIPM.Ohm*m                                             : Medium Induction Resistivity
ZCOR.g/cc                                              : ZDL Density Correction
ZDEN.g/cc                                              : ZDL Bulk Density
~ASCII Log Data Section
# ...
12462.0000         8.6728        45.5545       104.4412       130.7084         5.0749         4.7725         5.2315         0.0166         2.5042     
12462.5000         8.6742        42.5260       104.6113       128.2222         5.0835         5.0239         5.7710         0.0291         2.4776     
12463.0000         8.6746        41.2680       105.2225       126.8948         5.0007         5.0297         6.0108         0.0289         2.4715     
12463.5000         8.6736        41.5348       103.6659       122.4806         4.6298         5.0023         5.8730         0.0180         2.4640     
12464.0000         8.6720        42.8660       100.3924       113.7211         4.2105         4.9853         5.5919         0.0196         2.4537     
12464.5000         8.6708        45.1524        96.8872       105.0485         4.1560         5.0950         5.5746         0.0291         2.4628     
12465.0000         8.6701        47.1702        94.1249       101.9670         4.5694         5.1737         5.8355         0.0300         2.5026     
12465.5000         8.6705        47.3562        93.2723       104.6373         5.0603         5.1730         5.8903         0.0228         2.5546     
12466.0000         8.6730        44.8369        92.5455       108.2763         5.1421         5.1304         5.8834         0.0168         2.5910     
12466.5000         8.6785        41.7003        90.9218       110.8230         4.8751         5.0735         5.9068         0.0157         2.6043     
12467.0000         8.6838        39.5545        90.5194       115.0640         4.5209         5.0172         5.9291         0.0138         2.5989     
12467.5000         8.6854        40.9550        92.4626       121.6415         4.3404         4.9521         5.8183         0.0139         2.5706     
12468.0000         8.6835        45.8195        96.1147       126.3329         4.4989         4.8208         5.4032         0.0273         2.5290     
12468.5000         8.6817        49.9359        99.2769       127.1881         4.7780         4.7629         5.0875         0.0368         2.5061     
12469.0000         8.6816        49.8446        99.6577       126.8272         4.9745         4.6900         4.9489         0.0312         2.5177     
12469.5000         8.6816        47.8315        97.9574       126.5641         5.1901         4.6666         4.9328         0.0276         2.5497     
12470.0000         8.6813        46.1622        97.3081       125.2917         5.4176         4.5611         4.9013         0.0285         2.5805     
12470.5000         8.6810        46.0247        97.7747       123.6589         5.4441         4.3009         4.7271         0.0177         2.5962     
12471.0000         8.6810        45.9664        96.5066       120.1376         5.2932         3.9153         4.2084         0.0046         2.5921     
12471.5000         8.6805        41.9930        92.6827       108.1017         5.1490         3.4413         3.4252         0.0073         2.5806     
12472.0000         8.6793        33.4650        87.3782        88.1711         4.8470         2.9467         2.6078         0.0126         2.5773     
12472.5000         8.6787        25.0942        82.0658        69.9202         4.0894         2.5676         2.2151         0.0096         2.5706     
12473.0000         8.6799        19.8658        79.2511        57.5544         3.2013         2.2053         2.0964         0.0053         2.5345     
12473.5000         8.6811        18.0104        79.3024        46.5801         2.6038         1.8386         1.7677         0.0008         2.4719     
12474.0000         8.6815        18.3930        80.3771        36.0116         2.2724         1.5319         1.5040         0.0001         2.4076     
12474.5000         8.6821        19.5383        81.7790        29.4381         2.1592         1.3299         1.3643         0.0111         2.3538     
12475.0000         8.6823        20.1671        83.2703        27.4810         2.1911         1.2424         1.3021         0.0264         2.3127     
12475.5000         8.6809        19.9493        84.2659        27.8626         2.2348         1.2133         1.2989         0.0308         2.2866     
12476.0000         8.6791        20.6381        83.8958        30.0966         2.2601         1.2110         1.3260         0.0310         2.2768     
12476.5000         8.6771        22.4705        82.5138        33.4478         2.2928         1.2432         1.3842         0.0360         2.2837     
12477.0000         8.6751        22.0270        81.2169        35.3568         2.4029         1.3483         1.5308         0.0433         2.3055     
12477.5000         8.6735        18.1579        80.1733        34.6411         2.5775         1.5919         1.8856         0.0426         2.3313     
12478.0000         8.6731        14.7506        77.9938        32.5409         2.7324         1.9165         2.4445         0.0365         2.3524     
12478.5000         8.6730        13.6894        73.2556        30.3710         2.8951         2.2966         3.1679         0.0373         2.3844     
12479.0000         8.6731        12.7535        67.2414        29.5422         3.1631         2.8761         3.8949         0.0410         2.4496     
12479.5000         8.6739         9.8155        61.6421        30.9993         3.5679         3.5952         4.8691         0.0408         2.5346     
12480.0000         8.6750         6.6821        58.0292        32.6225         3.9581         4.7500         6.5819         0.0344         2.5982     
12480.5000         8.6737         4.5037        56.9598        32.7089         4.0875         5.9091         9.6879         0.0256         2.6297     
12481.0000         8.6714         3.1424        56.5664        32.2773         3.8261         7.3616        14.1064         0.0278         2.6522     
12481.5000         8.6714         2.1771        55.8685        31.7739         3.4496         9.1453        19.5483         0.0371         2.6713     
12482.0000         8.6735         1.7425        55.0997        30.5984         3.3980        10.8322        26.1448         0.0325         2.6764     
12482.5000         8.6762         1.3378        54.3465        29.7245         3.7115        12.0399        31.2867         0.0178         2.6703     
12483.0000         8.6777         0.7948        54.0832        29.6569         4.1039        12.9905        35.0727         0.0159         2.6674     
12483.5000         8.6765         0.6544        54.0714        29.6858         4.4769        13.7578        37.5301         0.0253         2.6791     
12484.0000         8.6752         1.4711        54.4030        28.8705         4.9170        14.6632        39.4423         0.0321         2.7119     
12484.5000         8.6772         3.0148        54.7644        27.2679         5.2926        15.4545        41.5508         0.0300         2.7610     
12485.0000         8.6794         4.2142        54.4618        25.7962         5.3542        15.8754        40.8474         0.0175         2.8052     
12485.5000         8.6785         5.4577        54.0215        25.7645         5.2459        15.4627        34.8143         0.0073         2.8262     
12486.0000         8.6761         7.1673        53.8514        27.2565         5.2135        14.4675        25.5896         0.0090         2.8258     
12486.5000         8.6761         7.1980        54.8744        30.4412         5.1963        13.3295        19.2345         0.0138         2.8153     
12487.0000         8.6787         5.9211        56.3547        35.7776         5.1829        11.1759        14.2281         0.0157         2.8003     
12487.5000         8.6803         6.1468        58.9919        44.0362         5.2246         9.0702        10.1766         0.0172         2.7796     
12488.0000         8.6795         9.1132        66.4639        57.9981         5.1190         7.6355         7.8992         0.0136         2.7515     
