~Version Information Section
VERS.          2.0                                     : CWLS LOG ASCII Standard
WRAP.          NO                                      : One line per depth step
CREA.          05/26/17                                : LAS Creation Date
~Well Information Section
STRT.ft        10050.5000                              : Start Depth
STOP.ft        12688.0000                              : Stop Depth
STEP.ft        0.5000                                  : Step
NULL.          -999.2500                               : Null Value
COMP.          CONOCO U.K. LTD                         : Company
WELL.          9/19-10Z                                : Well
FLD .          SORBY                                   : Field
LOC .          NORTH SEA                               : Location
LOC1.          -                                       : Location (UTM)
CTRY.          UK                                      : Country
PROV.          UKCS                                    : Province
UWI .          18190                                   : UWI Number
API .          -                                       : API Number
SECT.          -                                       : Section
TOWN.          -                                       : Township
RNGE.          -                                       : Range
PDAT.          M.S.L.                                  : Perm Datum
EPD .ft        0.00                                    : Elevation
LMF .          RT                                      : Log Measured From
DMF .          RT                                      : Drill Measured From
APD .ft        75.00                                   : Above Perm Datum
EKB .          -                                       : Elev-Kelly Bushing
EDF .ft        75.00                                   : Elev-Drill Floor
EGL .ft        -385.00                                 : Elev-Ground Level (Water Depth)
TDD .ft        12700.00                                : Total Depth (Driller)
SRVC.          ATLAS WIRELINE                          : Service Company
LATI.          59 25 54.97 N                           : Latitude
LONG.          01 40 32.75 E                           : Longitude
DATE.          JUN-AUG-1993                            : Logging Date
PROJ.          UKCS                                    : Project
SET .          COMP WIRE                               : Set
~Curve Information Section
DEPTH.ft                                               : Depth Curve
CALX.in                                                : Caliper
CNC.pu                                                 : Compensated Neutron Porosity
DT24.us/ft                                             : Delta-T
GR.gAPI                                                : Gamma Ray
PE.B/e                                                 : Photo-electric
RIPD.Ohm*m                                             : Deep Induction Resistivity
RIPM.Ohm*m                                             : Medium Induction Resistivity
ZCOR.g/cc                                              : ZDL Density Correction
ZDEN.g/cc                                              : ZDL Bulk Density
~ASCII Log Data Section
# ...
12038.0000         8.6866        41.1071       108.1886       154.4206         3.6441        13.1577        15.4343         0.0196         2.3979     
12038.5000         8.6889        40.7448       106.9930       159.3034         3.5741        13.5286        15.6866         0.0242         2.3794     
12039.0000         8.6884        41.2553       105.1601       162.1059         3.4485        13.7269        15.9419         0.0345         2.3744     
12039.5000         8.6853        42.6678       104.9338       161.6339         3.3064        14.0270        16.4010         0.0443         2.3870     
12040.0000         8.6825        44.3025       105.8063       157.8760         3.2090        14.0290        16.3478         0.0426         2.4082     
12040.5000         8.6824        43.4400       108.2344       151.2658         3.1694        13.5422        15.7253         0.0307         2.4187     
12041.0000         8.6839        43.6753       109.9753       144.6618         3.2010        13.2130        14.8774         0.0245         2.4093     
12041.5000         8.6842        47.0945       108.4441       142.0754         3.3814        12.8244        14.3210         0.0278         2.3913     
12042.0000         8.6838        50.1997       105.2619       145.4347         3.6203        12.2046        13.8001         0.0322         2.3817     
12042.5000         8.6842        49.5203       102.0980       152.3685         3.6925        11.4604        13.2522         0.0349         2.3899     
12043.0000         8.6846        47.8203        99.4092       157.4929         3.6201        10.8864        12.3102         0.0357         2.4138     
12043.5000         8.6847        46.8848        98.1116       156.6722         3.5980        10.5152        11.4375         0.0340         2.4403     
12044.0000         8.6851        45.8321        97.0798       151.8653         3.6197        10.2484        10.7725         0.0302         2.4592     
12044.5000         8.6855        45.5697        95.3256       145.6702         3.6255         9.8452        10.3976         0.0280         2.4743     
12045.0000         8.6853        47.1848        93.9632       139.2620         3.5542         9.2685         9.9914         0.0283         2.4917     
12045.5000         8.6851        48.4160        92.6083       133.8279         3.5302         8.6889         9.2787         0.0264         2.5079     
12046.0000         8.6849        47.4350        90.8026       129.8390         3.7631         8.3335         8.5622         0.0251         2.5214     
12046.5000         8.6843        45.8688        89.1580       126.7629         4.1158         8.0759         8.0662         0.0325         2.5415     
12047.0000         8.6844        44.1539        88.2503       124.7787         4.3882         7.9762         7.8330         0.0386         2.5711     
12047.5000         8.6859        41.0051        87.8339       123.8349         4.4043         7.8957         7.7496         0.0300         2.5965     
12048.0000         8.6881        37.8199        87.5503       124.1494         4.2472         7.8056         7.7738         0.0225         2.6043     
12048.5000         8.6898        37.2806        87.3719       125.6179         4.1806         7.5898         7.6651         0.0320         2.6030     
12049.0000         8.6900        39.3762        86.9484       126.4566         4.1660         7.2660         7.4795         0.0382         2.6081     
12049.5000         8.6892        41.4618        87.0387       126.5597         4.0906         6.9222         7.2307         0.0233         2.6133     
12050.0000         8.6890        42.0199        88.0018       127.7454         3.9390         6.7066         6.8376         0.0090         2.6000     
12050.5000         8.6885        41.4411        88.6791       129.9757         3.8802         6.4602         6.4407         0.0163         2.5740     
12051.0000         8.6863        38.9818        88.4411       130.7220         3.8904         6.2600         6.0529         0.0321         2.5595     
12051.5000         8.6837        35.4395        87.5751       129.3931         3.8860         6.1391         5.7739         0.0398         2.5612     
12052.0000         8.6826        33.2322        86.9974       128.3151         3.8612         6.0415         5.7519         0.0409         2.5652     
12052.5000         8.6835        34.2448        86.8023       128.2070         3.8487         6.0344         5.9902         0.0393         2.5649     
12053.0000         8.6860        38.0051        86.8938       129.2136         3.8422         6.0946         6.3105         0.0360         2.5636     
12053.5000         8.6887        40.2571        87.5547       130.4052         3.8233         6.2541         6.6927         0.0322         2.5602     
12054.0000         8.6893        37.4671        88.1084       131.0313         3.7880         6.5857         7.2028         0.0288         2.5557     
12054.5000         8.6873        34.0197        88.7681       131.3473         3.6125         7.1979         7.9220         0.0250         2.5547     
12055.0000         8.6845        33.8712        89.3490       130.7402         3.4270         7.9501         8.8749         0.0264         2.5552     
12055.5000         8.6832        36.4099        89.6318       128.9216         3.4123         8.5080         9.6302         0.0298         2.5522     
12056.0000         8.6834        38.4092        89.5570       127.7155         3.5279         8.8758        10.0864         0.0225         2.5473     
12056.5000         8.6846        38.0563        89.0058       127.5641         3.6993         9.0403        10.3704         0.0121         2.5435     
12057.0000         8.6869        35.9841        89.0558       126.9801         3.8685         9.0223        10.3393         0.0145         2.5412     
12057.5000         8.6887        35.0252        89.1167       127.2130         4.0645         9.0169         9.9594         0.0211         2.5391     
12058.0000         8.6891        36.5896        88.9713       128.2374         4.1935         9.0140         9.5783         0.0248         2.5354     
12058.5000         8.6889        38.7870        89.0553       127.7960         4.1045         9.0466         9.7415         0.0303         2.5311     
12059.0000         8.6882        40.3355        89.1753       126.4309         3.7955         9.1482         9.9522         0.0346         2.5320     
12059.5000         8.6872        42.1341        89.9743       126.6483         3.4658         9.3235        10.3812         0.0293         2.5390     
12060.0000         8.6872        40.2082        91.0473       129.1598         3.3351         9.4440        11.0570         0.0194         2.5426     
12060.5000         8.6882        40.3100        91.2304       131.7171         3.4952         9.5614        11.3086         0.0134         2.5355     
12061.0000         8.6893        42.1472        89.7364       131.2484         3.6879         9.6286        11.2654         0.0169         2.5266     
12061.5000         8.6890        42.1862        87.4913       128.0988         3.6635         9.6485        11.0374         0.0259         2.5257     
12062.0000         8.6870        41.5720        86.2975       126.3733         3.6479         9.5764        10.5683         0.0305         2.5281     
12062.5000         8.6856        40.6415        87.0122       127.3983         3.6513         9.4950         9.9646         0.0294         2.5283     
12063.0000         8.6856        37.7364        88.6004       129.1370         3.6501         9.4129         9.4326         0.0309         2.5293     
12063.5000         8.6851        36.3330        89.1034       131.1444         3.6515         9.2922         9.2427         0.0355         2.5340     
12064.0000         8.6848        39.0476        88.1980       132.9217         3.6499         9.0453         9.4356         0.0376         2.5415     
