~Version Information Section
VERS.          2.0                                     : CWLS LOG ASCII Standard
WRAP.          NO                                      : One line per depth step
CREA.          05/26/17                                : LAS Creation Date
~Well Information Section
STRT.ft        10050.5000                              : Start Depth
STOP.ft        12688.0000                              : Stop Depth
STEP.ft        0.5000                                  : Step
NULL.          -999.2500                               : Null Value
COMP.          CONOCO U.K. LTD                         : Company
WELL.          9/19-10Z                                : Well
FLD .          SORBY                                   : Field
LOC .          NORTH SEA                               : Location
LOC1.          -                                       : Location (UTM)
CTRY.          UK                                      : Country
PROV.          UKCS                                    : Province
UWI .          18190                                   : UWI Number
API .          -                                       : API Number
SECT.          -                                       : Section
TOWN.          -                                       : Township
RNGE.          -                                       : Range
PDAT.          M.S.L.                                  : Perm Datum
EPD .ft        0.00                                    : Elevation
LMF .          RT                                      : Log Measured From
DMF .          RT                                      : Drill Measured From
APD .ft        75.00                                   : Above Perm Datum
EKB .          -                                       : Elev-Kelly Bushing
EDF .ft        75.00                                   : Elev-Drill Floor
EGL .ft        -385.00                                 : Elev-Ground Level (Water Depth)
TDD .ft        12700.00                                : Total Depth (Driller)
SRVC.          ATLAS WIRELINE                          : Service Company
LATI.          59 25 54.97 N                           : Latitude
LONG.          01 40 32.75 E                           : Longitude
DATE.          JUN-AUG-1993                            : Logging Date
PROJ.          UKCS                                    : Project
SET .          COMP WIRE                               : Set
~Curve Information Section
DEPTH.ft                                               : Depth Curve
CALX.in                                                : Caliper
CNC.pu                                                 : Compensated Neutron Porosity
DT24.us/ft                                             : Delta-T
GR.gAPI                                                : Gamma Ray
PE.B/e                                                 : Photo-electric
RIPD.Ohm*m                                             : Deep Induction Resistivity
RIPM.Ohm*m                                             : Medium Induction Resistivity
ZCOR.g/cc                                              : ZDL Density Correction
ZDEN.g/cc                                              : ZDL Bulk Density
~ASCII Log Data Section
# ...
10421.5000      -999.2500      -999.2500      -999.2500        37.0313      -999.2500      -999.2500      -999.2500      -999.2500      -999.2500     
10422.0000      -999.2500      -999.2500      -999.2500        36.8420      -999.2500      -999.2500      -999.2500      -999.2500      -999.2500     
10422.5000      -999.2500      -999.2500      -999.2500        37.0900      -999.2500      -999.2500      -999.2500      -999.2500      -999.2500     
10423.0000      -999.2500      -999.2500      -999.2500        38.4981      -999.2500      -999.2500      -999.2500      -999.2500      -999.2500     
10423.5000      -999.2500      -999.2500      -999.2500        40.9760      -999.2500      -999.2500      -999.2500      -999.2500      -999.2500     
10424.0000      -999.2500      -999.2500      -999.2500        44.0558      -999.2500      -999.2500      -999.2500      -999.2500      -999.2500     
10424.5000      -999.2500      -999.2500      -999.2500        46.2496      -999.2500      -999.2500      -999.2500      -999.2500      -999.2500     
10425.0000      -999.2500      -999.2500      -999.2500        46.8645      -999.2500      -999.2500      -999.2500      -999.2500      -999.2500     
10425.5000        10.2019      -999.2500      -999.2500        47.1878        14.6779      -999.2500      -999.2500        -0.0554         2.3615     
10426.0000        11.1042        41.9613        82.2584        47.9587        13.5087      -999.2500      -999.2500         0.0740         2.3487     
10426.5000        11.7208        38.4968        79.9459        48.9533        11.3105      -999.2500      -999.2500         0.0799         2.3803     
10427.0000        12.0730        37.9847        79.4922        49.7681         9.2869      -999.2500      -999.2500         0.0589         2.4655     
10427.5000        12.3170        39.1476        78.9092        50.2247         8.0466      -999.2500      -999.2500         0.0481         2.5310     
10428.0000        12.4502        37.8771        80.3833        50.4042         7.1755      -999.2500      -999.2500         0.0447         2.5485     
10428.5000        12.5161        35.3960        80.0982        50.2680         6.6386      -999.2500      -999.2500         0.0368         2.5627     
10429.0000        12.5604        34.2916        79.4669        49.3476         6.3568         3.0870         2.5176         0.0207         2.5954     
10429.5000        12.5851        35.5048        78.0546        48.1304         6.2670         2.9620         2.9373         0.0104         2.6207     
10430.0000        12.5732        39.3677        76.4587        47.0186         6.2844         3.0001         3.0618         0.0109         2.6316     
10430.5000        12.5339        41.6554        75.7713        45.9781         6.2575         3.0809         3.0220         0.0157         2.6337     
10431.0000        12.5074        39.8241        75.1534        45.3440         6.2243         3.1542         2.9173         0.0180         2.6313     
10431.5000        12.5044        37.1855        74.8680        46.1112         6.2884         3.2133         3.2163         0.0222         2.6294     
10432.0000        12.5182        35.4438        75.3390        48.7893         6.3513         3.2164         3.7365         0.0341         2.6320     
10432.5000        12.5380        34.0215        76.0149        51.6817         6.2239         3.1872         3.5929         0.0479         2.6376     
10433.0000        12.5690        33.3762        77.8188        52.5385         6.1599         3.1475         3.5284         0.0559         2.6415     
10433.5000        12.6228        33.8904        79.7017        51.4944         6.6659         3.1234         3.3854         0.0526         2.6400     
10434.0000        12.6825        36.3333        80.2655        50.9114         7.2821         2.9862         3.1824         0.0469         2.6337     
10434.5000        12.7478        40.4431        80.4335        51.7730         7.3539         2.8786         3.0033         0.0481         2.6247     
10435.0000        12.8464        42.1213        80.4786        53.2096         7.0987         2.8493         2.9671         0.0453         2.6147     
10435.5000        12.9306        39.2883        80.5496        53.2251         6.9217         2.7984         2.9791         0.0335         2.6062     
10436.0000        12.9325        35.9070        81.2498        50.8369         6.9275         2.7633         3.0140         0.0311         2.6031     
10436.5000        12.8983        34.5714        78.8350        46.9738         6.6151         2.7156         3.0371         0.0419         2.6079     
10437.0000        12.8648        33.3302        75.5459        44.9404         6.2534         2.6667         3.0020         0.0523         2.6224     
10437.5000        12.8163        30.7781        77.3182        47.8438         6.3889         2.6231         2.8553         0.0572         2.6425     
10438.0000        12.7807        30.5568        78.9156        53.2218         6.6281         2.6583         2.7893         0.0502         2.6574     
10438.5000        12.7873        32.6360        81.2427        55.0507         6.8120         2.7031         2.8282         0.0359         2.6571     
10439.0000        12.8473        35.4445        82.1669        52.0337         6.7378         2.7279         2.8649         0.0334         2.6465     
10439.5000        12.9742        37.5993        77.9926        48.3976         6.2093         2.7375         2.9234         0.0522         2.6368     
10440.0000        13.0956        37.5899        77.6550        47.5620         5.5289         2.6642         2.9983         0.0784         2.6304     
10440.5000        13.1302        34.4701        80.2658        48.8979         5.1407         2.6525         3.0443         0.0940         2.6235     
10441.0000        13.1150        30.6043        82.0263        50.3249         5.1849         2.7477         3.1111         0.0945         2.6174     
10441.5000        13.1079        28.4017        84.4843        51.1910         5.3321         2.8794         3.2041         0.0884         2.6139     
10442.0000        13.1079        27.2646        82.9331        52.8890         5.3918         3.0036         3.2675         0.0871         2.6134     
10442.5000        13.1126        27.6293        78.5629        56.0947         5.4335         3.0468         3.3774         0.0945         2.6185     
10443.0000        13.1768        29.1249        75.7417        59.3244         5.4757         3.0749         3.4832         0.1056         2.6305     
10443.5000        13.4125        28.5377        75.3682        60.6050         5.8285         2.9775         3.5305         0.1031         2.6473     
10444.0000        13.7447        25.9680        78.5651        60.1922         6.6228         2.8544         3.3229         0.0771         2.6633     
10444.5000        13.8443        25.6487        81.2299        59.7308         7.5948         2.8280         3.0705         0.0508         2.6650     
10445.0000        13.6878        29.4263        85.0831        59.6262         8.4937         2.8261         3.0173         0.0506         2.6432     
10445.5000        13.7444        34.9935        85.5550        59.1448         9.5541         2.8257         2.9643         0.0588         2.6056     
10446.0000        14.0910        36.9147        80.7728        59.2681        10.1597         2.6924         2.8504         0.0548         2.5609     
10446.5000        14.2286        36.4378        78.5496        61.5183         9.1519         2.5765         2.7689         0.0538         2.5204     
10447.0000        14.0345        35.8137        76.7041        64.6726         7.5538         2.5239         2.7480         0.0519         2.5108     
10447.5000        13.9039        35.8279        77.1257        66.2848         6.7800         2.4679         2.7603         0.0427         2.5408     
