~Version Information Section
VERS.          2.0                                     : CWLS LOG ASCII Standard
WRAP.          NO                                      : One line per depth step
CREA.          05/26/17                                : LAS Creation Date
~Well Information Section
STRT.ft        10050.5000                              : Start Depth
STOP.ft        12688.0000                              : Stop Depth
STEP.ft        0.5000                                  : Step
NULL.          -999.2500                               : Null Value
COMP.          CONOCO U.K. LTD                         : Company
WELL.          9/19-10Z                                : Well
FLD .          SORBY                                   : Field
LOC .          NORTH SEA                               : Location
LOC1.          -                                       : Location (UTM)
CTRY.          UK                                      : Country
PROV.          UKCS                                    : Province
UWI .          18190                                   : UWI Number
API .          -                                       : API Number
SECT.          -                                       : Section
TOWN.          -                                       : Township
RNGE.          -                                       : Range
PDAT.          M.S.L.                                  : Perm Datum
EPD .ft        0.00                                    : Elevation
LMF .          RT                                      : Log Measured From
DMF .          RT                                      : Drill Measured From
APD .ft        75.00                                   : Above Perm Datum
EKB .          -                                       : Elev-Kelly Bushing
EDF .ft        75.00                                   : Elev-Drill Floor
EGL .ft        -385.00                                 : Elev-Ground Level (Water Depth)
TDD .ft        12700.00                                : Total Depth (Driller)
SRVC.          ATLAS WIRELINE                          : Service Company
LATI.          59 25 54.97 N                           : Latitude
LONG.          01 40 32.75 E                           : Longitude
DATE.          JUN-AUG-1993                            : Logging Date
PROJ.          UKCS                                    : Project
SET .          COMP WIRE                               : Set
~Curve Information Section
DEPTH.ft                                               : Depth Curve
CALX.in                                                : Caliper
CNC.pu                                                 : Compensated Neutron Porosity
DT24.us/ft                                             : Delta-T
GR.gAPI                                                : Gamma Ray
PE.B/e                                                 : Photo-electric
RIPD.Ohm*m                                             : Deep Induction Resistivity
RIPM.Ohm*m                                             : Medium Induction Resistivity
ZCOR.g/cc                                              : ZDL Density Correction
ZDEN.g/cc                                              : ZDL Bulk Density
~ASCII Log Data Section
# ...
11455.0000         8.8726        30.3510        91.3408        80.9833         3.5311         1.5234         1.5382         0.0353         2.5371     
11455.5000         8.8742        29.8130        91.6550        82.0854         3.4771         1.5232         1.5500         0.0350         2.5386     
11456.0000         8.8769        31.6455        91.7099        82.1183         3.4614         1.5527         1.5755         0.0354         2.5434     
11456.5000         8.8786        32.9455        91.0653        80.2936         3.5431         1.5760         1.6299         0.0347         2.5509     
11457.0000         8.8791        31.8116        89.2905        77.6658         3.6854         1.5899         1.6746         0.0346         2.5625     
11457.5000         8.8809        30.1553        86.9483        75.1379         4.0325         1.5606         1.6945         0.0406         2.5872     
11458.0000         8.8841        28.9304        84.8435        73.9897         4.6362         1.5364         1.6160         0.0501         2.6340     
11458.5000         8.8846        27.8169        84.4057        76.4145         5.1619         1.5075         1.5323         0.0501         2.6906     
11459.0000         8.8829        27.4792        86.7650        82.0421         5.0790         1.5166         1.4836         0.0205         2.7151     
11459.5000         8.8839        28.4734        90.0943        88.1579         4.5006         1.5184         1.4763        -0.0149         2.6805     
11460.0000         8.8879        30.1158        93.0235        93.5596         3.9622         1.4919         1.4737        -0.0127         2.6149     
11460.5000         8.8908        31.6394        94.3473        99.0456         3.6175         1.4587         1.4783         0.0147         2.5602     
11461.0000         8.8928        32.6180        93.6519       101.9146         3.4691         1.4406         1.5087         0.0310         2.5300     
11461.5000         8.8954        32.5961        92.4542        99.3727         3.5072         1.4564         1.5465         0.0347         2.5174     
11462.0000         8.8961        31.2074        91.2783        95.0851         3.5732         1.4907         1.5708         0.0345         2.5131     
11462.5000         8.8920        31.3805        90.4791        93.0658         3.5801         1.5522         1.5936         0.0316         2.5146     
11463.0000         8.8855        34.5647        90.2319        92.3397         3.6074         1.5933         1.6173         0.0283         2.5213     
11463.5000         8.8802        36.0982        90.2523        90.5925         3.5934         1.6244         1.6445         0.0277         2.5308     
11464.0000         8.8767        32.6520        90.2347        88.0464         3.4993         1.6140         1.6409         0.0286         2.5403     
11464.5000         8.8745        29.4803        90.0905        86.0320         3.6659         1.6135         1.6270         0.0294         2.5480     
11465.0000         8.8739        29.4484        90.0993        86.4028         3.9979         1.5866         1.6095         0.0294         2.5523     
11465.5000         8.8743        31.8896        90.2188        88.4581         4.1443         1.5703         1.6056         0.0307         2.5535     
11466.0000         8.8741        34.3400        90.6157        89.0857         4.0666         1.5554         1.6087         0.0324         2.5527     
11466.5000         8.8727        34.2286        91.0084        87.7772         3.9836         1.5497         1.6081         0.0323         2.5510     
11467.0000         8.8716        34.9766        90.9687        87.3905         3.9632         1.5595         1.6050         0.0303         2.5488     
11467.5000         8.8715        38.1069        91.0324        89.0475         3.9421         1.5680         1.6076         0.0291         2.5475     
11468.0000         8.8721        38.8307        91.0935        90.6801         3.8942         1.5774         1.6342         0.0273         2.5480     
11468.5000         8.8731        34.5215        89.4763        90.9943         3.8353         1.5964         1.6691         0.0256         2.5506     
11469.0000         8.8735        31.4040        87.5840        89.7351         4.0201         1.5992         1.6693         0.0318         2.5661     
11469.5000         8.8734        32.1991        87.0458        87.0266         4.4519         1.6059         1.6581         0.0365         2.6115     
11470.0000         8.8728        36.4664        86.8931        84.0254         4.4904         1.6196         1.6674         0.0296         2.6654     
11470.5000         8.8721        39.5352        88.6641        82.0185         3.8893         1.6383         1.6728         0.0250         2.6673     
11471.0000         8.8719        38.0715        90.9752        80.7502         3.4156         1.6583         1.6820         0.0333         2.6141     
11471.5000         8.8728        36.0488        91.1510        80.2559         3.3744         1.6208         1.6619         0.0389         2.5656     
11472.0000         8.8730        34.4949        89.0384        80.5939         3.5861         1.5650         1.5847         0.0352         2.5529     
11472.5000         8.8725        32.8012        87.8732        80.8558         3.9962         1.5274         1.5191         0.0408         2.5752     
11473.0000         8.8728        32.3525        88.4032        81.4556         4.2943         1.4848         1.4748         0.0404         2.6201     
11473.5000         8.8740        32.5330        89.5868        83.8464         4.0426         1.4527         1.4547         0.0318         2.6451     
11474.0000         8.8745        33.1873        92.4421        87.6013         3.5988         1.4334         1.4426         0.0300         2.6176     
11474.5000         8.8741        36.0694        93.9632        90.5003         3.5319         1.4166         1.4262         0.0392         2.5688     
11475.0000         8.8726        40.5738        93.4059        91.3359         3.6745         1.3774         1.4089         0.0393         2.5376     
11475.5000         8.8712        40.7946        92.7076        90.9608         3.7578         1.3619         1.4058         0.0306         2.5252     
11476.0000         8.8709        39.2861        92.1392        91.4812         3.7903         1.3657         1.4233         0.0240         2.5236     
11476.5000         8.8717        39.6977        91.2295        93.0460         3.7952         1.3826         1.4452         0.0246         2.5286     
11477.0000         8.8721        37.9366        89.8319        92.2356         3.7814         1.4024         1.4732         0.0319         2.5340     
11477.5000         8.8714        34.0079        88.6164        88.0517         3.7574         1.4024         1.4867         0.0406         2.5391     
11478.0000         8.8709        30.7698        88.0436        83.7836         3.7496         1.4099         1.4805         0.0450         2.5474     
11478.5000         8.8718        28.4505        88.0139        82.3859         3.7457         1.4148         1.4701         0.0419         2.5532     
11479.0000         8.8732        28.6543        88.9227        83.9587         3.6970         1.4279         1.4622         0.0365         2.5488     
11479.5000         8.8740        33.1749        90.1933        86.5252         3.7439         1.4268         1.4558         0.0321         2.5387     
11480.0000         8.8741        39.6587        90.8845        88.6196         3.7063         1.4017         1.4391         0.0253         2.5316     
11480.5000         8.8731        41.5129        91.6224        90.2889         3.7623         1.3975         1.4338         0.0205         2.5305     
11481.0000         8.8713        37.4797        92.0834        91.5035         3.7892         1.3795         1.4269         0.0246         2.5334     
