~Version Information Section
VERS.          2.0                                     : CWLS LOG ASCII Standard
WRAP.          NO                                      : One line per depth step
CREA.          05/26/17                                : LAS Creation Date
~Well Information Section
STRT.ft        10050.5000                              : Start Depth
STOP.ft        12688.0000                              : Stop Depth
STEP.ft        0.5000                                  : Step
NULL.          -999.2500                               : Null Value
COMP.          CONOCO U.K. LTD                         : Company
WELL.          9/19-10Z                                : Well
FLD .          SORBY                                   : Field
LOC .          NORTH SEA                               : Location
LOC1.          -                                       : Location (UTM)
CTRY.          UK                                      : Country
PROV.          UKCS                                    : Province
UWI .          18190                                   : UWI Number
API .          -                                       : API Number
SECT.          -                                       : Section
TOWN.          -                                       : Township
RNGE.          -                                       : Range
PDAT.          M.S.L.                                  : Perm Datum
EPD .ft        0.00                                    : Elevation
LMF .          RT                                      : Log Measured From
DMF .          RT                                      : Drill Measured From
APD .ft        75.00                                   : Above Perm Datum
EKB .          -                                       : Elev-Kelly Bushing
EDF .ft        75.00                                   : Elev-Drill Floor
EGL .ft        -385.00                                 : Elev-Ground Level (Water Depth)
TDD .ft        12700.00                                : Total Depth (Driller)
SRVC.          ATLAS WIRELINE                          : Service Company
LATI.          59 25 54.97 N                           : Latitude
LONG.          01 40 32.75 E                           : Longitude
DATE.          JUN-AUG-1993                            : Logging Date
PROJ.          UKCS                                    : Project
SET .          COMP WIRE                               : Set
~Curve Information Section
DEPTH.ft                                               : Depth Curve
CALX.in                                                : Caliper
CNC.pu                                                 : Compensated Neutron Porosity
DT24.us/ft                                             : Delta-T
GR.gAPI                                                : Gamma Ray
PE.B/e                                                 : Photo-electric
RIPD.Ohm*m                                             : Deep Induction Resistivity
RIPM.Ohm*m                                             : Medium Induction Resistivity
ZCOR.g/cc                                              : ZDL Density Correction
ZDEN.g/cc                                              : ZDL Bulk Density
~ASCII Log Data Section
# ...
12170.5000         8.6675        14.5767        77.1152        62.3527         2.6719        11.2249        13.4310         0.0266         2.4078     
12171.0000         8.6656        13.9101        78.7209        75.1305         2.9080         9.3477        10.4443         0.0302         2.4277     
12171.5000         8.6677        14.9790        80.2096        90.0539         3.2400         8.4916         7.6293         0.0383         2.4690     
12172.0000         8.6741        19.7572        80.3611       103.7514         3.7785         8.3406         6.5867         0.0350         2.5346     
12172.5000         8.6799        24.5218        81.2386       107.4322         4.0525         8.2107         6.7851         0.0007         2.6047     
12173.0000         8.6812        24.1234        81.1762        96.0277         3.4937         7.9808         7.9237        -0.0488         2.6305     
12173.5000         8.6792        20.9864        79.7819        75.9940         2.7706         7.7464         8.6676        -0.0675         2.5797     
12174.0000         8.6755        17.9873        78.8191        58.9820         2.4835         8.0096         8.8583        -0.0379         2.4813     
12174.5000         8.6716        15.1652        77.5273        51.4620         2.5536         8.8135         9.3384         0.0053         2.3966     
12175.0000         8.6695        12.5958        76.3512        51.8244         2.7552         9.8185        10.1423         0.0316         2.3638     
12175.5000         8.6693        11.3297        75.9550        54.4087         2.8202        10.8791        11.1742         0.0335         2.3762     
12176.0000         8.6689        12.1853        75.5873        56.6194         2.7673        11.6884        11.9750         0.0237         2.3968     
12176.5000         8.6684        14.7388        75.3076        58.8904         2.7411        11.9023        12.4246         0.0207         2.4018     
12177.0000         8.6700        16.7638        74.6965        61.2557         2.7320        12.0651        13.0557         0.0294         2.4034     
12177.5000         8.6727        17.4223        73.7450        60.9323         2.7327        12.5783        14.1607         0.0328         2.4151     
12178.0000         8.6739        17.0157        73.7321        56.4360         2.6301        13.3930        15.4606         0.0284         2.4233     
12178.5000         8.6732        15.6057        74.0372        49.9380         2.4961        14.1586        16.8946         0.0249         2.4135     
12179.0000         8.6707        13.7465        74.2947        44.7907         2.4994        14.7613        18.0290         0.0241         2.3955     
12179.5000         8.6678        12.5933        74.5506        43.3344         2.5200        15.0707        18.0272         0.0244         2.3862     
12180.0000         8.6669        12.4581        74.2225        46.2825         2.5323        15.2747        17.3252         0.0280         2.3880     
12180.5000         8.6681        12.8521        73.6665        50.1746         2.5440        15.4149        16.6987         0.0330         2.3947     
12181.0000         8.6691        12.4811        73.1268        51.8723         2.6006        15.4492        16.5106         0.0357         2.4056     
12181.5000         8.6699        11.3440        73.1033        51.0712         2.5711        15.1423        16.2996         0.0357         2.4223     
12182.0000         8.6709        10.3340        73.3423        48.4736         2.3528        14.6626        16.1429         0.0310         2.4354     
12182.5000         8.6707        10.8867        73.3222        46.1612         2.2541        14.4326        15.9814         0.0231         2.4324     
12183.0000         8.6692        13.4885        73.3243        46.7187         2.3613        14.3818        16.1423         0.0212         2.4193     
12183.5000         8.6682        15.6352        73.0411        48.4711         2.4945        14.5616        16.5890         0.0254         2.4144     
12184.0000         8.6698        14.0788        72.8041        47.7456         2.5236        14.8805        17.3477         0.0253         2.4211     
12184.5000         8.6726        11.9939        73.0161        43.7513         2.3149        15.1629        18.0855         0.0214         2.4239     
12185.0000         8.6736        11.4901        73.0229        38.9388         2.0555        15.3939        18.5401         0.0254         2.4136     
12185.5000         8.6727        11.4978        72.9496        36.1912         1.9792        15.7498        19.3197         0.0360         2.3994     
12186.0000         8.6717        10.9862        72.9945        35.2810         2.0072        16.0524        20.2312         0.0437         2.3933     
12186.5000         8.6712         9.9420        73.0831        34.7753         2.0043        15.7004        20.6576         0.0434         2.3963     
12187.0000         8.6698         9.3007        73.5705        34.0929         1.9336        14.8862        20.3156         0.0387         2.4005     
12187.5000         8.6681         9.6833        74.0883        33.0700         1.8115        14.0040        18.9054         0.0360         2.3977     
12188.0000         8.6681        10.5411        74.2542        31.9047         1.7444        13.0397        16.8604         0.0371         2.3882     
12188.5000         8.6691        10.9609        74.4001        31.3350         1.7223        11.9816        14.8711         0.0379         2.3790     
12189.0000         8.6693        11.3458        74.6896        32.1371         1.7210        10.6405        12.6274         0.0370         2.3754     
12189.5000         8.6696        11.0210        75.0626        33.9797         1.8199         9.4538        10.4763         0.0341         2.3756     
12190.0000         8.6711        10.2914        75.6395        35.9132         2.0071         8.4661         8.7675         0.0313         2.3760     
12190.5000         8.6727        10.2093        76.0149        36.9770         2.1715         7.5414         7.7728         0.0321         2.3759     
12191.0000         8.6727        11.5890        75.8966        37.8167         2.2572         6.7518         6.9974         0.0337         2.3760     
12191.5000         8.6710        14.4965        76.1480        38.8755         2.3010         6.0809         6.3488         0.0336         2.3758     
12192.0000         8.6692        17.1246        76.7229        39.8722         2.3400         5.5966         5.7783         0.0398         2.3802     
12192.5000         8.6686        17.0490        76.9577        40.4686         2.3655         5.2406         5.3054         0.0472         2.3945     
12193.0000         8.6698        14.9860        76.8971        40.3150         2.3459         4.8252         4.9681         0.0415         2.4118     
12193.5000         8.6716        13.5655        76.1304        39.2148         2.2502         4.4742         4.6387         0.0306         2.4204     
12194.0000         8.6716        14.1446        74.4849        37.8929         2.1668         4.1362         4.2943         0.0321         2.4193     
12194.5000         8.6699        16.5414        73.2199        36.4294         2.1305         3.8566         4.0321         0.0368         2.4156     
12195.0000         8.6676        16.9863        72.6889        34.1219         2.1235         3.5858         3.7678         0.0306         2.4091     
12195.5000         8.6654        14.4632        72.5438        31.1235         2.2872         3.2833         3.5879         0.0232         2.3978     
12196.0000         8.6648        12.1886        72.9461        28.8442         2.4498         3.0527         3.3480         0.0266         2.3890     
12196.5000         8.6657        11.7605        73.3674        28.6183         2.4289         2.9244         3.1638         0.0340         2.3892     
