~Version Information Section
VERS.          2.0                                     : CWLS LOG ASCII Standard
WRAP.          NO                                      : One line per depth step
CREA.          05/26/17                                : LAS Creation Date
~Well Information Section
STRT.ft        10050.5000                              : Start Depth
STOP.ft        12688.0000                              : Stop Depth
STEP.ft        0.5000                                  : Step
NULL.          -999.2500                               : Null Value
COMP.          CONOCO U.K. LTD                         : Company
WELL.          9/19-10Z                                : Well
FLD .          SORBY                                   : Field
LOC .          NORTH SEA                               : Location
LOC1.          -                                       : Location (UTM)
CTRY.          UK                                      : Country
PROV.          UKCS                                    : Province
UWI .          18190                                   : UWI Number
API .          -                                       : API Number
SECT.          -                                       : Section
TOWN.          -                                       : Township
RNGE.          -                                       : Range
PDAT.          M.S.L.                                  : Perm Datum
EPD .ft        0.00                                    : Elevation
LMF .          RT                                      : Log Measured From
DMF .          RT                                      : Drill Measured From
APD .ft        75.00                                   : Above Perm Datum
EKB .          -                                       : Elev-Kelly Bushing
EDF .ft        75.00                                   : Elev-Drill Floor
EGL .ft        -385.00                                 : Elev-Ground Level (Water Depth)
TDD .ft        12700.00                                : Total Depth (Driller)
SRVC.          ATLAS WIRELINE                          : Service Company
LATI.          59 25 54.97 N                           : Latitude
LONG.          01 40 32.75 E                           : Longitude
DATE.          JUN-AUG-1993                            : Logging Date
PROJ.          UKCS                                    : Project
SET .          COMP WIRE                               : Set
~Curve Information Section
DEPTH.ft                                               : Depth Curve
CALX.in                                                : Caliper
CNC.pu                                                 : Compensated Neutron Porosity
DT24.us/ft                                             : Delta-T
GR.gAPI                                                : Gamma Ray
PE.B/e                                                 : Photo-electric
RIPD.Ohm*m                                             : Deep Induction Resistivity
RIPM.Ohm*m                                             : Medium Induction Resistivity
ZCOR.g/cc                                              : ZDL Density Correction
ZDEN.g/cc                                              : ZDL Bulk Density
~ASCII Log Data Section
# ...
11004.5000         9.0449        38.4232        90.6380        90.5527         4.3393         1.6000         1.6188         0.0167         2.6271     
11005.0000         9.0450        40.8936        92.3066        91.9627         4.3271         1.5521         1.5870         0.0091         2.6139     
11005.5000         9.0462        42.4340        93.5349        93.2479         4.3754         1.5199         1.5503         0.0142         2.5905     
11006.0000         9.0481        43.1177        94.0393        94.4760         4.3649         1.4921         1.4998         0.0223         2.5767     
11006.5000         9.0490        44.7274        94.0505        96.3936         4.0976         1.4616         1.4803         0.0278         2.5760     
11007.0000         9.0484        45.6168        94.2679        98.4386         3.8414         1.4448         1.4640         0.0337         2.5759     
11007.5000         9.0477        42.7735        94.3732        99.7392         3.8312         1.4327         1.4643         0.0415         2.5705     
11008.0000         9.0476        40.8498        93.9071        99.9004         3.9039         1.4368         1.4782         0.0436         2.5642     
11008.5000         9.0477        42.5649        93.4313        98.1868         3.9304         1.4444         1.5206         0.0359         2.5621     
11009.0000         9.0483        44.1595        93.0240        95.8528         3.9574         1.4647         1.5470         0.0323         2.5662     
11009.5000         9.0486        43.0697        92.5545        94.7331         3.9922         1.5131         1.5783         0.0373         2.5754     
11010.0000         9.0480        43.4085        91.9111        94.0380         3.9977         1.5760         1.6175         0.0447         2.5900     
11010.5000         9.0480        45.1567        90.9995        92.0122         3.9937         1.6282         1.6552         0.0449         2.6091     
11011.0000         9.0493        43.5314        90.3642        90.0065         3.9967         1.6556         1.6946         0.0349         2.6216     
11011.5000         9.0501        38.8032        90.3945        90.3895         4.0136         1.6607         1.7125         0.0280         2.6178     
11012.0000         9.0505        34.5658        91.2281        93.1764         4.0224         1.6535         1.7186         0.0330         2.6038     
11012.5000         9.0515        33.8508        92.4042        95.4896         4.0030         1.6336         1.6688         0.0369         2.5921     
11013.0000         9.0530        36.5755        92.8643        96.0896         4.0350         1.6164         1.6263         0.0293         2.5861     
11013.5000         9.0541        39.0094        91.8778        96.5074         4.1548         1.5969         1.6049         0.0211         2.5814     
11014.0000         9.0520        38.0655        90.6436        96.5684         4.3832         1.5781         1.5997         0.0219         2.5802     
11014.5000         9.0466        37.6402        90.0776        95.2675         4.7298         1.5636         1.5899         0.0281         2.5950     
11015.0000         9.0413        39.8913        89.9280        93.0300         4.8884         1.5478         1.6049         0.0190         2.6237     
11015.5000         9.0390        42.8601        90.9200        91.2076         4.6744         1.5407         1.6079         0.0043         2.6400     
11016.0000         9.0398        43.9795        92.3280        90.6517         4.4431         1.5593         1.6276         0.0088         2.6302     
11016.5000         9.0425        43.0236        92.6966        91.8582         4.3563         1.5905         1.6245         0.0219         2.6101     
11017.0000         9.0453        39.4457        92.4185        93.7606         4.1490         1.6183         1.6748         0.0277         2.5952     
11017.5000         9.0472        35.8614        91.8230        94.2849         3.7861         1.6726         1.7153         0.0358         2.5866     
11018.0000         9.0474        34.1342        90.0713        92.5134         3.5543         1.7075         1.7600         0.0403         2.5796     
11018.5000         9.0469        32.1026        88.1495        89.3160         3.6494         1.7212         1.7782         0.0381         2.5771     
11019.0000         9.0467        28.5213        87.1834        86.8633         3.9962         1.7537         1.8023         0.0371         2.5892     
11019.5000         9.0457        26.9527        86.6101        85.9281         4.2555         1.7384         1.8114         0.0294         2.6150     
11020.0000         9.0437        29.0949        87.1036        85.2195         4.1781         1.7345         1.8098         0.0168         2.6364     
11020.5000         9.0433        31.2217        88.9516        84.1506         4.0798         1.7582         1.7744         0.0160         2.6383     
11021.0000         9.0451        29.3398        90.4635        84.7997         4.0799         1.7292         1.7306         0.0219         2.6235     
11021.5000         9.0466        28.4495        91.3941        88.2665         4.0932         1.6992         1.6986         0.0238         2.6034     
11022.0000         9.0472        31.3708        91.7732        91.7408         4.1025         1.7041         1.6941         0.0260         2.5858     
11022.5000         9.0474        33.8130        91.1772        91.9133         4.1018         1.7013         1.7106         0.0274         2.5733     
11023.0000         9.0467        33.3223        90.5375        90.3660         4.1107         1.6872         1.7317         0.0245         2.5672     
11023.5000         9.0453        33.8772        90.4203        89.8864         4.1551         1.6881         1.7405         0.0264         2.5699     
11024.0000         9.0440        36.2406        90.0443        89.6583         4.2071         1.7105         1.7719         0.0343         2.5796     
11024.5000         9.0418        37.4839        88.7265        88.2435         4.0389         1.6995         1.7870         0.0395         2.5905     
11025.0000         9.0400        34.8335        88.0745        85.6943         3.9159         1.6839         1.7462         0.0381         2.6019     
11025.5000         9.0405        32.4231        88.6856        83.2607         3.8892         1.6679         1.6887         0.0287         2.6147     
11026.0000         9.0419        32.4118        89.3689        83.2313         3.8959         1.6560         1.6354         0.0175         2.6191     
11026.5000         9.0433        34.0519        90.8365        86.6656         3.9032         1.6574         1.6362         0.0193         2.6083     
11027.0000         9.0443        35.2438        91.8806        91.1993         3.9616         1.6552         1.6345         0.0344         2.5957     
11027.5000         9.0437        34.8282        90.9011        93.3289         4.0066         1.5968         1.6317         0.0461         2.5940     
11028.0000         9.0404        33.6291        89.9938        91.4074         4.2028         1.5558         1.6163         0.0504         2.6020     
11028.5000         9.0335        34.5279        90.1261        88.4361         4.7401         1.5223         1.5732         0.0399         2.6190     
11029.0000         9.0221        36.9320        90.8818        88.4130         5.0386         1.5004         1.5501         0.0155         2.6380     
11029.5000         9.0104        36.8079        92.8284        91.2253         4.5964         1.5066         1.5324         0.0050         2.6354     
11030.0000         9.0064        35.5095        94.7590        94.6292         4.0207         1.5045         1.5097         0.0173         2.6073     
11030.5000         9.0116        34.8428        95.4968        97.8992         3.7700         1.4936         1.5108         0.0272         2.5797     
