~Version Information Section
VERS.          2.0                                     : CWLS LOG ASCII Standard
WRAP.          NO                                      : One line per depth step
CREA.          05/26/17                                : LAS Creation Date
~Well Information Section
STRT.ft        10050.5000                              : Start Depth
STOP.ft        12688.0000                              : Stop Depth
STEP.ft        0.5000                                  : Step
NULL.          -999.2500                               : Null Value
COMP.          CONOCO U.K. LTD                         : Company
WELL.          9/19-10Z                                : Well
FLD .          SORBY                                   : Field
LOC .          NORTH SEA                               : Location
LOC1.          -                                       : Location (UTM)
CTRY.          UK                                      : Country
PROV.          UKCS                                    : Province
UWI .          18190                                   : UWI Number
API .          -                                       : API Number
SECT.          -                                       : Section
TOWN.          -                                       : Township
RNGE.          -                                       : Range
PDAT.          M.S.L.                                  : Perm Datum
EPD .ft        0.00                                    : Elevation
LMF .          RT                                      : Log Measured From
DMF .          RT                                      : Drill Measured From
APD .ft        75.00                                   : Above Perm Datum
EKB .          -                                       : Elev-Kelly Bushing
EDF .ft        75.00                                   : Elev-Drill Floor
EGL .ft        -385.00                                 : Elev-Ground Level (Water Depth)
TDD .ft        12700.00                                : Total Depth (Driller)
SRVC.          ATLAS WIRELINE                          : Service Company
LATI.          59 25 54.97 N                           : Latitude
LONG.          01 40 32.75 E                           : Longitude
DATE.          JUN-AUG-1993                            : Logging Date
PROJ.          UKCS                                    : Project
SET .          COMP WIRE                               : Set
~Curve Information Section
DEPTH.ft                                               : Depth Curve
CALX.in                                                : Caliper
CNC.pu                                                 : Compensated Neutron Porosity
DT24.us/ft                                             : Delta-T
GR.gAPI                                                : Gamma Ray
PE.B/e                                                 : Photo-electric
RIPD.Ohm*m                                             : Deep Induction Resistivity
RIPM.Ohm*m                                             : Medium Induction Resistivity
ZCOR.g/cc                                              : ZDL Density Correction
ZDEN.g/cc                                              : ZDL Bulk Density
~ASCII Log Data Section
# ...
11746.5000         8.7218        42.9234        98.5123       108.6262         4.6855         2.1946         2.2308         0.0237         2.5200     
11747.0000         8.7224        45.5401        99.1751       109.4004         4.7460         2.1703         2.2137         0.0270         2.5136     
11747.5000         8.7234        44.5858        99.6840       108.9240         4.4414         2.1630         2.2081         0.0267         2.5155     
11748.0000         8.7234        41.2856       100.0178       108.6841         4.1090         2.1791         2.2134         0.0238         2.5181     
11748.5000         8.7243        39.9309        99.8806       110.4768         4.0256         2.1708         2.2191         0.0243         2.5155     
11749.0000         8.7267        42.2031        99.5892       113.4576         4.1056         2.1725         2.2569         0.0263         2.5101     
11749.5000         8.7298        45.6708        99.2560       113.9547         4.2133         2.1810         2.2448         0.0258         2.5074     
11750.0000         8.7320        47.7657        99.0396       112.0427         4.3265         2.1876         2.2430         0.0235         2.5093     
11750.5000         8.7308        47.8098        99.1370       111.1447         4.4032         2.2028         2.2475         0.0208         2.5153     
11751.0000         8.7274        46.4968        99.1885       112.2342         4.3898         2.2438         2.2534         0.0201         2.5246     
11751.5000         8.7261        44.9104        98.9726       113.4568         4.2038         2.2277         2.2593         0.0233         2.5318     
11752.0000         8.7272        43.8868        98.4820       114.0863         3.9253         2.2195         2.2649         0.0305         2.5328     
11752.5000         8.7278        42.7871        97.7850       113.8471         3.6859         2.2117         2.2653         0.0369         2.5334     
11753.0000         8.7272        42.8148        97.1173       112.5716         3.6167         2.1875         2.2480         0.0397         2.5396     
11753.5000         8.7267        44.1977        97.1138       111.1858         3.8573         2.1637         2.2068         0.0389         2.5478     
11754.0000         8.7270        44.4594        97.8516       110.8876         4.2627         2.1646         2.1840         0.0380         2.5522     
11754.5000         8.7278        43.1044        98.7979       110.8442         4.3595         2.1250         2.1497         0.0382         2.5508     
11755.0000         8.7287        45.1675        99.7349       110.1902         4.0088         2.1169         2.1436         0.0395         2.5432     
11755.5000         8.7313        49.1096       100.0812       109.4622         3.6532         2.1242         2.1433         0.0416         2.5332     
11756.0000         8.7341        49.1167        99.8057       108.8880         3.5314         2.0933         2.1434         0.0447         2.5287     
11756.5000         8.7348        46.4926        99.3693       108.9252         3.5500         2.0781         2.1378         0.0456         2.5295     
11757.0000         8.7332        44.8052        98.5987       110.0151         3.6801         2.0706         2.1267         0.0403         2.5255     
11757.5000         8.7312        43.2102        98.0624       112.2237         3.8481         2.0795         2.1390         0.0318         2.5174     
11758.0000         8.7312        43.5392        98.0451       114.2940         3.8666         2.1032         2.1568         0.0311         2.5178     
11758.5000         8.7326        48.5338        98.2594       115.6647         3.8536         2.1330         2.1728         0.0350         2.5257     
11759.0000         8.7328        50.8021        98.6456       116.1223         3.8580         2.1149         2.1590         0.0353         2.5287     
11759.5000         8.7315        47.8335        98.7580       115.9264         3.8690         2.0976         2.1689         0.0321         2.5273     
11760.0000         8.7318        46.7213        98.5686       115.7980         3.8799         2.0824         2.1408         0.0300         2.5296     
11760.5000         8.7344        50.3837        98.2798       115.8840         3.8936         2.0691         2.1153         0.0305         2.5341     
11761.0000         8.7365        53.8707        97.8195       116.4481         3.8986         2.0932         2.0955         0.0357         2.5371     
11761.5000         8.7359        50.9848        97.5139       116.3934         3.9247         2.1074         2.1058         0.0406         2.5437     
11762.0000         8.7345        45.7147        97.4490       114.9022         4.0090         2.1281         2.1656         0.0392         2.5592     
11762.5000         8.7342        42.2759        97.5151       113.0306         4.1144         2.1677         2.2242         0.0308         2.5759     
11763.0000         8.7338        40.1921        97.6696       111.6025         4.1571         2.1453         2.2681         0.0230         2.5807     
11763.5000         8.7326        38.5424        97.6243       111.1308         4.0280         2.1772         2.2993         0.0234         2.5710     
11764.0000         8.7323        38.0009        97.0075       111.8779         3.8393         2.2244         2.3222         0.0291         2.5548     
11764.5000         8.7333        38.5339        96.1245       112.6933         3.7434         2.2804         2.3682         0.0324         2.5408     
11765.0000         8.7335        39.3926        95.8736       112.2410         3.6405         2.3259         2.3851         0.0331         2.5345     
11765.5000         8.7332        41.0172        96.1389       112.2933         3.5662         2.3722         2.4227         0.0329         2.5338     
11766.0000         8.7338        44.0176        96.7219       113.7085         3.5575         2.3885         2.4430         0.0315         2.5318     
11766.5000         8.7341        47.4959        97.5273       114.3623         3.6562         2.3858         2.4629         0.0303         2.5268     
11767.0000         8.7327        48.3666        98.0063       112.5228         3.8149         2.3938         2.4695         0.0310         2.5233     
11767.5000         8.7308        46.3423        98.1116       110.6470         3.9644         2.3835         2.4688         0.0337         2.5243     
11768.0000         8.7312        46.2090        98.2842       111.2321         4.1571         2.4192         2.4832         0.0357         2.5253     
11768.5000         8.7334        49.8253        98.5424       112.7467         4.3476         2.4094         2.4761         0.0329         2.5212     
11769.0000         8.7341        52.7315        98.7473       113.0082         4.3775         2.4002         2.4629         0.0316         2.5155     
11769.5000         8.7329        52.5177        98.7695       112.9880         4.2379         2.3922         2.4358         0.0370         2.5118     
11770.0000         8.7322        51.3842        98.5650       113.0059         4.0837         2.4300         2.4294         0.0385         2.5065     
11770.5000         8.7319        47.8099        98.2665       112.4204         4.0513         2.5277         2.4572         0.0338         2.5005     
11771.0000         8.7310        43.5158        97.7767       111.8507         4.0370         2.6921         2.5949         0.0328         2.4999     
11771.5000         8.7301        39.3276        97.4770       110.8297         4.0016         2.8415         2.8979         0.0334         2.5041     
11772.0000         8.7291        40.3194        95.7733       108.4105         3.9761         2.8554         3.2045         0.0273         2.5109     
11772.5000         8.7270        41.1956        92.2109       105.3230         3.9579         2.7787         3.1792         0.0224         2.5214     
