~Version Information Section
VERS.          2.0                                     : CWLS LOG ASCII Standard
WRAP.          NO                                      : One line per depth step
CREA.          05/26/17                                : LAS Creation Date
~Well Information Section
STRT.ft        10050.5000                              : Start Depth
STOP.ft        12688.0000                              : Stop Depth
STEP.ft        0.5000                                  : Step
NULL.          -999.2500                               : Null Value
COMP.          CONOCO U.K. LTD                         : Company
WELL.          9/19-10Z                                : Well
FLD .          SORBY                                   : Field
LOC .          NORTH SEA                               : Location
LOC1.          -                                       : Location (UTM)
CTRY.          UK                                      : Country
PROV.          UKCS                                    : Province
UWI .          18190                                   : UWI Number
API .          -                                       : API Number
SECT.          -                                       : Section
TOWN.          -                                       : Township
RNGE.          -                                       : Range
PDAT.          M.S.L.                                  : Perm Datum
EPD .ft        0.00                                    : Elevation
LMF .          RT                                      : Log Measured From
DMF .          RT                                      : Drill Measured From
APD .ft        75.00                                   : Above Perm Datum
EKB .          -                                       : Elev-Kelly Bushing
EDF .ft        75.00                                   : Elev-Drill Floor
EGL .ft        -385.00                                 : Elev-Ground Level (Water Depth)
TDD .ft        12700.00                                : Total Depth (Driller)
SRVC.          ATLAS WIRELINE                          : Service Company
LATI.          59 25 54.97 N                           : Latitude
LONG.          01 40 32.75 E                           : Longitude
DATE.          JUN-AUG-1993                            : Logging Date
PROJ.          UKCS                                    : Project
SET .          COMP WIRE                               : Set
~Curve Information Section
DEPTH.ft                                               : Depth Curve
CALX.in                                                : Caliper
CNC.pu                                                 : Compensated Neutron Porosity
DT24.us/ft                                             : Delta-T
GR.gAPI                                                : Gamma Ray
PE.B/e                                                 : Photo-electric
RIPD.Ohm*m                                             : Deep Induction Resistivity
RIPM.Ohm*m                                             : Medium Induction Resistivity
ZCOR.g/cc                                              : ZDL Density Correction
ZDEN.g/cc                                              : ZDL Bulk Density
~ASCII Log Data Section
# ...
12621.0000         8.4952      -999.2500        74.5291      -999.2500         4.8909        14.2455        14.4561         0.0349         2.6747     
12621.5000         8.4960      -999.2500        74.7290      -999.2500         5.0562        13.7951        13.3854         0.0299         2.6846     
12622.0000         8.4956      -999.2500        73.5801      -999.2500         4.7021        13.2270        12.3557         0.0132         2.7009     
12622.5000         8.4933      -999.2500        71.4137      -999.2500         4.1577        13.0526        11.7488         0.0041         2.7096     
12623.0000         8.4900      -999.2500        69.8414      -999.2500         3.8281        13.1685        11.8661         0.0180         2.7039     
12623.5000         8.4879      -999.2500        69.2503      -999.2500         3.6743        13.4936        12.9437         0.0378         2.6824     
12624.0000         8.4883      -999.2500        68.9698      -999.2500         3.5918        13.6890        13.9523         0.0458         2.6418     
12624.5000         8.4907      -999.2500        68.8323      -999.2500         3.5720        14.2540        14.8362         0.0393         2.6284     
12625.0000         8.4929      -999.2500        68.3185      -999.2500         3.5169        15.4412        16.8139         0.0229         2.6201     
12625.5000         8.4930      -999.2500        67.5822      -999.2500         3.2077        16.8747        19.8618         0.0072         2.6023     
12626.0000         8.4922      -999.2500        67.4997      -999.2500         2.8054        19.2931        22.8460         0.0056         2.5733     
12626.5000         8.4926      -999.2500        68.5708      -999.2500         2.5703        21.5044        24.9429         0.0165         2.5428     
12627.0000         8.4922      -999.2500        70.3826      -999.2500         2.5450        22.9868        27.1576         0.0273         2.5193     
12627.5000         8.4888      -999.2500        72.0867      -999.2500         2.6020        24.4340        29.0260         0.0309         2.5059     
12628.0000         8.4847      -999.2500        72.2232      -999.2500         2.7441        25.9746        30.3938         0.0313         2.5052     
12628.5000         8.4832      -999.2500        70.7423      -999.2500         2.9723        26.3788        31.3538         0.0354         2.5247     
12629.0000         8.4841      -999.2500        68.5139      -999.2500         3.2990        26.2968        32.4047         0.0403         2.5678     
12629.5000         8.4866      -999.2500        66.8463      -999.2500         3.6904        26.0686        32.2748         0.0398         2.6207     
12630.0000         8.4909      -999.2500        66.3325      -999.2500         4.0076        25.7843        32.5603         0.0334         2.6624     
12630.5000         8.4951      -999.2500        66.4837      -999.2500         4.2335        25.3568        32.3394         0.0329         2.6909     
12631.0000         8.4957      -999.2500        66.0517      -999.2500         4.5992        25.3457        32.0694         0.0481         2.7175     
12631.5000         8.4918      -999.2500        64.2298      -999.2500         5.2314        25.2009        31.6223         0.0693         2.7439     
12632.0000         8.4863      -999.2500        62.7222      -999.2500         5.7775        24.9430        31.0963         0.0710         2.7655     
12632.5000         8.4795      -999.2500        62.0684      -999.2500         5.6227        24.1430        29.8027         0.0426         2.7748     
12633.0000         8.4719      -999.2500        61.9614      -999.2500         4.7539        23.2922        26.8687         0.0131         2.7603     
12633.5000         8.4691      -999.2500        63.2608      -999.2500         3.8974        22.2806        24.2882         0.0093         2.7237     
12634.0000         8.4746      -999.2500        64.8107      -999.2500         3.6085        21.2946        22.7590         0.0183         2.6886     
12634.5000         8.4805      -999.2500        65.2897      -999.2500         3.8923        20.1848        21.7238         0.0218         2.6761     
12635.0000         8.4800      -999.2500        65.5744      -999.2500         4.4485        19.0457        20.5831         0.0254         2.6923     
12635.5000         8.4758      -999.2500        66.1319      -999.2500         4.6755        17.9687        19.0797         0.0241         2.7236     
12636.0000         8.4729      -999.2500        66.8501      -999.2500         4.2281        17.1832        17.4787         0.0162         2.7354     
12636.5000         8.4720      -999.2500        68.1472      -999.2500         3.7515        16.4491        16.1503         0.0116         2.7082     
12637.0000         8.4722      -999.2500        70.0297      -999.2500         3.7135        15.8441        15.3697         0.0147         2.6676     
12637.5000         8.4721      -999.2500        71.3114      -999.2500         3.7720        15.3683        14.8169         0.0189         2.6461     
12638.0000         8.4716      -999.2500        71.7233      -999.2500         3.7804        14.6634        14.3940         0.0282         2.6479     
12638.5000         8.4709      -999.2500        71.8695      -999.2500         3.7480        14.5943        14.3724         0.0354         2.6582     
12639.0000         8.4707      -999.2500        71.7321      -999.2500         3.7970        14.8283        14.6269         0.0293         2.6625     
12639.5000         8.4719      -999.2500        71.5502      -999.2500         4.1441        15.1536        15.0805         0.0249         2.6613     
12640.0000         8.4729      -999.2500        71.5695      -999.2500         4.5762        15.3686        15.6009         0.0288         2.6633     
12640.5000         8.4716      -999.2500        70.9418      -999.2500         4.6886        15.6406        16.2189         0.0225         2.6690     
12641.0000         8.4690      -999.2500        69.4183      -999.2500         4.6782        15.7018        17.4766         0.0094         2.6763     
12641.5000         8.4686      -999.2500        68.2596      -999.2500         4.7277        15.3332        16.7202         0.0135         2.6919     
12642.0000         8.4689      -999.2500        68.1899      -999.2500         4.6573        14.8605        14.3166         0.0239         2.7121     
12642.5000         8.4658      -999.2500        69.0449      -999.2500         4.0757        14.1997        13.0636         0.0204         2.7132     
12643.0000         8.4609      -999.2500        70.7725      -999.2500         3.4282        13.5738        12.4005         0.0170         2.6875     
12643.5000         8.4585      -999.2500        72.3711      -999.2500         3.1613        12.7738        11.9475         0.0240         2.6563     
12644.0000         8.4587      -999.2500      -999.2500      -999.2500         3.2032        11.8185        11.3138         0.0267         2.6369     
12644.5000         8.4595      -999.2500      -999.2500      -999.2500         3.3597        11.1685        10.5775         0.0257         2.6279     
12645.0000         8.4609      -999.2500      -999.2500      -999.2500         3.5328        10.6339        10.0976         0.0239         2.6221     
12645.5000      -999.2500      -999.2500      -999.2500      -999.2500      -999.2500        10.3351         9.9154      -999.2500      -999.2500     
12646.0000      -999.2500      -999.2500      -999.2500      -999.2500      -999.2500        10.1241         9.8647      -999.2500      -999.2500     
12646.5000      -999.2500      -999.2500      -999.2500      -999.2500      -999.2500        10.0495         9.8992      -999.2500      -999.2500     
12647.0000      -999.2500      -999.2500      -999.2500      -999.2500      -999.2500        10.1541        10.0533      -999.2500      -999.2500     
