~Version Information Section
VERS.          2.0                                     : CWLS LOG ASCII Standard
WRAP.          NO                                      : One line per depth step
CREA.          05/26/17                                : LAS Creation Date
~Well Information Section
STRT.ft        10050.5000                              : Start Depth
STOP.ft        12688.0000                              : Stop Depth
STEP.ft        0.5000                                  : Step
NULL.          -999.2500                               : Null Value
COMP.          CONOCO U.K. LTD                         : Company
WELL.          9/19-10Z                                : Well
FLD .          SORBY                                   : Field
LOC .          NORTH SEA                               : Location
LOC1.          -                                       : Location (UTM)
CTRY.          UK                                      : Country
PROV.          UKCS                                    : Province
UWI .          18190                                   : UWI Number
API .          -                                       : API Number
SECT.          -                                       : Section
TOWN.          -                                       : Township
RNGE.          -                                       : Range
PDAT.          M.S.L.                                  : Perm Datum
EPD .ft        0.00                                    : Elevation
LMF .          RT                                      : Log Measured From
DMF .          RT                                      : Drill Measured From
APD .ft        75.00                                   : Above Perm Datum
EKB .          -                                       : Elev-Kelly Bushing
EDF .ft        75.00                                   : Elev-Drill Floor
EGL .ft        -385.00                                 : Elev-Ground Level (Water Depth)
TDD .ft        12700.00                                : Total Depth (Driller)
SRVC.          ATLAS WIRELINE                          : Service Company
LATI.          59 25 54.97 N                           : Latitude
LONG.          01 40 32.75 E                           : Longitude
DATE.          JUN-AUG-1993                            : Logging Date
PROJ.          UKCS                                    : Project
SET .          COMP WIRE                               : Set
~Curve Information Section
DEPTH.ft                                               : Depth Curve
CALX.in                                                : Caliper
CNC.pu                                                 : Compensated Neutron Porosity
DT24.us/ft                                             : Delta-T
GR.gAPI                                                : Gamma Ray
PE.B/e                                                 : Photo-electric
RIPD.Ohm*m                                             : Deep Induction Resistivity
RIPM.Ohm*m                                             : Medium Induction Resistivity
ZCOR.g/cc                                              : ZDL Density Correction
ZDEN.g/cc                                              : ZDL Bulk Density
~ASCII Log Data Section
# ...
10872.0000         9.0415        34.1408        94.5772        79.0269         4.5593         1.3208         1.3480         0.0265         2.5477     
10872.5000         9.0375        33.7665        94.6328        78.9814         4.3492         1.3463         1.3627         0.0274         2.5568     
10873.0000         9.0375        34.1208        94.7879        79.0560         4.0988         1.3908         1.4167         0.0251         2.5560     
10873.5000         9.0428        32.1006        94.2228        78.8954         3.9953         1.4684         1.5176         0.0252         2.5481     
10874.0000         9.0473        28.9186        90.8875        76.3225         3.9960         1.5458         1.6648         0.0355         2.5453     
10874.5000         9.0463        26.1039        85.1202        70.3944         4.0767         1.5554         1.7578         0.0438         2.5528     
10875.0000         9.0420        23.5267        81.5844        64.7568         4.2821         1.5219         1.6787         0.0437         2.5588     
10875.5000         9.0407        23.2011        81.9000        65.5968         4.4162         1.5175         1.5713         0.0390         2.5502     
10876.0000         9.0433        27.2884        85.2908        72.2280         4.4116         1.5219         1.5201         0.0310         2.5331     
10876.5000         9.0450        33.9459        90.4393        77.3600         4.3777         1.5444         1.4911         0.0193         2.5227     
10877.0000         9.0443        36.2512        93.5415        77.9666         4.3306         1.5193         1.4546         0.0077         2.5215     
10877.5000         9.0448        35.5724        93.6554        77.6806         4.2295         1.4604         1.4281         0.0021         2.5252     
10878.0000         9.0459        35.5212        93.3379        78.1657         3.9434         1.4646         1.4600         0.0064         2.5313     
10878.5000         9.0450        34.0076        92.8236        77.3100         3.6161         1.5000         1.5555         0.0156         2.5378     
10879.0000         9.0420        31.2777        89.3706        72.3114         3.5872         1.4953         1.6609         0.0191         2.5412     
10879.5000         9.0400        29.7782        84.9422        64.0590         3.8137         1.4857         1.6892         0.0185         2.5390     
10880.0000         9.0412        29.4233        83.5820        59.5552         3.8921         1.4847         1.6089         0.0206         2.5331     
10880.5000         9.0436        29.1664        84.5460        63.8111         3.8495         1.5073         1.5400         0.0265         2.5294     
10881.0000         9.0451        29.2045        88.2836        72.3775         3.7746         1.5651         1.5407         0.0298         2.5307     
10881.5000         9.0459        31.1926        92.4589        77.9381         3.7209         1.6748         1.5911         0.0315         2.5342     
10882.0000         9.0462        35.0066        93.2600        78.5618         3.6941         1.7107         1.6761         0.0366         2.5385     
10882.5000         9.0447        35.3661        90.2623        76.3425         3.7489         1.7107         1.7757         0.0428         2.5458     
10883.0000         9.0430        29.4564        84.3302        73.8349         3.9918         1.6587         1.8560         0.0432         2.5598     
10883.5000         9.0420        22.9909        80.6690        71.9152         4.4509         1.6204         1.8508         0.0386         2.5843     
10884.0000         9.0383        21.5007        80.7596        69.6188         4.8906         1.6459         1.7426         0.0277         2.6120     
10884.5000         9.0292        23.6467        83.6223        66.9969         4.9557         1.6868         1.6778         0.0116         2.6212     
10885.0000         9.0195        24.8133        89.0762        64.9754         4.7090         1.7607         1.6799         0.0074         2.6051     
10885.5000         9.0180        24.4045        91.7435        63.5570         4.5422         1.7310         1.6576         0.0219         2.5833     
10886.0000         9.0261        25.6857        90.7259        63.0837         4.6336         1.6226         1.6231         0.0346         2.5726     
10886.5000         9.0366        27.9385        90.1946        63.8444         4.9093         1.5557         1.5773         0.0385         2.5749     
10887.0000         9.0439        31.2406        90.5000        65.3155         5.2129         1.5709         1.6037         0.0452         2.5870     
10887.5000         9.0477        35.8981        90.4890        66.7250         5.4439         1.6294         1.7176         0.0576         2.6023     
10888.0000         9.0505        37.6568        88.1465        67.7441         5.5643         1.6891         1.8534         0.0667         2.6148     
10888.5000         9.0515        32.4435        84.8942        70.1020         5.6012         1.7153         1.8711         0.0664         2.6243     
10889.0000         9.0486        27.7897        83.0762        74.1352         5.5636         1.7414         1.8344         0.0526         2.6301     
10889.5000         9.0417        26.5933        81.9577        77.8519         5.2772         1.8162         1.8511         0.0357         2.6256     
10890.0000         9.0346        29.2627        83.7003        80.0953         4.8223         1.9532         1.9241         0.0313         2.6104     
10890.5000         9.0322        34.9014        86.2200        80.9787         4.4679         2.0390         2.0101         0.0350         2.5940     
10891.0000         9.0352        38.6626        86.1809        79.8155         4.2966         1.9814         2.0657         0.0353         2.5869     
10891.5000         9.0390        36.7199        86.7073        77.3508         4.2720         1.9048         2.0199         0.0343         2.5917     
10892.0000         9.0407        34.0831        87.9323        76.3997         4.3014         1.8335         1.9476         0.0329         2.6026     
10892.5000         9.0410        32.6678        89.1464        78.7927         4.3822         1.8088         1.8507         0.0278         2.6092     
10893.0000         9.0412        33.2205        91.6680        83.2593         4.5401         1.8207         1.7917         0.0239         2.6064     
10893.5000         9.0423        37.4279        94.6971        86.4331         4.7088         1.8151         1.7604         0.0288         2.6009     
10894.0000         9.0445        40.7143        96.0175        87.6929         4.7520         1.7681         1.7378         0.0350         2.6019     
10894.5000         9.0467        34.6236        94.9409        88.1998         4.6962         1.7024         1.7190         0.0327         2.6096     
10895.0000         9.0475        29.1243        92.9217        87.8423         4.5183         1.6719         1.7078         0.0246         2.6168     
10895.5000         9.0474        30.2790        90.4826        86.5223         4.3784         1.6506         1.7040         0.0223         2.6183     
10896.0000         9.0470        34.3147        88.8747        85.7692         4.3110         1.6500         1.6998         0.0250         2.6142     
10896.5000         9.0456        34.9305        88.7818        85.4997         4.4254         1.6658         1.7256         0.0271         2.6096     
10897.0000         9.0433        33.1842        89.4329        85.1127         4.6338         1.6964         1.7293         0.0260         2.6091     
10897.5000         9.0423        31.4167        90.6174        85.5308         4.7589         1.6958         1.7288         0.0256         2.6120     
10898.0000         9.0447        30.3799        91.9360        86.8878         4.7556         1.7119         1.7406         0.0253         2.6139     
