~Version Information Section
VERS.          2.0                                     : CWLS LOG ASCII Standard
WRAP.          NO                                      : One line per depth step
CREA.          05/26/17                                : LAS Creation Date
~Well Information Section
STRT.ft        10050.5000                              : Start Depth
STOP.ft        12688.0000                              : Stop Depth
STEP.ft        0.5000                                  : Step
NULL.          -999.2500                               : Null Value
COMP.          CONOCO U.K. LTD                         : Company
WELL.          9/19-10Z                                : Well
FLD .          SORBY                                   : Field
LOC .          NORTH SEA                               : Location
LOC1.          -                                       : Location (UTM)
CTRY.          UK                                      : Country
PROV.          UKCS                                    : Province
UWI .          18190                                   : UWI Number
API .          -                                       : API Number
SECT.          -                                       : Section
TOWN.          -                                       : Township
RNGE.          -                                       : Range
PDAT.          M.S.L.                                  : Perm Datum
EPD .ft        0.00                                    : Elevation
LMF .          RT                                      : Log Measured From
DMF .          RT                                      : Drill Measured From
APD .ft        75.00                                   : Above Perm Datum
EKB .          -                                       : Elev-Kelly Bushing
EDF .ft        75.00                                   : Elev-Drill Floor
EGL .ft        -385.00                                 : Elev-Ground Level (Water Depth)
TDD .ft        12700.00                                : Total Depth (Driller)
SRVC.          ATLAS WIRELINE                          : Service Company
LATI.          59 25 54.97 N                           : Latitude
LONG.          01 40 32.75 E                           : Longitude
DATE.          JUN-AUG-1993                            : Logging Date
PROJ.          UKCS                                    : Project
SET .          COMP WIRE                               : Set
~Curve Information Section
DEPTH.ft                                               : Depth Curve
CALX.in                                                : Caliper
CNC.pu                                                 : Compensated Neutron Porosity
DT24.us/ft                                             : Delta-T
GR.gAPI                                                : Gamma Ray
PE.B/e                                                 : Photo-electric
RIPD.Ohm*m                                             : Deep Induction Resistivity
RIPM.Ohm*m                                             : Medium Induction Resistivity
ZCOR.g/cc                                              : ZDL Density Correction
ZDEN.g/cc                                              : ZDL Bulk Density
~ASCII Log Data Section
# ...
10580.5000         8.9636        31.9770        89.5010        85.9173         4.3757         2.0423         2.0558         0.0193         2.5850     
10581.0000         8.9616        30.2881        89.3021        84.3193         4.3941         2.0371         2.0516         0.0149         2.5818     
10581.5000         8.9623        26.9600        89.0714        83.6784         4.4485         2.0384         2.0467         0.0147         2.5845     
10582.0000         8.9643        25.9324        88.3563        82.6728         4.4555         2.0242         2.0409         0.0194         2.5911     
10582.5000         8.9650        27.1874        87.6913        80.7920         4.4688         2.0246         2.0011         0.0253         2.5969     
10583.0000         8.9644        30.0255        87.7405        78.8546         4.4860         2.0201         1.9835         0.0289         2.6026     
10583.5000         8.9641        33.5311        87.8373        79.1598         4.4711         1.9794         1.9847         0.0288         2.6103     
10584.0000         8.9656        34.3321        88.4014        81.2790         4.4356         1.9851         1.9878         0.0243         2.6136     
10584.5000         8.9688        34.0827        89.1795        82.1151         4.4220         1.9662         1.9887         0.0202         2.6091     
10585.0000         8.9709        34.9422        89.2781        81.1419         4.3737         1.9414         1.9759         0.0214         2.6039     
10585.5000         8.9705        34.8996        89.3247        79.9422         4.2289         1.9413         1.9806         0.0275         2.6032     
10586.0000         8.9708        32.7729        89.3903        79.7356         4.1490         1.9516         1.9836         0.0333         2.6038     
10586.5000         8.9736        30.1066        89.3367        80.9761         4.1265         1.9697         1.9971         0.0329         2.6017     
10587.0000         8.9752        28.8732        89.1036        83.7447         4.1710         1.9867         2.0394         0.0302         2.5983     
10587.5000         8.9747        29.8163        88.5688        86.0011         4.3625         2.0314         2.0714         0.0347         2.5958     
10588.0000         8.9738        31.7056        88.1153        86.5252         4.6847         2.0544         2.1194         0.0417         2.5960     
10588.5000         8.9731        32.9737        87.5033        85.9701         4.8275         2.0838         2.1407         0.0419         2.6014     
10589.0000         8.9706        33.1241        86.7236        84.2082         4.5996         2.0984         2.1569         0.0381         2.6115     
10589.5000         8.9654        30.7187        86.5331        81.8912         4.3554         2.0982         2.1851         0.0359         2.6197     
10590.0000         8.9613        27.8361        86.3831        80.3823         4.4202         2.1058         2.1615         0.0332         2.6218     
10590.5000         8.9608        28.3308        85.9820        79.5741         4.6212         2.1062         2.1505         0.0294         2.6183     
10591.0000         8.9606        29.9535        86.0464        78.9878         4.6083         2.1158         2.1352         0.0264         2.6117     
10591.5000         8.9603        30.5062        86.5127        79.9798         4.6213         2.1089         2.1248         0.0267         2.6057     
10592.0000         8.9612        30.8091        87.1870        82.1495         4.6393         2.0930         2.1132         0.0299         2.6021     
10592.5000         8.9614        31.2163        88.1493        83.9409         4.4966         2.0844         2.1178         0.0330         2.5996     
10593.0000         8.9610        32.0211        88.9016        84.9707         4.4282         2.0843         2.1178         0.0348         2.5976     
10593.5000         8.9631        33.3265        88.9639        84.9417         4.4730         2.0625         2.1129         0.0332         2.5963     
10594.0000         8.9661        31.2848        88.7444        84.1227         4.4415         2.0559         2.0812         0.0294         2.5958     
10594.5000         8.9669        27.1633        88.6738        83.5950         4.4331         2.0494         2.0200         0.0289         2.5993     
10595.0000         8.9650        26.1306        88.7720        83.6337         4.4566         2.0139         1.9669         0.0300         2.6046     
10595.5000         8.9628        28.4441        89.0647        83.7937         4.4899         2.0133         1.9481         0.0255         2.6042     
10596.0000         8.9642        32.0659        89.4258        84.4695         4.4673         1.9277         1.9330         0.0188         2.5974     
10596.5000         8.9686        32.6067        89.6938        86.2637         4.4997         1.8690         1.9279         0.0192         2.5894     
10597.0000         8.9708        30.4146        89.8172        88.1155         4.5758         1.8958         1.8964         0.0233         2.5814     
10597.5000         8.9699        30.6110        89.7639        88.6439         4.5418         1.8843         1.8836         0.0211         2.5729     
10598.0000         8.9694        34.4254        89.6887        87.6815         4.5522         1.8828         1.8776         0.0175         2.5675     
10598.5000         8.9699        37.6635        89.6584        86.7476         4.5324         1.8682         1.8850         0.0224         2.5687     
10599.0000         8.9694        36.4583        89.7038        86.9353         4.4897         1.8942         1.8942         0.0282         2.5713     
10599.5000         8.9661        34.6829        89.8168        87.9945         4.4440         1.8829         1.9281         0.0242         2.5682     
10600.0000         8.9604        34.0057        89.8743        88.8769         4.3800         1.9027         2.0601         0.0208         2.5634     
10600.5000         8.9551        35.1277        90.0009        89.1506         4.3049         1.9008         2.0693         0.0243         2.5645     
10601.0000         8.9519        38.2412        90.0697        89.9118         4.2374         1.8796         2.0668         0.0282         2.5697     
10601.5000         8.9502        40.4681        89.8902        90.5032         4.1941         1.8806         2.0675         0.0293         2.5733     
10602.0000         8.9496        39.7067        89.6412        89.6148         4.1677         1.8957         2.0696         0.0315         2.5749     
10602.5000         8.9505        38.6474        89.2612        88.1505         4.1518         1.9157         2.0806         0.0345         2.5772     
10603.0000         8.9529        37.0875        88.7863        87.4047         4.1146         1.9278         2.0792         0.0342         2.5805     
10603.5000         8.9548        34.9324        88.4958        86.1534         4.0595         1.9460         2.0721         0.0296         2.5838     
10604.0000         8.9547        32.9658        88.3395        85.3830         4.1797         2.0029         2.0721         0.0264         2.5866     
10604.5000         8.9536        31.6371        88.3363        86.8479         4.4491         2.0183         2.0784         0.0316         2.5902     
10605.0000         8.9538        31.8861        88.3173        87.6401         4.5997         2.0255         2.0838         0.0390         2.5946     
10605.5000         8.9555        33.2880        87.9849        85.6452         4.6161         2.0530         2.0935         0.0380         2.5979     
10606.0000         8.9569        33.0736        87.8201        84.2053         4.6327         2.0595         2.0872         0.0308         2.5995     
10606.5000         8.9570        31.2014        87.8401        84.8298         4.7145         2.0525         2.1092         0.0267         2.6009     
