~Version Information Section
VERS.          2.0                                     : CWLS LOG ASCII Standard
WRAP.          NO                                      : One line per depth step
CREA.          05/26/17                                : LAS Creation Date
~Well Information Section
STRT.ft        10050.5000                              : Start Depth
STOP.ft        12688.0000                              : Stop Depth
STEP.ft        0.5000                                  : Step
NULL.          -999.2500                               : Null Value
COMP.          CONOCO U.K. LTD                         : Company
WELL.          9/19-10Z                                : Well
FLD .          SORBY                                   : Field
LOC .          NORTH SEA                               : Location
LOC1.          -                                       : Location (UTM)
CTRY.          UK                                      : Country
PROV.          UKCS                                    : Province
UWI .          18190                                   : UWI Number
API .          -                                       : API Number
SECT.          -                                       : Section
TOWN.          -                                       : Township
RNGE.          -                                       : Range
PDAT.          M.S.L.                                  : Perm Datum
EPD .ft        0.00                                    : Elevation
LMF .          RT                                      : Log Measured From
DMF .          RT                                      : Drill Measured From
APD .ft        75.00                                   : Above Perm Datum
EKB .          -                                       : Elev-Kelly Bushing
EDF .ft        75.00                                   : Elev-Drill Floor
EGL .ft        -385.00                                 : Elev-Ground Level (Water Depth)
TDD .ft        12700.00                                : Total Depth (Driller)
SRVC.          ATLAS WIRELINE                          : Service Company
LATI.          59 25 54.97 N                           : Latitude
LONG.          01 40 32.75 E                           : Longitude
DATE.          JUN-AUG-1993                            : Logging Date
PROJ.          UKCS                                    : Project
SET .          COMP WIRE                               : Set
~Curve Information Section
DEPTH.ft                                               : Depth Curve
CALX.in                                                : Caliper
CNC.pu                                                 : Compensated Neutron Porosity
DT24.us/ft                                             : Delta-T
GR.gAPI                                                : Gamma Ray
PE.B/e                                                 : Photo-electric
RIPD.Ohm*m                                             : Deep Induction Resistivity
RIPM.Ohm*m                                             : Medium Induction Resistivity
ZCOR.g/cc                                              : ZDL Density Correction
ZDEN.g/cc                                              : ZDL Bulk Density
~ASCII Log Data Section
# ...
11587.5000         8.7335        53.6636       103.1002       162.2381         4.6476         2.4721         2.6749         0.0255         2.4415     
11588.0000         8.7332        51.0516       103.5246       160.6973         4.6789         2.5438         2.7375         0.0206         2.4377     
11588.5000         8.7326        49.6548       104.2785       159.0650         4.6562         2.5761         2.8220         0.0163         2.4316     
11589.0000         8.7309        49.4183       105.5439       157.4287         4.5096         2.6763         2.8811         0.0170         2.4264     
11589.5000         8.7308        47.5422       106.4270       158.4813         4.2668         2.7004         2.8920         0.0226         2.4209     
11590.0000         8.7331        45.3143       106.6952       162.6537         4.0638         2.7004         2.8829         0.0261         2.4143     
11590.5000         8.7346        45.1514       107.1312       166.9526         4.0253         2.6752         2.7926         0.0285         2.4108     
11591.0000         8.7344        46.5570       107.4865       169.8477         4.1364         2.6703         2.7402         0.0303         2.4146     
11591.5000         8.7357        50.0680       107.7279       170.5855         4.3244         2.6459         2.6673         0.0291         2.4233     
11592.0000         8.7392        52.6264       107.9422       167.3335         4.4546         2.5722         2.6114         0.0240         2.4291     
11592.5000         8.7408        48.8808       108.1986       162.2320         4.4391         2.5116         2.5661         0.0201         2.4272     
11593.0000         8.7382        44.0150       108.2630       160.1523         4.4085         2.4716         2.5194         0.0206         2.4233     
11593.5000         8.7355        42.0750       108.0997       161.2162         4.3542         2.4436         2.5037         0.0237         2.4248     
11594.0000         8.7349        41.3040       108.1159       162.9290         4.3049         2.4255         2.4812         0.0221         2.4285     
11594.5000         8.7336        41.7622       108.0897       164.4564         4.2686         2.4157         2.4807         0.0182         2.4263     
11595.0000         8.7306        42.3929       108.1264       166.0397         4.2268         2.3977         2.4509         0.0235         2.4209     
11595.5000         8.7295        41.2437       108.3361       168.0293         4.1284         2.4070         2.4577         0.0329         2.4199     
11596.0000         8.7316        40.3764       108.0618       169.5612         3.9611         2.4066         2.4712         0.0341         2.4224     
11596.5000         8.7342        41.7147       107.7893       168.5775         3.7617         2.4160         2.4855         0.0311         2.4212     
11597.0000         8.7347        45.1053       107.9774       166.3845         3.6763         2.4165         2.4780         0.0334         2.4155     
11597.5000         8.7340        49.0274       108.6345       165.2177         3.7937         2.4273         2.4787         0.0351         2.4092     
11598.0000         8.7335        50.4122       109.4645       165.9267         3.9954         2.4393         2.4730         0.0309         2.4008     
11598.5000         8.7333        47.3085       110.2747       166.2884         4.1114         2.4414         2.4898         0.0275         2.3913     
11599.0000         8.7331        44.3817       110.7225       164.3339         4.1913         2.4318         2.5205         0.0291         2.3902     
11599.5000         8.7336        44.4742       110.5274       161.9442         4.3175         2.4125         2.4749         0.0311         2.3997     
11600.0000         8.7338        45.1218       110.0264       162.7226         4.4685         2.3841         2.4386         0.0288         2.4104     
11600.5000         8.7330        44.6814       109.4096       166.5015         4.5346         2.3938         2.4047         0.0243         2.4168     
11601.0000         8.7328        44.2634       108.9902       171.4308         4.3959         2.3507         2.3779         0.0251         2.4234     
11601.5000         8.7348        43.2349       108.8237       174.7202         4.1285         2.3247         2.3632         0.0307         2.4297     
11602.0000         8.7376        41.8610       108.7641       174.6601         4.0498         2.2809         2.3215         0.0331         2.4304     
11602.5000         8.7388        42.7686       108.1570       172.5197         4.2458         2.2485         2.2959         0.0317         2.4273     
11603.0000         8.7377        46.2428       107.2189       169.5214         4.5162         2.2176         2.2531         0.0290         2.4268     
11603.5000         8.7357        50.0824       105.8114       165.3395         4.6628         2.1984         2.2572         0.0263         2.4316     
11604.0000         8.7349        52.4966       104.2990       161.8636         4.6493         2.1950         2.2416         0.0254         2.4405     
11604.5000         8.7358        51.9029       104.2392       160.7999         4.4882         2.1788         2.2237         0.0241         2.4493     
11605.0000         8.7372        48.7329       104.8920       162.3456         4.2781         2.1910         2.2213         0.0194         2.4509     
11605.5000         8.7377        45.9428       106.0261       166.6214         4.1824         2.1686         2.2232         0.0148         2.4421     
11606.0000         8.7368        43.9318       107.5526       170.8205         4.1675         2.1755         2.2341         0.0166         2.4284     
11606.5000         8.7358        41.6410       108.2750       171.8249         4.1507         2.1984         2.2629         0.0272         2.4168     
11607.0000         8.7350        39.5547       108.3746       170.6951         4.1479         2.2234         2.2883         0.0420         2.4111     
11607.5000         8.7340        39.5837       108.4793       169.3679         4.1434         2.2391         2.3143         0.0492         2.4095     
11608.0000         8.7329        41.8132       108.7595       167.8400         4.1665         2.2542         2.3394         0.0428         2.4088     
11608.5000         8.7313        45.3307       108.9759       166.9882         4.2331         2.2709         2.3666         0.0314         2.4099     
11609.0000         8.7307        47.7757       109.3893       166.7564         4.2980         2.2972         2.3688         0.0274         2.4138     
11609.5000         8.7325        49.0576       109.9097       167.2242         4.4185         2.3302         2.3616         0.0301         2.4182     
11610.0000         8.7341        51.7777       110.0648       168.3366         4.6184         2.3194         2.3997         0.0300         2.4218     
11610.5000         8.7335        54.1626       110.2551       168.6078         4.7650         2.3267         2.4116         0.0253         2.4244     
11611.0000         8.7325        51.2903       110.2308       169.1575         4.7602         2.3260         2.4041         0.0227         2.4218     
11611.5000         8.7312        46.6553       110.0342       171.7128         4.6736         2.2826         2.4111         0.0240         2.4142     
11612.0000         8.7299        45.7382       109.4228       172.6484         4.5783         2.3261         2.3841         0.0310         2.4097     
11612.5000         8.7299        45.1702       108.2631       170.7290         4.5212         2.3025         2.3779         0.0382         2.4135     
11613.0000         8.7308        42.0994       107.1237       169.6946         4.4394         2.3114         2.3574         0.0397         2.4232     
11613.5000         8.7317        39.1698       106.0236       169.6327         4.3636         2.2774         2.3371         0.0323         2.4322     
