~Version Information Section
VERS.          2.0                                     : CWLS LOG ASCII Standard
WRAP.          NO                                      : One line per depth step
CREA.          05/26/17                                : LAS Creation Date
~Well Information Section
STRT.ft        10050.5000                              : Start Depth
STOP.ft        12688.0000                              : Stop Depth
STEP.ft        0.5000                                  : Step
NULL.          -999.2500                               : Null Value
COMP.          CONOCO U.K. LTD                         : Company
WELL.          9/19-10Z                                : Well
FLD .          SORBY                                   : Field
LOC .          NORTH SEA                               : Location
LOC1.          -                                       : Location (UTM)
CTRY.          UK                                      : Country
PROV.          UKCS                                    : Province
UWI .          18190                                   : UWI Number
API .          -                                       : API Number
SECT.          -                                       : Section
TOWN.          -                                       : Township
RNGE.          -                                       : Range
PDAT.          M.S.L.                                  : Perm Datum
EPD .ft        0.00                                    : Elevation
LMF .          RT                                      : Log Measured From
DMF .          RT                                      : Drill Measured From
APD .ft        75.00                                   : Above Perm Datum
EKB .          -                                       : Elev-Kelly Bushing
EDF .ft        75.00                                   : Elev-Drill Floor
EGL .ft        -385.00                                 : Elev-Ground Level (Water Depth)
TDD .ft        12700.00                                : Total Depth (Driller)
SRVC.          ATLAS WIRELINE                          : Service Company
LATI.          59 25 54.97 N                           : Latitude
LONG.          01 40 32.75 E                           : Longitude
DATE.          JUN-AUG-1993                            : Logging Date
PROJ.          UKCS                                    : Project
SET .          COMP WIRE                               : Set
~Curve Information Section
DEPTH.ft                                               : Depth Curve
CALX.in                                                : Caliper
CNC.pu                                                 : Compensated Neutron Porosity
DT24.us/ft                                             : Delta-T
GR.gAPI                                                : Gamma Ray
PE.B/e                                                 : Photo-electric
RIPD.Ohm*m                                             : Deep Induction Resistivity
RIPM.Ohm*m                                             : Medium Induction Resistivity
ZCOR.g/cc                                              : ZDL Density Correction
ZDEN.g/cc                                              : ZDL Bulk Density
~ASCII Log Data Section
# ...
11163.5000         9.0060        34.2010        89.7364        82.6596         3.6601         1.6797         1.7131         0.0413         2.5631     
11164.0000         9.0065        30.8772        89.1643        82.3353         3.7911         1.7217         1.7589         0.0427         2.5667     
11164.5000         9.0063        28.4184        88.2702        81.9586         4.0037         1.7269         1.7995         0.0379         2.5726     
11165.0000         9.0061        27.7026        86.8623        80.0168         4.1969         1.7429         1.8295         0.0300         2.5809     
11165.5000         9.0055        28.5312        85.5770        76.1276         4.4948         1.7535         1.8407         0.0245         2.5912     
11166.0000         9.0055        29.8402        85.4693        72.3087         4.9215         1.7813         1.8382         0.0220         2.6090     
11166.5000         9.0068        29.8695        85.9124        71.5685         5.1342         1.7642         1.8005         0.0079         2.6302     
11167.0000         9.0075        27.9411        87.1747        74.0840         4.7941         1.7226         1.7505        -0.0093         2.6354     
11167.5000         9.0048        27.9770        88.8040        77.3088         4.2900         1.6872         1.7070        -0.0065         2.6151     
11168.0000         9.0001        31.8530        89.7171        80.1359         4.1422         1.6498         1.6812         0.0104         2.5851     
11168.5000         8.9977        35.9765        90.3209        82.9023         4.1695         1.6158         1.6312         0.0215         2.5640     
11169.0000         8.9991        35.0588        90.8291        85.3731         4.1454         1.5791         1.5786         0.0293         2.5553     
11169.5000         9.0016        32.3754        90.9979        87.4135         4.0750         1.5408         1.5333         0.0369         2.5518     
11170.0000         9.0035        30.6495        90.9961        88.7572         4.0314         1.4989         1.5359         0.0343         2.5477     
11170.5000         9.0037        30.2958        91.1702        87.7196         3.9970         1.4979         1.5433         0.0224         2.5457     
11171.0000         8.9981        32.1219        91.2781        85.1991         3.9675         1.4932         1.5519         0.0190         2.5512     
11171.5000         8.9874        34.3764        91.2451        84.4784         3.9538         1.4985         1.5682         0.0304         2.5612     
11172.0000         8.9779        33.4938        91.2048        85.7803         3.9521         1.5179         1.5722         0.0374         2.5666     
11172.5000         8.9744        31.1870        90.8634        86.2949         3.9492         1.5284         1.5758         0.0347         2.5642     
11173.0000         8.9775        29.2656        90.4469        85.5946         3.9302         1.5480         1.5887         0.0291         2.5564     
11173.5000         8.9827        27.6083        90.1638        85.2415         3.9213         1.5665         1.6177         0.0175         2.5471     
11174.0000         8.9855        26.9449        89.7991        85.1044         3.9391         1.5707         1.6302         0.0090         2.5416     
11174.5000         8.9873        27.2711        89.5859        84.5109         3.9419         1.5859         1.6408         0.0169         2.5419     
11175.0000         8.9928        27.4011        89.5243        84.6119         3.9246         1.6017         1.6414         0.0298         2.5437     
11175.5000         9.0003        27.8332        89.3549        85.9262         4.0153         1.5969         1.6416         0.0334         2.5433     
11176.0000         9.0056        29.0747        89.3308        86.5502         4.1440         1.6016         1.6517         0.0333         2.5413     
11176.5000         9.0074        29.8590        89.3967        85.2184         4.1898         1.6109         1.6652         0.0334         2.5396     
11177.0000         9.0059        30.2894        89.4229        83.1276         4.2302         1.6095         1.6643         0.0335         2.5415     
11177.5000         8.9994        31.2484        89.4935        81.4542         4.2855         1.6041         1.6680         0.0284         2.5524     
11178.0000         8.9874        30.1829        89.1611        81.5236         4.2819         1.6105         1.6623         0.0182         2.5698     
11178.5000         8.9759        27.3054        88.7950        82.7820         4.0268         1.6286         1.6565         0.0139         2.5818     
11179.0000         8.9717        25.5625        88.7187        83.4201         3.6410         1.6286         1.6708         0.0218         2.5816     
11179.5000         8.9736        25.8269        88.4741        82.6641         3.4377         1.6280         1.6778         0.0328         2.5744     
11180.0000         8.9754        28.1845        88.1779        82.4883         3.5152         1.6341         1.6778         0.0374         2.5656     
11180.5000         8.9756        31.7236        87.9544        82.6948         3.7561         1.6341         1.6707         0.0355         2.5565     
11181.0000         8.9770        33.4946        87.3012        82.5261         4.0084         1.6279         1.6708         0.0334         2.5517     
11181.5000         8.9782        32.9613        87.0050        82.3276         4.1833         1.6112         1.6662         0.0393         2.5638     
11182.0000         8.9760        31.6902        87.8424        82.4632         4.2110         1.6211         1.6541         0.0417         2.5996     
11182.5000         8.9714        31.7559        88.7790        82.5264         4.1524         1.6162         1.6442         0.0216         2.6367     
11183.0000         8.9678        33.4319        89.8649        82.7049         4.0459         1.6222         1.6415        -0.0015         2.6371     
11183.5000         8.9666        33.9796        90.7488        83.0062         3.9832         1.6071         1.6178         0.0067         2.6013     
11184.0000         8.9668        33.1195        90.8104        83.4955         3.9448         1.5962         1.6112         0.0275         2.5672     
11184.5000         8.9671        33.2407        90.7355        84.6927         3.8012         1.5667         1.6082         0.0297         2.5547     
11185.0000         8.9671        34.2271        90.6587        86.5425         3.6615         1.5769         1.6052         0.0274         2.5551     
11185.5000         8.9678        34.2522        90.7414        88.6044         3.6715         1.5721         1.5955         0.0355         2.5580     
11186.0000         8.9684        33.9843        91.0261        90.5300         3.6905         1.5670         1.5923         0.0405         2.5615     
11186.5000         8.9671        32.7503        91.2407        91.4031         3.7181         1.5630         1.5893         0.0284         2.5648     
11187.0000         8.9663        29.9909        91.3467        90.8099         3.7202         1.5689         1.5932         0.0163         2.5647     
11187.5000         8.9686        27.3746        91.0045        88.5224         3.5542         1.5745         1.6134         0.0220         2.5606     
11188.0000         8.9716        26.4769        90.5455        85.6206         3.3175         1.5794         1.6196         0.0351         2.5579     
11188.5000         8.9739        27.8225        90.5243        85.1277         3.2969         1.5787         1.6254         0.0422         2.5590     
11189.0000         8.9754        30.5257        90.6527        86.8656         3.6177         1.6032         1.6347         0.0408         2.5585     
11189.5000         8.9749        31.4688        90.9642        87.3755         4.0738         1.5973         1.6404         0.0359         2.5535     
