~Version Information Section
VERS.          2.0                                     : CWLS LOG ASCII Standard
WRAP.          NO                                      : One line per depth step
CREA.          05/26/17                                : LAS Creation Date
~Well Information Section
STRT.ft        10050.5000                              : Start Depth
STOP.ft        12688.0000                              : Stop Depth
STEP.ft        0.5000                                  : Step
NULL.          -999.2500                               : Null Value
COMP.          CONOCO U.K. LTD                         : Company
WELL.          9/19-10Z                                : Well
FLD .          SORBY                                   : Field
LOC .          NORTH SEA                               : Location
LOC1.          -                                       : Location (UTM)
CTRY.          UK                                      : Country
PROV.          UKCS                                    : Province
UWI .          18190                                   : UWI Number
API .          -                                       : API Number
SECT.          -                                       : Section
TOWN.          -                                       : Township
RNGE.          -                                       : Range
PDAT.          M.S.L.                                  : Perm Datum
EPD .ft        0.00                                    : Elevation
LMF .          RT                                      : Log Measured From
DMF .          RT                                      : Drill Measured From
APD .ft        75.00                                   : Above Perm Datum
EKB .          -                                       : Elev-Kelly Bushing
EDF .ft        75.00                                   : Elev-Drill Floor
EGL .ft        -385.00                                 : Elev-Ground Level (Water Depth)
TDD .ft        12700.00                                : Total Depth (Driller)
SRVC.          ATLAS WIRELINE                          : Service Company
LATI.          59 25 54.97 N                           : Latitude
LONG.          01 40 32.75 E                           : Longitude
DATE.          JUN-AUG-1993                            : Logging Date
PROJ.          UKCS                                    : Project
SET .          COMP WIRE                               : Set
~Curve Information Section
DEPTH.ft                                               : Depth Curve
CALX.in                                                : Caliper
CNC.pu                                                 : Compensated Neutron Porosity
DT24.us/ft                                             : Delta-T
GR.gAPI                                                : Gamma Ray
PE.B/e                                                 : Photo-electric
RIPD.Ohm*m                                             : Deep Induction Resistivity
RIPM.Ohm*m                                             : Medium Induction Resistivity
ZCOR.g/cc                                              : ZDL Density Correction
ZDEN.g/cc                                              : ZDL Bulk Density
~ASCII Log Data Section
# ...
10713.0000         8.9229        28.8117        86.9394        76.3389         4.7554         2.0067         1.9870         0.0300         2.6031     
10713.5000         8.9230        29.9010        86.6177        76.3939         4.7513         1.9788         1.9912         0.0299         2.5942     
10714.0000         8.9239        29.7303        86.2623        77.1529         4.7549         1.9768         2.0185         0.0279         2.5945     
10714.5000         8.9259        28.0992        85.8613        77.7897         4.7615         2.0032         2.0485         0.0298         2.6033     
10715.0000         8.9261        27.2100        85.3701        78.4498         4.7689         2.0597         2.1426         0.0351         2.6135     
10715.5000         8.9242        27.5464        84.6852        79.1271         4.8044         2.1298         2.1774         0.0352         2.6169     
10716.0000         8.9229        28.2584        83.9154        78.5505         4.8754         2.2283         2.2238         0.0246         2.6130     
10716.5000         8.9243        27.3791        83.5727        75.8727         4.9424         2.2773         2.3301         0.0159         2.6103     
10717.0000         8.9277        25.1614        83.4565        72.6309         4.8997         2.3653         2.4418         0.0158         2.6121     
10717.5000         8.9315        24.0168        83.1896        70.5661         4.6920         2.4226         2.5657         0.0204         2.6142     
10718.0000         8.9336        25.0976        81.5492        69.9227         4.5041         2.4126         2.4877         0.0245         2.6163     
10718.5000         8.9339        26.1232        79.9412        70.0523         4.4796         2.3575         2.3789         0.0305         2.6243     
10719.0000         8.9340        25.8763        80.2090        70.2398         4.4781         2.3224         2.3057         0.0327         2.6355     
10719.5000         8.9321        24.9995        81.2353        70.4030         4.4288         2.3151         2.2502         0.0267         2.6390     
10720.0000         8.9280        23.9156        83.5460        71.1922         4.2983         2.2741         2.2264         0.0223         2.6317     
10720.5000         8.9285        23.7393        85.6811        72.3716         4.2815         2.1838         2.1621         0.0265         2.6198     
10721.0000         8.9371        24.9523        85.8869        72.6297         4.3304         2.0958         2.1119         0.0305         2.6091     
10721.5000         8.9464        27.3215        85.6457        71.6376         4.3604         2.0417         2.0727         0.0305         2.6043     
10722.0000         8.9508        28.2883        85.7156        70.5672         4.4741         2.0396         2.0503         0.0309         2.6068     
10722.5000         8.9527        27.3342        85.8293        70.4485         4.5405         2.0318         2.0547         0.0301         2.6103     
10723.0000         8.9534        27.7174        85.9219        71.7570         4.5623         2.0693         2.0964         0.0254         2.6071     
10723.5000         8.9516        28.9566        85.7478        73.1569         4.6701         2.0701         2.1457         0.0222         2.6009     
10724.0000         8.9495        28.5158        85.1006        73.3655         4.5593         2.0940         2.1523         0.0252         2.6013     
10724.5000         8.9508        29.0502        84.2805        72.9567         4.3143         2.1112         2.1537         0.0336         2.6101     
10725.0000         8.9533        32.5023        83.6826        72.6186         4.3011         2.0976         2.1386         0.0392         2.6189     
10725.5000         8.9535        39.1734        83.5187        72.3075         4.2649         2.0926         2.1134         0.0355         2.6203     
10726.0000         8.9524        41.4151        84.1118        72.7267         4.3381         2.0860         2.0922         0.0272         2.6149     
10726.5000         8.9527        38.0336        85.1834        74.8922         4.4131         2.0998         2.0801         0.0223         2.6063     
10727.0000         8.9536        32.9138        85.9584        77.6765         4.4350         2.0611         2.0736         0.0221         2.5973     
10727.5000         8.9532        29.4106        86.1742        79.2648         4.4322         2.0321         2.0626         0.0243         2.5905     
10728.0000         8.9517        29.2357        86.0462        79.3481         4.4500         1.9831         2.0172         0.0280         2.5879     
10728.5000         8.9505        31.6700        85.8820        78.5180         4.5614         1.9497         1.9840         0.0306         2.5925     
10729.0000         8.9509        33.7267        86.0282        76.9221         4.5759         1.9304         1.9384         0.0284         2.6018     
10729.5000         8.9521        32.8673        86.5069        76.8754         4.5249         1.9039         1.8913         0.0263         2.6068     
10730.0000         8.9529        30.5042        86.8822        78.4789         4.4251         1.8898         1.8368         0.0276         2.6053     
10730.5000         8.9535        29.0528        87.2909        79.6818         4.4002         1.8378         1.8062         0.0255         2.6062     
10731.0000         8.9540        29.7077        88.0045        80.3053         4.2808         1.7884         1.7610         0.0141         2.6094     
10731.5000         8.9531        30.7470        89.0387        81.5576         4.1845         1.7419         1.7452         0.0075         2.6025     
10732.0000         8.9513        30.1902        89.7868        83.2228         4.2326         1.7034         1.7301         0.0120         2.5805     
10732.5000         8.9512        28.4859        89.8062        84.6033         4.2980         1.7044         1.7194         0.0182         2.5559     
10733.0000         8.9523        28.9843        89.6136        84.3089         4.3158         1.6943         1.7237         0.0217         2.5457     
10733.5000         8.9510        32.5501        89.6237        82.1820         4.3227         1.7101         1.7434         0.0307         2.5531     
10734.0000         8.9441        35.9603        90.0292        80.0219         4.3236         1.7541         1.7557         0.0404         2.5669     
10734.5000         8.9338        33.8560        89.9228        79.7175         4.3549         1.7891         1.8176         0.0387         2.5769     
10735.0000         8.9258        29.2456        88.7113        80.9163         4.2744         1.8118         1.8559         0.0289         2.5821     
10735.5000         8.9194        26.1326        87.4715        80.0866         4.2471         1.8396         1.8459         0.0224         2.5884     
10736.0000         8.9123        25.3442        86.7266        75.9972         4.3908         1.9361         1.8449         0.0147         2.6024     
10736.5000         8.9067        26.6118        86.5673        72.4043         4.3628         2.0143         1.8599         0.0050         2.6154     
10737.0000         8.9043        27.9376        86.6888        72.4382         4.3224         2.0198         1.8899         0.0072         2.6107     
10737.5000         8.9024        28.5848        86.1286        74.9479         4.2540         2.0433         1.9335         0.0238         2.5940     
10738.0000         8.9019        29.3729        84.8376        77.1226         4.1904         2.0395         1.9884         0.0363         2.5841     
10738.5000         8.9037        29.4233        84.4429        77.3562         4.1064         2.1298         2.1504         0.0347         2.5838     
10739.0000         8.9054        28.0214        85.3558        76.7468         4.0959         2.2913         2.8985         0.0186         2.5824     
