~Version Information Section
VERS.          2.0                                     : CWLS LOG ASCII Standard
WRAP.          NO                                      : One line per depth step
CREA.          05/26/17                                : LAS Creation Date
~Well Information Section
STRT.ft        10050.5000                              : Start Depth
STOP.ft        12688.0000                              : Stop Depth
STEP.ft        0.5000                                  : Step
NULL.          -999.2500                               : Null Value
COMP.          CONOCO U.K. LTD                         : Company
WELL.          9/19-10Z                                : Well
FLD .          SORBY                                   : Field
LOC .          NORTH SEA                               : Location
LOC1.          -                                       : Location (UTM)
CTRY.          UK                                      : Country
PROV.          UKCS                                    : Province
UWI .          18190                                   : UWI Number
API .          -                                       : API Number
SECT.          -                                       : Section
TOWN.          -                                       : Township
RNGE.          -                                       : Range
PDAT.          M.S.L.                                  : Perm Datum
EPD .ft        0.00                                    : Elevation
LMF .          RT                                      : Log Measured From
DMF .          RT                                      : Drill Measured From
APD .ft        75.00                                   : Above Perm Datum
EKB .          -                                       : Elev-Kelly Bushing
EDF .ft        75.00                                   : Elev-Drill Floor
EGL .ft        -385.00                                 : Elev-Ground Level (Water Depth)
TDD .ft        12700.00                                : Total Depth (Driller)
SRVC.          ATLAS WIRELINE                          : Service Company
LATI.          59 25 54.97 N                           : Latitude
LONG.          01 40 32.75 E                           : Longitude
DATE.          JUN-AUG-1993                            : Logging Date
PROJ.          UKCS                                    : Project
SET .          COMP WIRE                               : Set
~Curve Information Section
DEPTH.ft                                               : Depth Curve
CALX.in                                                : Caliper
CNC.pu                                                 : Compensated Neutron Porosity
DT24.us/ft                                             : Delta-T
GR.gAPI                                                : Gamma Ray
PE.B/e                                                 : Photo-electric
RIPD.Ohm*m                                             : Deep Induction Resistivity
RIPM.Ohm*m                                             : Medium Induction Resistivity
ZCOR.g/cc                                              : ZDL Density Correction
ZDEN.g/cc                                              : ZDL Bulk Density
~ASCII Log Data Section
# ...
12329.5000         8.6682        15.0103        66.9073        45.6579         3.4623         5.9815         5.8827        -0.0085         2.6129     
12330.0000         8.6688        15.4092        72.3075        46.4705         2.8590         5.6272         5.4253        -0.0057         2.5369     
12330.5000         8.6700        17.5362        77.4108        47.8532         2.6119         5.2002         4.9563         0.0158         2.4584     
12331.0000         8.6700        19.2264        80.3616        50.1044         2.7059         5.0427         4.9018         0.0357         2.4053     
12331.5000         8.6701        19.7198        80.8063        55.2113         3.0251         4.9929         5.1336         0.0386         2.3868     
12332.0000         8.6723        19.3407        80.4258        63.8548         3.4489         4.9344         5.2883         0.0345         2.4000     
12332.5000         8.6758        20.1753        80.3358        73.6044         3.9803         4.8658         5.3312         0.0334         2.4402     
12333.0000         8.6770        22.6454        82.4795        83.6615         4.5681         4.8564         5.2532         0.0270         2.5000     
12333.5000         8.6755        25.8314        87.4105        96.1965         4.8854         4.8786         4.8939         0.0129         2.5588     
12334.0000         8.6737        29.7750        92.6059       110.5036         4.9046         4.9604         4.7254         0.0099         2.5932     
12334.5000         8.6731        34.6030        96.0552       122.1157         5.0079         5.0434         4.7647         0.0198         2.6100     
12335.0000         8.6741        38.4869        97.3892       129.0683         5.1328         5.1543         4.9152         0.0116         2.6311     
12335.5000         8.6757        40.5841        98.6669       132.9680         4.9130         5.2655         5.4770        -0.0136         2.6451     
12336.0000         8.6751        41.8285       100.0847       133.8706         4.4299         5.4171         5.8022        -0.0226         2.6216     
12336.5000         8.6723        38.9312        96.6044       127.8740         3.9816         5.7141         6.4397        -0.0089         2.5688     
12337.0000         8.6711        32.2682        88.7305       111.5399         3.6101         6.2878         7.6902         0.0180         2.5299     
12337.5000         8.6720        25.3410        79.6154        90.2183         3.3977         7.5133         9.2542         0.0406         2.5326     
12338.0000         8.6722        18.4616        70.3079        73.8055         3.6619         9.4337        12.0725         0.0454         2.5726     
12338.5000         8.6720        13.1426        65.1259        62.5603         4.4793        11.4668        17.1267         0.0305         2.6320     
12339.0000         8.6731         9.9277        62.5178        50.8662         4.9876        12.7723        22.6098         0.0098         2.6911     
12339.5000         8.6734         7.7972        58.3963        39.8538         4.4993        14.0389        27.8350         0.0023         2.7225     
12340.0000         8.6709         6.1178        54.2346        34.2786         3.8903        14.4993        31.5576         0.0095         2.7132     
12340.5000         8.6685         4.2015        52.5412        32.9626         3.7705        13.5447        28.6142         0.0167         2.6880     
12341.0000         8.6688         2.6759        53.5717        32.3783         3.8903        11.7331        17.5195         0.0176         2.6719     
12341.5000         8.6706         2.1776        56.5490        32.3521         4.0587         9.5991        10.1758         0.0174         2.6635     
12342.0000         8.6729         2.4003        61.3258        35.1002         4.1756         7.7814         7.2332         0.0128         2.6523     
12342.5000         8.6756         3.8290        66.8716        40.5261         4.1073         6.0336         5.2404         0.0072         2.6310     
12343.0000         8.6783         6.8494        72.3854        44.8020         3.7158         4.7183         3.8240        -0.0047         2.5906     
12343.5000         8.6788        10.9828        76.8100        45.2702         3.1194         3.6476         3.0957        -0.0244         2.5248     
12344.0000         8.6751        15.8253        79.4061        44.1736         2.6691         3.0113         2.7652        -0.0234         2.4428     
12344.5000         8.6699        21.4961        80.6599        44.7107         2.5002         2.6119         2.4109         0.0055         2.3707     
12345.0000         8.6677        24.8342        81.1495        45.4817         2.4258         2.3020         2.1967         0.0317         2.3347     
12345.5000         8.6693        23.9297        81.4555        43.7553         2.3233         2.0718         2.0256         0.0384         2.3329     
12346.0000         8.6713        22.0077        82.3221        41.2069         2.2726         1.9296         1.9201         0.0390         2.3346     
12346.5000         8.6704        20.6079        83.5101        41.2400         2.2495         1.9682         1.9036         0.0377         2.3211     
12347.0000         8.6670        18.8533        84.0127        44.0466         2.2585         2.0425         2.0347         0.0367         2.3068     
12347.5000         8.6658        17.9316        83.1520        47.3558         2.3407         2.1906         2.2405         0.0373         2.3096     
12348.0000         8.6681        19.6139        81.7395        50.7019         2.6399         2.3611         2.4917         0.0395         2.3380     
12348.5000         8.6708        23.5370        80.7609        55.0742         3.1768         2.5688         2.8258         0.0366         2.3957     
12349.0000         8.6735        23.5471        79.8195        61.0657         3.4413         2.7897         3.3022         0.0314         2.4668     
12349.5000         8.6772        19.4020        79.9806        66.8422         3.0555         3.0439         3.6972         0.0333         2.5136     
12350.0000         8.6808        16.1898        80.4197        70.2360         2.6401         3.2952         3.8343         0.0399         2.5204     
12350.5000         8.6829        15.2080        79.8459        70.5242         2.6541         3.3892         3.7666         0.0439         2.5122     
12351.0000         8.6835        15.8055        79.6616        68.6042         2.9172         3.3061         3.5517         0.0418         2.5109     
12351.5000         8.6836        16.9275        79.8414        66.6166         3.1177         3.1401         3.2869         0.0304         2.5095     
12352.0000         8.6828        17.8576        80.3816        65.9718         3.0121         3.0284         3.0655         0.0182         2.4924     
12352.5000         8.6811        18.4122        81.2651        63.8084         2.6872         2.9263         2.9457         0.0167         2.4603     
12353.0000         8.6787        18.6494        81.6376        57.8782         2.4660         2.8810         2.9255         0.0212         2.4264     
12353.5000         8.6764        18.0751        81.7386        52.6373         2.5028         2.8410         2.9687         0.0269         2.4008     
12354.0000         8.6731        16.8342        81.6452        52.8549         2.7996         2.8537         3.0454         0.0364         2.3936     
12354.5000         8.6691        16.7776        81.2818        56.9329         3.1312         2.8940         3.1498         0.0371         2.4115     
12355.0000         8.6675        19.0876        80.9126        61.6148         3.0639         2.9701         3.2226         0.0310         2.4445     
12355.5000         8.6715        22.4462        80.5507        66.8478         2.6488         3.0087         3.3148         0.0335         2.4688     
