~Version Information Block
VERS .                 2.00:  CWLS LOG ASCII STANDARD - VERSION 2.00
WRAP .                   NO:  One line per depth step
~Well Information Block
#MNEM.UNIT        Data Type   Information
#---------- ----------------  -----------
STRT .F               374.5:  START DEPTH
STOP .F              5376.5:  STOP DEPTH
STEP .F                 0.5:  STEP
NULL .              -999.25:  NULL VALUE
COMP .     TEXACO BRITAIN LTD.:  COMPANY
WELL .              9/11A-6:  WELL
FLD  .              MARINER:  FIELD
LOC  .            NORTH SEA:  LOCATION
PROV .                 UKCS:  PROVINCE
SRVC .         SCHLUMBERGER:  SERVICE COMPANY
DATE .             09/09/96:  LOG DATE
UWI  .                24584:  UNIQUE WELL ID
~Curve Information Block
#MNEM.UNIT         API CODE   Curve Description
#---------- ----------------  -----------------
DEPTH.F                    :  Depth in Feet
AHT10.OHMM                 :  Edited resistivity HILTB-1-2 (AHT10)
AHT20.OHMM                 :  Edited resistivity HILTB-1-2 (AHT20)
AHT30.OHMM                 :  Edited resistivity HILTB-1-2 (AHT30)
AHT60.OHMM                 :  Edited resistivity HILTB-1-2 (AHT60)
AHT90.OHMM                 :  Edited resistivity HILTB-1-2 (AHT90)
DT4P .US/F                 :  Edited sonic  DSST-1 (DT4P)
DT4S .US/F                 :  Edited sonic  DSST-1 (DT4S)
DTCO .US/F                 :  Edited sonic  DSST-1 (DTCO)
DTSM .US/F                 :  Edited sonic  DSST-1 (DTSM)
GR   .GAPI                 :  Edited gamma ray DSST-1 (GR)
HCAL .IN                   :  Edited caliper HILTB-1-2 (HCAL)
HCGR .GAPI                 :  Edited computed gamma ray HILTB-1-2 (HCGR)
HDRA .G/C3                 :  Edited density correction HILTB-1-2 (HDRA)
HSGR .GAPI                 :  Merged gamma ray HILTB-1-1 & HILTB-1-2 (HSGR)
NPHI .V/V                  :  Edited neutron HILTB-1-2 (NPHI)
PEFZ .B/E                  :  Edited photoelectric effect HILTB-1-2 (PEFZ)
RHOZ .G/C3                 :  Edited density HILTB-1-2 (RHOZ)
~Parameter Information Block
#MNEM.UNIT            Value   Description
#---------- ----------------  -----------
SET  .            COMP_WIRE:  
PROJ .             82ND_I_1:  
API  .                     :  
DATU .                  MSL:  
DMF  .                 D.F.:  Drilling Measured From
TDD  .F                5393:  
EDF  .F                  82:  
EKB  .F                  82:  Elevation_Kelly_Bushing
EPD  .F                  82:  
FN   .          EXPLORATION:  
LATI .     59 35' 03.0282 N:  
LCC  .          API 440 SCH:  
LONG .     01 08' 08.9472 E:  
LMF  .                 R.T.:  
ORDU .                 FEET:  
RANG .                     :  Range
RIG  .     BORGSTEN DOLPHIN:  
SECT .                     :  Section
SURF .F                -343:  
~Other Information Block
~A        DEPTH          AHT10          AHT20          AHT30          AHT60          AHT90           DT4P           DT4S           DTCO           DTSM             GR           HCAL           HCGR           HDRA           HSGR           NPHI           PEFZ           RHOZ 
# ...
      2504.5000      -999.2500      -999.2500      -999.2500      -999.2500      -999.2500        53.8280       193.3070      -999.2500      -999.2500        19.8222      -999.2500        16.5190      -999.2500        23.6120         0.5120      -999.2500      -999.2500 
      2505.0000      -999.2500      -999.2500      -999.2500      -999.2500      -999.2500        51.0220       193.7070      -999.2500      -999.2500        22.2703      -999.2500        16.1160      -999.2500        24.5220         0.4860      -999.2500      -999.2500 
      2505.5000      -999.2500      -999.2500      -999.2500      -999.2500      -999.2500        50.2200       193.7070      -999.2500      -999.2500        22.5255      -999.2500        17.2010      -999.2500        25.6480         0.4900      -999.2500      -999.2500 
      2506.0000      -999.2500      -999.2500      -999.2500      -999.2500      -999.2500        49.8200       193.7070      -999.2500      -999.2500        20.6456      -999.2500        17.6220      -999.2500        25.6400         0.5540      -999.2500      -999.2500 
      2506.5000      -999.2500      -999.2500      -999.2500      -999.2500      -999.2500        49.8200       192.9060      -999.2500      -999.2500        21.0303      -999.2500        16.0730      -999.2500        24.6910         0.6160      -999.2500      -999.2500 
      2507.0000      -999.2500      -999.2500      -999.2500      -999.2500      -999.2500        51.8240       169.9850      -999.2500      -999.2500        21.8543      -999.2500        15.6570      -999.2500        23.6880         0.6420      -999.2500      -999.2500 
      2507.5000      -999.2500      -999.2500      -999.2500      -999.2500      -999.2500        59.4390       140.3210      -999.2500      -999.2500        22.9413      -999.2500        14.5180      -999.2500        23.3160         0.5730      -999.2500      -999.2500 
      2508.0000      -999.2500      -999.2500      -999.2500      -999.2500      -999.2500        67.8560       107.9360      -999.2500      -999.2500        21.1625      -999.2500        14.7840      -999.2500        25.4040         0.5040      -999.2500      -999.2500 
      2508.5000      -999.2500      -999.2500      -999.2500      -999.2500      -999.2500        75.0700       142.3050      -999.2500      -999.2500        19.9484      -999.2500        17.6130      -999.2500        26.0390         0.4550      -999.2500      -999.2500 
      2509.0000      -999.2500      -999.2500      -999.2500      -999.2500      -999.2500        68.2570       192.2210      -999.2500      -999.2500        19.7981      -999.2500        16.0570      -999.2500        26.1370         0.4880      -999.2500      -999.2500 
      2509.5000      -999.2500      -999.2500      -999.2500      -999.2500      -999.2500        61.0420       206.9340      -999.2500      -999.2500        19.9947      -999.2500        15.4590      -999.2500        24.8860         0.5880      -999.2500      -999.2500 
      2510.0000      -999.2500      -999.2500      -999.2500      -999.2500      -999.2500        63.8480       144.0080      -999.2500      -999.2500        20.3994      -999.2500        14.3180      -999.2500        23.6510         0.6010      -999.2500      -999.2500 
      2510.5000      -999.2500      -999.2500      -999.2500      -999.2500      -999.2500        75.4710       176.4730      -999.2500      -999.2500        19.9329      -999.2500        13.1180      -999.2500        20.9210         0.5800      -999.2500      -999.2500 
      2511.0000      -999.2500      -999.2500      -999.2500      -999.2500      -999.2500        67.8560       170.4610      -999.2500      -999.2500        17.5971      -999.2500        14.4400      -999.2500        19.3000         0.5600      -999.2500      -999.2500 
      2511.5000      -999.2500      -999.2500      -999.2500      -999.2500      -999.2500        66.2530       158.2390      -999.2500      -999.2500        16.6528      -999.2500        14.1770      -999.2500        19.0770         0.5490      -999.2500      -999.2500 
      2512.0000      -999.2500      -999.2500      -999.2500      -999.2500      -999.2500        77.8760       142.4050      -999.2500      -999.2500        15.2384      -999.2500        13.2130      -999.2500        19.6970         0.5380      -999.2500      -999.2500 
      2512.5000      -999.2500      -999.2500      -999.2500      -999.2500      -999.2500        86.6930       153.6270      -999.2500      -999.2500        17.4280      -999.2500        13.0260      -999.2500        19.9710         0.4650      -999.2500      -999.2500 
      2513.0000      -999.2500      -999.2500      -999.2500      -999.2500      -999.2500        90.7010       140.3890      -999.2500      -999.2500        18.2872      -999.2500        14.7560      -999.2500        21.3460         0.4940      -999.2500      -999.2500 
      2513.5000      -999.2500      -999.2500      -999.2500      -999.2500      -999.2500        92.3050       128.6120      -999.2500      -999.2500        19.9521      -999.2500        16.8680      -999.2500        23.1980         0.5540      -999.2500      -999.2500 
      2514.0000      -999.2500      -999.2500      -999.2500      -999.2500      -999.2500        91.5030       116.8340      -999.2500      -999.2500        23.1552      -999.2500        21.4560      -999.2500        25.8970         0.5740      -999.2500      -999.2500 
      2514.5000      -999.2500      -999.2500      -999.2500      -999.2500      -999.2500        84.2410       100.3210      -999.2500      -999.2500        25.4242      -999.2500        24.4340      -999.2500        29.4830         0.5670      -999.2500      -999.2500 
      2515.0000       116.0980       168.4040       237.0790       393.1610       503.1450        75.3910       136.8380      -999.2500      -999.2500        27.2249        13.8480        27.0370         0.0260        30.7760         0.4520         5.8000         2.1180 
      2515.5000       116.2180       168.7790       237.1950       393.1610       503.1560        66.5400       168.0560      -999.2500      -999.2500        25.8745        19.8900        30.4610         0.0220        31.8970         0.4420         5.3060         1.9500 
      2516.0000       116.3380       169.1550       237.1720       393.1610       503.0740        57.8360       166.8540      -999.2500      -999.2500        25.1744        21.4790        36.8200         0.0270        35.7670         0.4220         4.8630         1.8580 
      2516.5000       116.4580       169.5300       237.1760       393.1610       499.1490        55.4310       165.6510      -999.2500      -999.2500        23.7246        22.4720        36.5560         0.0840        37.5990         0.4400         4.5050         1.7960 
      2517.0000       116.5780       169.9060       237.1760       393.1610       494.3610        70.0200       183.6700      -999.2500      -999.2500        20.9023        22.4470        33.9520         0.1060        35.4490         0.4110         4.1690         1.7750 
      2517.5000       116.6980       170.2810       237.1760       393.1820       487.7390       104.6290       234.3220      -999.2500      -999.2500        17.4049        20.9920        32.2430         0.1210        32.9170         0.4020         3.9760         1.7870 
      2518.0000       116.8180       170.6570       237.1760       393.0790       480.0170       121.5630       248.2160      -999.2500      -999.2500        16.4818        16.0820        30.7600         0.1190        30.1920         0.4390         3.7830         1.8100 
      2518.5000       116.9380       171.0320       237.1760       395.7370       479.1750       119.5590       238.9980      -999.2500      -999.2500        15.3845        19.9550        28.6240         0.0940        28.8620         0.4590         3.4950         1.7470 
      2519.0000       117.0540       171.4080       237.1760       399.1200       478.9930       124.3690       203.5990      -999.2500      -999.2500        16.4537        21.9240        25.4810         0.0680        27.0200         0.4710         3.1340         1.5910 
