~Version Information Block
VERS .                 2.00:  CWLS LOG ASCII STANDARD - VERSION 2.00
WRAP .                   NO:  One line per depth step
~Well Information Block
#MNEM.UNIT        Data Type   Information
#---------- ----------------  -----------
STRT .F               374.5:  START DEPTH
STOP .F              5376.5:  STOP DEPTH
STEP .F                 0.5:  STEP
NULL .              -999.25:  NULL VALUE
COMP .     TEXACO BRITAIN LTD.:  COMPANY
WELL .              9/11A-6:  WELL
FLD  .              MARINER:  FIELD
LOC  .            NORTH SEA:  LOCATION
PROV .                 UKCS:  PROVINCE
SRVC .         SCHLUMBERGER:  SERVICE COMPANY
DATE .             09/09/96:  LOG DATE
UWI  .                24584:  UNIQUE WELL ID
~Curve Information Block
#MNEM.UNIT         API CODE   Curve Description
#---------- ----------------  -----------------
DEPTH.F                    :  Depth in Feet
AHT10.OHMM                 :  Edited resistivity HILTB-1-2 (AHT10)
AHT20.OHMM                 :  Edited resistivity HILTB-1-2 (AHT20)
AHT30.OHMM                 :  Edited resistivity HILTB-1-2 (AHT30)
AHT60.OHMM                 :  Edited resistivity HILTB-1-2 (AHT60)
AHT90.OHMM                 :  Edited resistivity HILTB-1-2 (AHT90)
DT4P .US/F                 :  Edited sonic  DSST-1 (DT4P)
DT4S .US/F                 :  Edited sonic  DSST-1 (DT4S)
DTCO .US/F                 :  Edited sonic  DSST-1 (DTCO)
DTSM .US/F                 :  Edited sonic  DSST-1 (DTSM)
GR   .GAPI                 :  Edited gamma ray DSST-1 (GR)
HCAL .IN                   :  Edited caliper HILTB-1-2 (HCAL)
HCGR .GAPI                 :  Edited computed gamma ray HILTB-1-2 (HCGR)
HDRA .G/C3                 :  Edited density correction HILTB-1-2 (HDRA)
HSGR .GAPI                 :  Merged gamma ray HILTB-1-1 & HILTB-1-2 (HSGR)
NPHI .V/V                  :  Edited neutron HILTB-1-2 (NPHI)
PEFZ .B/E                  :  Edited photoelectric effect HILTB-1-2 (PEFZ)
RHOZ .G/C3                 :  Edited density HILTB-1-2 (RHOZ)
~Parameter Information Block
#MNEM.UNIT            Value   Description
#---------- ----------------  -----------
SET  .            COMP_WIRE:  
PROJ .             82ND_I_1:  
API  .                     :  
DATU .                  MSL:  
DMF  .                 D.F.:  Drilling Measured From
TDD  .F                5393:  
EDF  .F                  82:  
EKB  .F                  82:  Elevation_Kelly_Bushing
EPD  .F                  82:  
FN   .          EXPLORATION:  
LATI .     59 35' 03.0282 N:  
LCC  .          API 440 SCH:  
LONG .     01 08' 08.9472 E:  
LMF  .                 R.T.:  
ORDU .                 FEET:  
RANG .                     :  Range
RIG  .     BORGSTEN DOLPHIN:  
SECT .                     :  Section
SURF .F                -343:  
~Other Information Block
~A        DEPTH          AHT10          AHT20          AHT30          AHT60          AHT90           DT4P           DT4S           DTCO           DTSM             GR           HCAL           HCGR           HDRA           HSGR           NPHI           PEFZ           RHOZ 
# ...
      4199.5000       305.5880       358.2680       366.2970       356.9330       352.1490       133.9880       191.7030       133.8688       361.6002        52.2659        12.0730        52.6460         0.0130        65.3890         0.5020         3.5070         2.0970 
      4200.0000       304.8830       347.6070       363.1990       355.2730       343.3010       133.9880       191.3030       134.9447       371.3340        52.7776        12.0060        53.9530         0.0170        66.5750         0.5020         3.4260         2.0810 
      4200.5000       312.5660       347.3700       365.2980       355.5090       350.9710       133.9880       191.3030       135.0926       371.0635        52.9238        11.9840        55.6110         0.0150        68.6960         0.4750         3.4440         2.0820 
      4201.0000       323.1070       362.2910       381.2320       382.1600       381.8610       135.1900       191.7030       134.8358       368.9177        50.3303        11.9880        56.4290         0.0070        68.4600         0.4490         3.5180         2.0830 
      4201.5000       332.3260       383.8490       394.7130       401.8390       392.8610       135.9920       191.7030       134.8896       368.3533        47.5390        11.9550        53.0770         0.0070        65.6040         0.5060         3.5400         2.0770 
      4202.0000       329.9990       392.5130       393.3130       404.6910       389.5360       135.5910       191.7030       135.2874       367.3896        49.0940        11.9130        49.9180         0.0120        63.4080         0.4990         3.5600         2.0700 
      4202.5000       318.8230       363.3700       364.1810       349.8910       362.0530       135.1900       191.7740       136.0283       364.1729        49.2601        11.8950        48.5350         0.0240        62.9610         0.4830         3.5830         2.0520 
      4203.0000       322.5720       353.6300       351.6720       347.1130       346.4080       134.7900       192.0160       135.8606       357.5113        52.9172        11.8820        48.2350         0.0290        63.8670         0.4350         3.5440         2.0490 
      4203.5000       329.5450       375.5330       365.6110       369.4660       367.9440       134.3890       192.2590       135.3231       355.1848        52.4154        11.8350        48.2460         0.0300        64.3830         0.4480         3.4870         2.0570 
      4204.0000       334.5730       375.1800       402.1140       419.1540       393.0050       133.9880       192.5010       134.8876       356.3030        53.8140        11.8000        47.8380         0.0280        64.2040         0.4750         3.4300         2.0690 
      4204.5000       331.4430       362.8260       391.8580       433.4530       419.5520       133.9880       192.7430       134.0789       356.0591        51.4131        11.9470        47.6200         0.0230        64.4320         0.4920         3.4120         2.0760 
      4205.0000       328.9400       359.1500       374.0750       411.5040       383.9420       133.9880       192.9060       133.6660       357.7653        50.0934        12.4730        48.8600         0.0160        66.0160         0.4620         3.4200         2.0740 
      4205.5000       323.2390       357.0740       361.5990       358.5900       353.0700       133.9880       192.9060       135.0661       356.5978        49.2844        12.3350        50.7980         0.0200        67.4090         0.4770         3.4290         2.0740 
      4206.0000       323.1170       363.3050       364.8460       391.2750       368.4620       133.9880       192.9060       136.1204       363.1357        50.8655        12.0370        52.3000         0.0280        68.8260         0.4600         3.4690         2.0770 
      4206.5000       323.6260       368.9300       369.4120       402.2560       399.2110       135.9920       192.5050       137.6909       374.2552        53.1474        12.1140        52.5890         0.0370        68.4480         0.4590         3.4460         2.0780 
      4207.0000       327.8300       363.1410       365.4010       385.2240       409.0660       135.9920       193.3070       137.9770       368.2020        52.9225        12.2710        51.6000         0.0360        67.8160         0.4740         3.4270         2.0760 
      4207.5000       327.8000       353.6720       350.4840       371.5560       383.6440       135.9920       193.2510       136.1996       359.6101        51.5588        12.2930        51.8210         0.0300        67.0590         0.4790         3.4040         2.0680 
      4208.0000       323.1990       349.2010       349.7450       358.7060       355.5250       135.1900       193.1870       135.2542       360.7397        51.1145        12.6920        52.1840         0.0220        66.5790         0.4640         3.4440         2.0630 
      4208.5000       323.1960       362.3080       370.5810       355.4350       359.3320       133.9880       193.1240       134.7698       364.6479        52.1204        12.1630        52.4550         0.0200        66.2250         0.4520         3.4470         2.0620 
      4209.0000       326.1300       375.4220       383.6770       360.9830       390.5460       131.9840       193.0600       132.4419       366.1468        53.7764        12.4520        52.7380         0.0190        65.4280         0.4590         3.4460         2.0770 
      4209.5000       329.6350       367.0640       395.3930       387.3890       393.5640       131.1820       192.9960       132.4232       362.5522        52.6023        11.7850        53.4980         0.0180        64.6440         0.4580         3.3880         2.0880 
      4210.0000       330.1590       365.8480       393.3160       399.0510       379.2970       131.1820       192.9320       132.8511       353.3234        53.6922        11.8480        54.4110         0.0120        64.2080         0.4530         3.3650         2.0880 
      4210.5000       323.6670       359.4260       383.4100       387.0970       380.2760       131.3830       192.9060       132.8711       351.4334        55.7762        11.8800        55.7380         0.0060        65.4580         0.4810         3.3620         2.0760 
      4211.0000       327.0050       356.5890       384.2580       380.4770       395.9830       132.3850       192.7400       133.3459       360.5200        56.1034        11.8650        54.3670         0.0080        66.8120         0.4750         3.3210         2.0680 
      4211.5000       324.7670       355.0330       401.4850       401.9810       400.8690       133.1860       192.5860       133.7188       365.8551        55.0197        12.5310        52.0920         0.0100        65.8530         0.4640         3.3850         2.0700 
      4212.0000       323.1410       359.0200       396.6470       402.7130       381.5150       133.3870       192.4330       134.2453       367.3126        54.2909        13.0270        49.5550         0.0100        63.1980         0.4130         3.3490         2.0730 
      4212.5000       324.6010       375.8720       380.9400       372.6670       362.1010       133.9880       192.2790       135.3987       368.7458        56.3326        11.9680        50.3470         0.0110        62.3930         0.3940         3.3530         2.0760 
      4213.0000       328.4030       362.3520       373.6660       376.8550       375.5070       133.9880       192.1260       136.2165       370.4725        55.1076        11.8390        53.5290         0.0120        63.5600         0.4250         3.3600         2.0750 
      4213.5000       322.6510       370.8710       382.6170       393.4980       387.9370       134.7900       191.9720       137.5313       366.9466        55.6905        11.8650        55.1430         0.0120        64.8860         0.4440         3.3660         2.0760 
      4214.0000       321.2330       379.0630       388.9310       397.3910       375.5290       135.5910       191.8190       137.9236       366.4874        51.8812        11.8610        56.3320         0.0110        65.9980         0.4770         3.3720         2.0790 
