~Version Information Block
VERS .                 2.00:  CWLS LOG ASCII STANDARD - VERSION 2.00
WRAP .                   NO:  One line per depth step
~Well Information Block
#MNEM.UNIT        Data Type   Information
#---------- ----------------  -----------
STRT .F               374.5:  START DEPTH
STOP .F              5376.5:  STOP DEPTH
STEP .F                 0.5:  STEP
NULL .              -999.25:  NULL VALUE
COMP .     TEXACO BRITAIN LTD.:  COMPANY
WELL .              9/11A-6:  WELL
FLD  .              MARINER:  FIELD
LOC  .            NORTH SEA:  LOCATION
PROV .                 UKCS:  PROVINCE
SRVC .         SCHLUMBERGER:  SERVICE COMPANY
DATE .             09/09/96:  LOG DATE
UWI  .                24584:  UNIQUE WELL ID
~Curve Information Block
#MNEM.UNIT         API CODE   Curve Description
#---------- ----------------  -----------------
DEPTH.F                    :  Depth in Feet
AHT10.OHMM                 :  Edited resistivity HILTB-1-2 (AHT10)
AHT20.OHMM                 :  Edited resistivity HILTB-1-2 (AHT20)
AHT30.OHMM                 :  Edited resistivity HILTB-1-2 (AHT30)
AHT60.OHMM                 :  Edited resistivity HILTB-1-2 (AHT60)
AHT90.OHMM                 :  Edited resistivity HILTB-1-2 (AHT90)
DT4P .US/F                 :  Edited sonic  DSST-1 (DT4P)
DT4S .US/F                 :  Edited sonic  DSST-1 (DT4S)
DTCO .US/F                 :  Edited sonic  DSST-1 (DTCO)
DTSM .US/F                 :  Edited sonic  DSST-1 (DTSM)
GR   .GAPI                 :  Edited gamma ray DSST-1 (GR)
HCAL .IN                   :  Edited caliper HILTB-1-2 (HCAL)
HCGR .GAPI                 :  Edited computed gamma ray HILTB-1-2 (HCGR)
HDRA .G/C3                 :  Edited density correction HILTB-1-2 (HDRA)
HSGR .GAPI                 :  Merged gamma ray HILTB-1-1 & HILTB-1-2 (HSGR)
NPHI .V/V                  :  Edited neutron HILTB-1-2 (NPHI)
PEFZ .B/E                  :  Edited photoelectric effect HILTB-1-2 (PEFZ)
RHOZ .G/C3                 :  Edited density HILTB-1-2 (RHOZ)
~Parameter Information Block
#MNEM.UNIT            Value   Description
#---------- ----------------  -----------
SET  .            COMP_WIRE:  
PROJ .             82ND_I_1:  
API  .                     :  
DATU .                  MSL:  
DMF  .                 D.F.:  Drilling Measured From
TDD  .F                5393:  
EDF  .F                  82:  
EKB  .F                  82:  Elevation_Kelly_Bushing
EPD  .F                  82:  
FN   .          EXPLORATION:  
LATI .     59 35' 03.0282 N:  
LCC  .          API 440 SCH:  
LONG .     01 08' 08.9472 E:  
LMF  .                 R.T.:  
ORDU .                 FEET:  
RANG .                     :  Range
RIG  .     BORGSTEN DOLPHIN:  
SECT .                     :  Section
SURF .F                -343:  
~Other Information Block
~A        DEPTH          AHT10          AHT20          AHT30          AHT60          AHT90           DT4P           DT4S           DTCO           DTSM             GR           HCAL           HCGR           HDRA           HSGR           NPHI           PEFZ           RHOZ 
# ...
      4589.5000       298.8600       342.9260       345.9150       346.2620       339.6150       141.6030       199.3190       141.1170       350.4346        54.2993        12.5990        53.9780         0.0560        65.7510         0.5020         3.6210         2.0900 
      4590.0000       309.5610       336.5190       343.3470       341.6340       332.2420       141.2020       197.3150       138.9229       341.5909        54.6796        12.2770        54.5700         0.0390        65.6590         0.4770         3.6150         2.0850 
      4590.5000       314.8090       354.8970       333.3590       365.8010       345.2280       140.4010       196.1120       139.3699       332.9276        53.5398        12.6840        55.0870         0.0290        66.4340         0.4590         3.6080         2.0880 
      4591.0000       317.1280       348.9150       366.3720       367.3490       354.4220       139.5990       196.1120       138.9060       336.3115        52.1623        13.0170        55.4550         0.0240        67.4520         0.4350         3.5630         2.1000 
      4591.5000       314.2960       336.4860       355.9870       340.7060       329.0650       139.5990       196.1120       138.0253       344.4354        49.7871        12.5930        54.5490         0.0220        68.1000         0.4130         3.5060         2.1050 
      4592.0000       308.2960       317.6090       333.1820       317.6150       311.8760       138.7980       196.1120       138.8430       353.5854        47.7433        12.3750        53.6700         0.0180        67.2580         0.4010         3.4490         2.1000 
      4592.5000       314.5090       306.9340       311.1830       316.3900       320.3230       137.9960       194.9100       137.3319       355.5184        47.0328        12.9310        53.0600         0.0190        66.3290         0.4070         3.4970         2.0950 
      4593.0000       326.6960       314.0650       322.6680       346.3650       348.5610       137.5950       192.5050       137.2051       356.7634        49.0956        12.4020        53.4280         0.0220        65.2210         0.4140         3.5510         2.1000 
      4593.5000       323.8320       350.6100       358.8080       366.7250       356.6480       136.7940       191.3030       137.4300       358.0464        50.4428        12.2410        53.8310         0.0300        65.7630         0.4170         3.6050         2.1050 
      4594.0000       312.1450       364.6220       343.5600       366.5120       351.2570       136.3930       191.7030       135.4599       360.1748        51.1015        12.6970        53.6880         0.0300        66.2320         0.4100         3.6070         2.1050 
      4594.5000       308.0670       340.8410       322.6060       342.3560       332.0680       136.3930       191.7030       137.6211       369.7767        51.6880        12.7350        51.8090         0.0240        65.1900         0.4110         3.6060         2.1000 
      4595.0000       311.9630       316.0970       309.4740       320.0040       317.5030       136.3930       192.1040       139.3260       387.0744        49.6783        12.5240        49.8660         0.0220        62.2670         0.4430         3.6060         2.0990 
      4595.5000       319.2520       311.5490       313.2940       313.5050       318.9330       137.9960       194.9100       139.8236       393.5282        50.2075        12.2200        47.9860         0.0190        60.6800         0.4190         3.6060         2.1010 
      4596.0000       326.6680       347.0750       344.3070       331.6570       342.5810       138.3970       194.9100       139.7721       383.3839        48.5870        12.3580        47.9850         0.0180        59.0490         0.3820         3.6060         2.1010 
      4596.5000       327.9670       335.5740       354.7260       360.9010       349.3140       137.9960       194.9100       139.4363       375.6299        49.5432        12.3150        49.5480         0.0180        60.1750         0.3930         3.6060         2.0950 
      4597.0000       311.6800       326.0220       335.8230       352.4210       329.0180       136.7940       193.3070       138.3853       374.2068        47.6337        12.1340        53.0210         0.0210        63.9430         0.4090         3.6060         2.0870 
      4597.5000       311.1310       330.8690       327.9170       328.9650       322.9570       136.3930       193.7070       138.1828       376.5403        48.7588        12.1490        56.2000         0.0240        65.7690         0.4810         3.6060         2.0880 
      4598.0000       316.2310       350.7320       345.3420       346.7790       346.6860       137.5950       194.1080       139.2607       375.7524        49.4941        12.5770        56.9110         0.0270        65.0860         0.4720         3.6060         2.0900 
      4598.5000       317.9310       364.6350       355.5030       359.3720       355.1850       137.9960       194.1080       139.4027       373.9560        52.6765        13.0940        56.7400         0.0270        63.3880         0.4530         3.6090         2.0920 
      4599.0000       311.7540       349.1840       334.9010       350.3120       336.5720       137.9960       192.9060       138.2520       378.3085        52.7853        12.5670        56.7050         0.0280        63.0710         0.4600         3.6230         2.0890 
      4599.5000       305.9020       317.3480       321.1810       322.0630       324.6820       136.7940       192.5050       139.0613       381.6462        51.8089        12.2590        57.8680         0.0280        64.5240         0.4020         3.6370         2.0830 
      4600.0000       305.2300       316.9560       316.8920       312.9160       320.9370       135.5910       192.1040       136.9339       388.4901        49.3370        12.1010        59.3240         0.0280        66.5950         0.4610         3.6390         2.0830 
      4600.5000       309.3310       326.5760       331.8190       323.5120       331.7820       134.7900       191.7030       136.3416       394.7128        48.8246        12.2690        61.7560         0.0260        67.3430         0.4840         3.6010         2.1000 
      4601.0000       312.7980       335.7540       344.3170       345.7790       339.4850       134.7900       191.4480       136.1768       396.7852        51.5068        12.2470        64.7850         0.0210        69.0140         0.4660         3.5650         2.1110 
      4601.5000       312.9000       337.2110       344.6020       345.5880       339.0980       134.8780       190.5010       137.0281       395.9833        54.4561        12.7160        65.5420         0.0110        69.4260         0.4500         3.5280         2.1030 
      4602.0000       305.0770       320.3610       333.5210       331.5060       327.5370       135.5520       190.1000       137.3358       391.7090        53.5067        12.6990        63.9510         0.0030        67.5770         0.4710         3.5330         2.0980 
      4602.5000       303.1160       316.9020       326.8180       332.5100       319.4560       136.2270       189.6990       137.6125       384.3592        53.5889        12.3290        60.2630         0.0050        64.9950         0.4620         3.5400         2.0940 
      4603.0000       303.2030       320.0480       323.1290       336.9910       327.7900       136.9010       189.2990       137.5464       379.4915        52.8728        12.2280        57.7020         0.0070        63.7940         0.4580         3.5470         2.0990 
      4603.5000       294.3360       329.3550       328.2830       328.9270       331.4140       137.5760       189.2990       137.1213       375.9248        54.1462        12.5850        56.3960         0.0090        64.1080         0.4520         3.5460         2.1020 
      4604.0000       293.9570       331.0100       331.2330       325.5440       328.2460       137.9960       192.1040       138.4946       372.0164        52.7796        12.2850        56.3490         0.0130        63.8670         0.4440         3.5460         2.1070 
