~Version Information Block
VERS .                 2.00:  CWLS LOG ASCII STANDARD - VERSION 2.00
WRAP .                   NO:  One line per depth step
~Well Information Block
#MNEM.UNIT        Data Type   Information
#---------- ----------------  -----------
STRT .F               374.5:  START DEPTH
STOP .F              5376.5:  STOP DEPTH
STEP .F                 0.5:  STEP
NULL .              -999.25:  NULL VALUE
COMP .     TEXACO BRITAIN LTD.:  COMPANY
WELL .              9/11A-6:  WELL
FLD  .              MARINER:  FIELD
LOC  .            NORTH SEA:  LOCATION
PROV .                 UKCS:  PROVINCE
SRVC .         SCHLUMBERGER:  SERVICE COMPANY
DATE .             09/09/96:  LOG DATE
UWI  .                24584:  UNIQUE WELL ID
~Curve Information Block
#MNEM.UNIT         API CODE   Curve Description
#---------- ----------------  -----------------
DEPTH.F                    :  Depth in Feet
AHT10.OHMM                 :  Edited resistivity HILTB-1-2 (AHT10)
AHT20.OHMM                 :  Edited resistivity HILTB-1-2 (AHT20)
AHT30.OHMM                 :  Edited resistivity HILTB-1-2 (AHT30)
AHT60.OHMM                 :  Edited resistivity HILTB-1-2 (AHT60)
AHT90.OHMM                 :  Edited resistivity HILTB-1-2 (AHT90)
DT4P .US/F                 :  Edited sonic  DSST-1 (DT4P)
DT4S .US/F                 :  Edited sonic  DSST-1 (DT4S)
DTCO .US/F                 :  Edited sonic  DSST-1 (DTCO)
DTSM .US/F                 :  Edited sonic  DSST-1 (DTSM)
GR   .GAPI                 :  Edited gamma ray DSST-1 (GR)
HCAL .IN                   :  Edited caliper HILTB-1-2 (HCAL)
HCGR .GAPI                 :  Edited computed gamma ray HILTB-1-2 (HCGR)
HDRA .G/C3                 :  Edited density correction HILTB-1-2 (HDRA)
HSGR .GAPI                 :  Merged gamma ray HILTB-1-1 & HILTB-1-2 (HSGR)
NPHI .V/V                  :  Edited neutron HILTB-1-2 (NPHI)
PEFZ .B/E                  :  Edited photoelectric effect HILTB-1-2 (PEFZ)
RHOZ .G/C3                 :  Edited density HILTB-1-2 (RHOZ)
~Parameter Information Block
#MNEM.UNIT            Value   Description
#---------- ----------------  -----------
SET  .            COMP_WIRE:  
PROJ .             82ND_I_1:  
API  .                     :  
DATU .                  MSL:  
DMF  .                 D.F.:  Drilling Measured From
TDD  .F                5393:  
EDF  .F                  82:  
EKB  .F                  82:  Elevation_Kelly_Bushing
EPD  .F                  82:  
FN   .          EXPLORATION:  
LATI .     59 35' 03.0282 N:  
LCC  .          API 440 SCH:  
LONG .     01 08' 08.9472 E:  
LMF  .                 R.T.:  
ORDU .                 FEET:  
RANG .                     :  Range
RIG  .     BORGSTEN DOLPHIN:  
SECT .                     :  Section
SURF .F                -343:  
~Other Information Block
~A        DEPTH          AHT10          AHT20          AHT30          AHT60          AHT90           DT4P           DT4S           DTCO           DTSM             GR           HCAL           HCGR           HDRA           HSGR           NPHI           PEFZ           RHOZ 
# ...
      3824.5000       245.3450       245.7510       241.1940       241.4350       237.0460       123.9680       186.0920       125.5633      -999.2500        24.8400        12.1110        27.7120         0.0000        30.5230         0.3260         2.3040         2.0560 
      3825.0000       243.2900       243.3400       241.1400       243.6360       237.0400       123.5670       186.0920       126.5418      -999.2500        26.3981        12.0740        28.5610        -0.0020        31.5810         0.3410         2.2900         2.0570 
      3825.5000       244.8010       246.4560       242.7230       252.7330       242.7590       121.9640       182.4850       124.4527      -999.2500        27.7615        12.0720        29.2230         0.0000        31.6310         0.3600         2.2770         2.0700 
      3826.0000       255.8210       257.2930       251.9760       262.2100       250.2260       123.5670       182.0840       123.0831      -999.2500        27.6646        12.1600        29.6060         0.0090        32.2890         0.3500         2.2630         2.0870 
      3826.5000       257.2590       261.0560       257.0640       263.3950       255.0480       121.5630       182.0840       123.4540      -999.2500        23.9640        12.2510        29.6150         0.0180        31.4460         0.3290         2.2500         2.1010 
      3827.0000       252.7710       252.1320       251.6430       253.8040       246.2340       122.3650       182.0840       123.1475      -999.2500        21.8274        12.2930        29.1680         0.0210        29.2300         0.3060         2.2260         2.1090 
      3827.5000       246.0440       242.9980       238.1520       244.8320       244.6400       122.3650       181.6830       123.4816      -999.2500        20.7483        12.4230        27.3860         0.0210        28.7020         0.3320         2.2000         2.1050 
      3828.0000       238.7760       237.3200       235.0810       241.2160       239.0000       122.3650       183.6870       123.3984      -999.2500        22.4102        12.3530        28.3940         0.0130        28.0870         0.3610         2.1780         2.0950 
      3828.5000       238.6890       237.6710       235.6880       247.3740       239.2730       121.1620       183.6870       123.2309      -999.2500        23.9696        12.1070        29.2750         0.0090        28.7050         0.4000         2.1430         2.0790 
      3829.0000       242.2560       244.2310       241.4010       249.2750       241.6980       121.5630       180.4810       124.1822      -999.2500        24.5609        12.0760        29.1900         0.0050        28.7720         0.3900         2.1650         2.0750 
      3829.5000       243.1160       247.0050       243.1420       246.2520       247.1420       121.1620       177.2750       124.3331      -999.2500        23.9651        12.1520        29.3930         0.0050        28.6930         0.3720         2.1680         2.0790 
      3830.0000       240.6190       244.1870       243.2070       239.0590       242.1960       120.3610       178.8780       124.0579      -999.2500        22.8881        12.2850        29.3150         0.0080        28.9950         0.3270         2.1700         2.0960 
      3830.5000       235.5650       235.8540       242.7700       237.1310       235.2370       119.5590       180.0800       123.3146      -999.2500        21.3060        12.3240        29.4450         0.0080        29.3530         0.3050         2.2120         2.1020 
      3831.0000       235.1590       235.0780       241.1480       237.2990       235.1940       119.5590       180.0800       123.1591      -999.2500        22.5770        12.3950        29.6550         0.0090        28.8150         0.3100         2.2300         2.0990 
      3831.5000       235.1980       236.9430       241.1980       239.5350       236.7310       119.5590       179.4790       123.4336      -999.2500        24.7261        12.3660        28.4280         0.0110        28.4020         0.3210         2.1580         2.0840 
      3832.0000       236.5740       245.7580       241.0780       244.7590       240.7780       119.5590       179.2790       123.2393      -999.2500        27.4698        12.1440        29.4540         0.0110        28.4390         0.3360         2.1200         2.0690 
      3832.5000       243.4560       249.0320       245.2700       247.4200       244.7850       120.1600       179.6790       122.8708      -999.2500        27.5672        12.0520        29.8820         0.0100        29.1440         0.3320         2.0450         2.0660 
      3833.0000       249.8040       244.3690       245.1630       247.1120       242.4240       121.7640       179.6790       122.4873      -999.2500        26.7824        12.1060        30.3240         0.0040        29.1500         0.3510         2.0490         2.0760 
      3833.5000       250.1300       243.2180       245.1450       240.8300       236.7020       121.9640       179.6790       122.8393      -999.2500        25.3216        12.2340        31.2680         0.0010        30.0440         0.3290         2.0980         2.0890 
      3834.0000       241.2400       243.2450       238.9430       231.1800       235.0830       121.7640       178.8780       122.9604      -999.2500        26.1981        12.2800        32.6310         0.0010        31.2580         0.3130         2.2140         2.0990 
      3834.5000       245.2920       249.2420       239.6660       241.5250       242.2220       121.1620       177.8760       122.1870      -999.2500        26.5931        12.2410        33.9550         0.0070        32.7940         0.3000         2.2940         2.1010 
      3835.0000       260.0420       263.3000       257.1760       260.8000       257.8610       120.7620       176.8740       121.4322      -999.2500        28.9303        12.3800        35.4620         0.0040        34.0940         0.3120         2.3040         2.1050 
      3835.5000       278.3610       280.1040       275.3280       280.5970       273.4500       120.3610       178.8780       120.4293      -999.2500        29.2304        12.2310        37.2500         0.0020        36.0900         0.3180         2.2640         2.1070 
      3836.0000       296.4440       299.7930       293.4750       300.3750       289.1790       119.5590       178.8780       119.5810      -999.2500        28.5411        12.0950        39.8420        -0.0040        38.1520         0.3210         2.2340         2.1060 
      3836.5000       315.0340       308.7540       310.8190       319.1930       304.9430       119.1580       177.8760       119.0809      -999.2500        24.2563        12.1100        41.9930        -0.0030        39.5700         0.3230         2.2110         2.1180 
      3837.0000       325.7730       311.6050       319.2070       306.7530       313.4450       118.1560       176.8740       118.3231      -999.2500        21.1050        12.1270        38.8000         0.0000        37.1740         0.3010         2.1880         2.1450 
      3837.5000       303.1020       295.1500       302.7680       288.1700       289.5410       117.1540       176.4730       118.1567      -999.2500        17.9932        12.3490        32.0860         0.0080        29.6060         0.2760         2.1650         2.1670 
      3838.0000       287.2520       270.9520       276.2450       271.0910       276.0270       115.9520       176.0720       118.3551      -999.2500        19.0644        12.2470        27.0660         0.0200        26.2420         0.2440         2.1630         2.1700 
      3838.5000       277.1980       261.6110       258.9330       258.8310       261.5380       114.7490       176.0720       118.2325      -999.2500        17.8299        12.3080        25.3580         0.0210        25.5420         0.2380         2.1330         2.1600 
      3839.0000       264.9180       255.5250       257.1650       252.7520       259.2980       113.5470       177.8760       117.6808      -999.2500        18.1176        12.4170        25.5170         0.0140        25.5680         0.2490         2.0300         2.1470 
