~Version Information Block
VERS .                 2.00:  CWLS LOG ASCII STANDARD - VERSION 2.00
WRAP .                   NO:  One line per depth step
~Well Information Block
#MNEM.UNIT        Data Type   Information
#---------- ----------------  -----------
STRT .F               374.5:  START DEPTH
STOP .F              5376.5:  STOP DEPTH
STEP .F                 0.5:  STEP
NULL .              -999.25:  NULL VALUE
COMP .     TEXACO BRITAIN LTD.:  COMPANY
WELL .              9/11A-6:  WELL
FLD  .              MARINER:  FIELD
LOC  .            NORTH SEA:  LOCATION
PROV .                 UKCS:  PROVINCE
SRVC .         SCHLUMBERGER:  SERVICE COMPANY
DATE .             09/09/96:  LOG DATE
UWI  .                24584:  UNIQUE WELL ID
~Curve Information Block
#MNEM.UNIT         API CODE   Curve Description
#---------- ----------------  -----------------
DEPTH.F                    :  Depth in Feet
AHT10.OHMM                 :  Edited resistivity HILTB-1-2 (AHT10)
AHT20.OHMM                 :  Edited resistivity HILTB-1-2 (AHT20)
AHT30.OHMM                 :  Edited resistivity HILTB-1-2 (AHT30)
AHT60.OHMM                 :  Edited resistivity HILTB-1-2 (AHT60)
AHT90.OHMM                 :  Edited resistivity HILTB-1-2 (AHT90)
DT4P .US/F                 :  Edited sonic  DSST-1 (DT4P)
DT4S .US/F                 :  Edited sonic  DSST-1 (DT4S)
DTCO .US/F                 :  Edited sonic  DSST-1 (DTCO)
DTSM .US/F                 :  Edited sonic  DSST-1 (DTSM)
GR   .GAPI                 :  Edited gamma ray DSST-1 (GR)
HCAL .IN                   :  Edited caliper HILTB-1-2 (HCAL)
HCGR .GAPI                 :  Edited computed gamma ray HILTB-1-2 (HCGR)
HDRA .G/C3                 :  Edited density correction HILTB-1-2 (HDRA)
HSGR .GAPI                 :  Merged gamma ray HILTB-1-1 & HILTB-1-2 (HSGR)
NPHI .V/V                  :  Edited neutron HILTB-1-2 (NPHI)
PEFZ .B/E                  :  Edited photoelectric effect HILTB-1-2 (PEFZ)
RHOZ .G/C3                 :  Edited density HILTB-1-2 (RHOZ)
~Parameter Information Block
#MNEM.UNIT            Value   Description
#---------- ----------------  -----------
SET  .            COMP_WIRE:  
PROJ .             82ND_I_1:  
API  .                     :  
DATU .                  MSL:  
DMF  .                 D.F.:  Drilling Measured From
TDD  .F                5393:  
EDF  .F                  82:  
EKB  .F                  82:  Elevation_Kelly_Bushing
EPD  .F                  82:  
FN   .          EXPLORATION:  
LATI .     59 35' 03.0282 N:  
LCC  .          API 440 SCH:  
LONG .     01 08' 08.9472 E:  
LMF  .                 R.T.:  
ORDU .                 FEET:  
RANG .                     :  Range
RIG  .     BORGSTEN DOLPHIN:  
SECT .                     :  Section
SURF .F                -343:  
~Other Information Block
~A        DEPTH          AHT10          AHT20          AHT30          AHT60          AHT90           DT4P           DT4S           DTCO           DTSM             GR           HCAL           HCGR           HDRA           HSGR           NPHI           PEFZ           RHOZ 
# ...
      5144.5000       227.0510       221.1480       209.1960       215.2370       215.1790       105.3310       189.3250       107.4081       238.6007        23.9066        12.0840        24.3410        -0.0010        30.6050         0.2530         2.2840         2.1350 
      5145.0000       229.0450       221.1780       209.1580       215.1650       215.1790       105.5310       189.5150       108.5674       240.0296        23.4923        12.0740        25.6070         0.0010        30.8600         0.2650         2.2520         2.1340 
      5145.5000       231.2020       221.1780       211.4190       215.1830       215.1920       103.9280       189.7050       106.8546       238.7691        23.9176        12.0860        25.6820         0.0090        32.0400         0.2640         2.2230         2.1410 
      5146.0000       232.7420       221.1830       218.2070       215.1690       215.1370       103.9280       189.8950       103.4787       236.2577        21.6921        12.1850        25.4020         0.0070        31.3460         0.2610         2.1320         2.1500 
      5146.5000       233.5770       221.1870       223.4350       215.2820       215.6530       103.9280       190.1000       102.6632       235.1760        22.2789        12.2540        25.1350        -0.0010        29.1870         0.2580         2.0620         2.1600 
      5147.0000       238.7740       221.1790       223.0090       219.2780       219.6010       104.3290       190.0590       102.6588       234.4943        22.2463        12.2350        23.4720        -0.0080        27.0100         0.2550         1.9880         2.1630 
      5147.5000       245.9280       227.4490       228.8410       226.6870       229.7540       105.9320       190.0130       104.2332       236.5822        23.1218        12.2150        23.2790        -0.0090        27.1280         0.2440         2.0870         2.1670 
      5148.0000       251.7620       233.4820       235.8440       233.2530       237.3120       107.1340       189.9680       105.7409       237.7636        23.0327        12.2290        24.0010        -0.0050        28.8600         0.2520         2.1300         2.1710 
      5148.5000       253.1000       235.4020       238.7740       235.3610       239.5590       107.1340       189.9220       105.9723       235.3665        22.6425        12.3050        24.4680         0.0010        29.7220         0.2380         2.1450         2.1720 
      5149.0000       247.5810       231.3090       238.5020       227.6400       227.7560       106.9340       189.8770       106.7105       236.3508        22.6739        12.2660        24.7390         0.0050        29.7790         0.2590         2.1410         2.1660 
      5149.5000       233.9650       215.8990       221.3070       216.7960       214.1000       106.5330       189.8310       107.0608       236.6321        21.6798        12.2350        23.2810         0.0000        28.2460         0.2570         2.1370         2.1550 
      5150.0000       219.9190       207.0760       210.0590       206.2420       208.4570       106.3330       189.7860       107.7998       236.9988        23.0197        12.2420        22.8890        -0.0050        27.3250         0.2510         2.1330         2.1470 
      5150.5000       212.9760       203.5590       199.4320       202.8420       203.3380       106.3330       189.7400       107.6239       240.2097        22.6699        12.2760        23.3330         0.0000        27.3570         0.2580         2.1290         2.1410 
      5151.0000       204.1950       203.1690       195.7290       200.7680       200.9850       106.7330       189.6990       108.3877       243.9993        23.4788        12.2690        23.8010         0.0040        29.2350         0.2680         2.1190         2.1440 
      5151.5000       195.6970       203.1010       193.2330       199.0600       201.2050       106.3330       189.6990       106.8939       248.3683        22.2180        12.2580        24.2380         0.0060        27.8950         0.2850         2.1070         2.1470 
      5152.0000       195.4160       198.0440       193.3720       195.5940       201.2750       105.9320       189.2990       107.3883       249.6519        21.9007        12.2170        22.5300         0.0050        25.0410         0.2770         2.0950         2.1430 
      5152.5000       196.9620       191.6180       191.2630       193.2770       197.0860       105.9320       188.8980       107.4855       248.8628        21.6489        12.2110        20.8920         0.0000        23.9560         0.2720         2.0870         2.1340 
      5153.0000       202.8660       191.1920       191.2690       193.1680       197.1850       106.7330       188.8980       108.4758       247.3336        20.8279        12.2540        21.2550        -0.0010        23.7700         0.2700         2.0830         2.1260 
      5153.5000       205.0270       190.9610       193.3550       193.1930       197.2540       106.7330       188.8980       108.6898       247.0888        21.4636        12.2840        21.4320        -0.0010        24.1360         0.2800         2.0800         2.1250 
      5154.0000       207.0590       193.2770       193.5420       193.1570       201.4000       106.7330       189.2990       108.6234       247.9199        20.9857        12.3130        21.3270        -0.0010        24.1880         0.3070         2.0770         2.1280 
      5154.5000       207.1830       197.5900       198.6110       195.2030       201.1440       106.7330       189.6990       108.4878       249.8821        21.8048        12.2710        20.8730         0.0000        25.1270         0.3170         2.0740         2.1310 
      5155.0000       207.0110       197.1100       203.0950       195.1790       201.1530       106.7330       190.1000       108.4260       249.9171        21.0205        12.2330        22.0290         0.0000        26.0180         0.3030         2.0710         2.1290 
      5155.5000       200.8770       197.1470       203.2770       195.1360       202.7730       106.7330       189.6990       108.6462       248.4072        19.6758        12.2570        22.0450         0.0000        26.3210         0.2770         2.0680         2.1290 
      5156.0000       198.6140       197.3990       196.7440       195.7150       203.1920       106.7330       189.6990       108.6720       248.3464        19.5167        12.2540        22.6170         0.0000        27.3730         0.2600         2.0720         2.1280 
      5156.5000       195.1290       193.6620       193.1940       191.3830       200.9840       106.7330       189.6990       109.2308       247.7940        19.9154        12.2140        22.6730         0.0000        27.1320         0.2620         2.0760         2.1270 
      5157.0000       193.5070       191.3350       190.8470       187.1030       196.8710       107.9360       190.1000       110.3012       249.0304        22.0695        12.2140        24.1810         0.0000        28.7940         0.2780         2.0800         2.1200 
      5157.5000       191.2800       187.6280       188.5040       182.8170       192.7210       108.1860       190.1000       110.3596       252.0347        23.2266        12.2140        25.6440         0.0000        31.3430         0.2810         2.0840         2.1110 
      5158.0000       189.1430       184.5850       186.1650       178.5120       188.5750       109.1380       190.1000       111.3690       251.8645        24.4166        12.2140        26.9270         0.0000        31.8840         0.2870         2.0870         2.1010 
      5158.5000       189.1930       180.7720       183.7690       175.1290       184.4430       109.5390       190.1000       111.3853       251.8132        23.6857        12.2140        27.1840         0.0000        31.6540         0.3000         2.0880         2.0920 
      5159.0000       189.1810       179.1640       182.8220       175.1990       180.1480       109.5390       190.1000       111.3955       253.2254        22.9391        12.2300        27.2290         0.0000        31.9700         0.3030         2.1100         2.0910 
