~Version Information Block
VERS .                 2.00:  CWLS LOG ASCII STANDARD - VERSION 2.00
WRAP .                   NO:  One line per depth step
~Well Information Block
#MNEM.UNIT        Data Type   Information
#---------- ----------------  -----------
STRT .F               374.5:  START DEPTH
STOP .F              5376.5:  STOP DEPTH
STEP .F                 0.5:  STEP
NULL .              -999.25:  NULL VALUE
COMP .     TEXACO BRITAIN LTD.:  COMPANY
WELL .              9/11A-6:  WELL
FLD  .              MARINER:  FIELD
LOC  .            NORTH SEA:  LOCATION
PROV .                 UKCS:  PROVINCE
SRVC .         SCHLUMBERGER:  SERVICE COMPANY
DATE .             09/09/96:  LOG DATE
UWI  .                24584:  UNIQUE WELL ID
~Curve Information Block
#MNEM.UNIT         API CODE   Curve Description
#---------- ----------------  -----------------
DEPTH.F                    :  Depth in Feet
AHT10.OHMM                 :  Edited resistivity HILTB-1-2 (AHT10)
AHT20.OHMM                 :  Edited resistivity HILTB-1-2 (AHT20)
AHT30.OHMM                 :  Edited resistivity HILTB-1-2 (AHT30)
AHT60.OHMM                 :  Edited resistivity HILTB-1-2 (AHT60)
AHT90.OHMM                 :  Edited resistivity HILTB-1-2 (AHT90)
DT4P .US/F                 :  Edited sonic  DSST-1 (DT4P)
DT4S .US/F                 :  Edited sonic  DSST-1 (DT4S)
DTCO .US/F                 :  Edited sonic  DSST-1 (DTCO)
DTSM .US/F                 :  Edited sonic  DSST-1 (DTSM)
GR   .GAPI                 :  Edited gamma ray DSST-1 (GR)
HCAL .IN                   :  Edited caliper HILTB-1-2 (HCAL)
HCGR .GAPI                 :  Edited computed gamma ray HILTB-1-2 (HCGR)
HDRA .G/C3                 :  Edited density correction HILTB-1-2 (HDRA)
HSGR .GAPI                 :  Merged gamma ray HILTB-1-1 & HILTB-1-2 (HSGR)
NPHI .V/V                  :  Edited neutron HILTB-1-2 (NPHI)
PEFZ .B/E                  :  Edited photoelectric effect HILTB-1-2 (PEFZ)
RHOZ .G/C3                 :  Edited density HILTB-1-2 (RHOZ)
~Parameter Information Block
#MNEM.UNIT            Value   Description
#---------- ----------------  -----------
SET  .            COMP_WIRE:  
PROJ .             82ND_I_1:  
API  .                     :  
DATU .                  MSL:  
DMF  .                 D.F.:  Drilling Measured From
TDD  .F                5393:  
EDF  .F                  82:  
EKB  .F                  82:  Elevation_Kelly_Bushing
EPD  .F                  82:  
FN   .          EXPLORATION:  
LATI .     59 35' 03.0282 N:  
LCC  .          API 440 SCH:  
LONG .     01 08' 08.9472 E:  
LMF  .                 R.T.:  
ORDU .                 FEET:  
RANG .                     :  Range
RIG  .     BORGSTEN DOLPHIN:  
SECT .                     :  Section
SURF .F                -343:  
~Other Information Block
~A        DEPTH          AHT10          AHT20          AHT30          AHT60          AHT90           DT4P           DT4S           DTCO           DTSM             GR           HCAL           HCGR           HDRA           HSGR           NPHI           PEFZ           RHOZ 
# ...
      4964.5000       571.0420       663.6590       674.7470       832.4000       839.0930       118.3570       189.4210       120.3149       286.3413        32.9315        12.1830        42.8360         0.0020        49.1060         0.3470         2.6910         2.0670 
      4965.0000       566.5900       618.3850       662.5800       803.5070       847.4610       118.3570       189.2650       120.2874       287.3485        35.7944        12.1070        41.8620         0.0040        48.2560         0.3120         2.7590         2.0920 
      4965.5000       519.9490       575.8310       629.0370       743.0620       755.1980       118.2520       189.1830       120.5087       291.5287        37.5491        12.1220        42.8110         0.0080        49.1200         0.3150         2.8310         2.1030 
      4966.0000       517.4380       564.9900       607.8270       682.9890       697.6520       118.1370       189.1020       121.2904       294.5979        38.5509        12.1400        44.6750         0.0050        51.7640         0.3220         2.8690         2.0970 
      4966.5000       529.6210       563.2420       600.4100       657.2440       656.8480       118.0230       189.0200       121.0703       293.6075        37.7721        11.9800        49.0110         0.0020        53.5860         0.3230         2.7900         2.0860 
      4967.0000       531.2060       565.6710       599.6800       662.3420       657.1550       117.9560       188.9390       121.4350       293.2950        37.5544        11.9440        51.9380        -0.0010        54.5400         0.3150         2.7140         2.0780 
      4967.5000       528.3710       570.7990       602.0940       683.9900       688.2240       117.9560       188.8570       120.8995       294.1619        35.6575        11.9540        54.5370        -0.0010        55.6610         0.3150         2.7080         2.0730 
      4968.0000       520.7720       571.2710       603.4160       709.1260       702.6030       118.3570       188.7760       120.1845       294.5009        35.6399        11.9790        54.2210         0.0060        56.0860         0.3150         2.7390         2.0700 
      4968.5000       516.0240       567.3140       595.7220       709.4200       699.5090       118.3570       188.6940       120.2215       294.2989        35.2065        12.0090        53.6860         0.0110        55.1510         0.3230         2.7690         2.0660 
      4969.0000       511.7590       561.4290       581.9390       700.9680       700.9170       118.3570       188.6120       120.2867       295.9517        36.3851        11.9790        54.5740         0.0120        54.5730         0.3270         2.7950         2.0630 
      4969.5000       500.2410       554.8060       575.2580       704.9310       709.4120       118.3570       188.5310       120.3925       297.7346        38.0374        11.9940        55.2810         0.0110        54.3690         0.3500         2.8370         2.0620 
      4970.0000       485.1820       542.6660       568.8750       704.9500       707.0070       118.3570       188.4970       121.8732       295.9719        37.4940        11.9940        52.9760         0.0100        51.8040         0.3560         2.8670         2.0650 
      4970.5000       489.0440       529.3420       561.7540       693.1940       692.0680       118.7580       188.4970       122.5002       294.5779        39.4115        12.0060        49.3000         0.0060        49.0930         0.3490         2.8690         2.0650 
      4971.0000       502.2720       536.3030       552.6320       682.1040       667.9710       118.7580       188.4970       122.4226       293.2133        38.4119        12.0230        47.5590         0.0080        48.5380         0.3220         2.9050         2.0650 
      4971.5000       504.9030       540.4730       547.0890       672.9720       642.7090       119.1580       188.4970       122.3244       290.9762        39.4950        12.0280        46.3510         0.0080        49.6340         0.3040         2.8480         2.0670 
      4972.0000       510.4220       529.1940       539.4270       622.1530       617.2780       119.5590       188.5370       121.8968       288.8147        34.8823        11.9650        45.4050         0.0080        49.7150         0.3030         2.7590         2.0710 
      4972.5000       518.6750       533.3170       531.5700       588.8510       589.6080       119.5590       188.8830       121.6405       287.1617        34.2144        11.9660        43.3180         0.0070        48.3640         0.3060         2.7400         2.0820 
      4973.0000       521.1680       534.8470       530.8940       567.4380       563.2160       119.5590       189.2300       121.1116       285.6960        34.4124        11.9550        40.6350         0.0100        46.9450         0.3190         2.7340         2.0870 
      4973.5000       521.0740       523.8490       528.4580       532.2130       532.0800       119.1580       189.2420       120.6486       282.0959        37.2622        11.9270        39.2030         0.0180        46.1080         0.3310         2.7180         2.0850 
      4974.0000       503.9970       485.9500       506.5880       477.9940       483.1760       118.7580       189.1720       120.4212       276.9111        37.1097        11.9670        39.2370         0.0250        46.4400         0.3350         2.6630         2.0830 
      4974.5000       476.4580       439.1570       449.2880       423.5620       435.1410       118.3570       189.1020       119.7916       273.4058        36.1031        11.9730        40.7050         0.0260        46.3910         0.3130         2.6030         2.0790 
      4975.0000       388.2720       392.3510       393.8420       368.9930       387.0690       117.5550       189.0310       118.8805       273.2728        34.5502        11.9600        42.0080         0.0220        47.5040         0.3050         2.5400         2.0760 
      4975.5000       358.9640       345.4720       338.1770       318.6560       339.1620       115.9520       188.9610       118.6336       275.7566        35.7563        11.9450        44.4250         0.0180        48.2990         0.3210         2.5230         2.0760 
      4976.0000       332.3790       298.9400       285.1530       293.0670       301.5680       115.1000       188.8910       118.1290       280.8069        36.2516        11.9580        44.9900         0.0140        47.6370         0.3090         2.5170         2.0810 
      4976.5000       308.0410       268.1900       267.2510       272.2840       266.5400       114.8230       188.8210       117.9476       285.1616        35.6031        11.9730        45.9140         0.0140        47.5490         0.3050         2.5120         2.0830 
      4977.0000       294.2010       256.6900       255.3690       255.4840       250.0800       114.5460       188.7500       117.3447       284.1862        34.0815        11.9870        47.6410         0.0150        47.6680         0.2970         2.5100         2.0860 
      4977.5000       276.5530       251.0730       241.9590       245.9580       240.9210       114.2690       188.6800       117.1548       284.2029        34.0707        11.9950        49.6290         0.0150        49.2300         0.2910         2.5240         2.0900 
      4978.0000       273.1630       249.1490       241.1260       240.2530       239.1840       113.9910       188.6100       116.7323       285.6082        35.6238        11.9970        49.7450         0.0140        49.4810         0.3070         2.5370         2.0930 
      4978.5000       270.5940       249.1920       241.2000       239.5060       239.1890       113.7140       188.5390       116.1936       285.3647        36.1694        11.9980        49.1940         0.0120        48.7290         0.3040         2.5520         2.0930 
      4979.0000       268.3090       249.1760       241.1760       239.9180       239.1680       113.5470       188.6080       116.2269       285.1622        36.2308        12.0000        47.4240         0.0100        48.5790         0.2990         2.5760         2.0880 
