~Version Information Block
VERS .                 2.00:  CWLS LOG ASCII STANDARD - VERSION 2.00
WRAP .                   NO:  One line per depth step
~Well Information Block
#MNEM.UNIT        Data Type   Information
#---------- ----------------  -----------
STRT .F               374.5:  START DEPTH
STOP .F              5376.5:  STOP DEPTH
STEP .F                 0.5:  STEP
NULL .              -999.25:  NULL VALUE
COMP .     TEXACO BRITAIN LTD.:  COMPANY
WELL .              9/11A-6:  WELL
FLD  .              MARINER:  FIELD
LOC  .            NORTH SEA:  LOCATION
PROV .                 UKCS:  PROVINCE
SRVC .         SCHLUMBERGER:  SERVICE COMPANY
DATE .             09/09/96:  LOG DATE
UWI  .                24584:  UNIQUE WELL ID
~Curve Information Block
#MNEM.UNIT         API CODE   Curve Description
#---------- ----------------  -----------------
DEPTH.F                    :  Depth in Feet
AHT10.OHMM                 :  Edited resistivity HILTB-1-2 (AHT10)
AHT20.OHMM                 :  Edited resistivity HILTB-1-2 (AHT20)
AHT30.OHMM                 :  Edited resistivity HILTB-1-2 (AHT30)
AHT60.OHMM                 :  Edited resistivity HILTB-1-2 (AHT60)
AHT90.OHMM                 :  Edited resistivity HILTB-1-2 (AHT90)
DT4P .US/F                 :  Edited sonic  DSST-1 (DT4P)
DT4S .US/F                 :  Edited sonic  DSST-1 (DT4S)
DTCO .US/F                 :  Edited sonic  DSST-1 (DTCO)
DTSM .US/F                 :  Edited sonic  DSST-1 (DTSM)
GR   .GAPI                 :  Edited gamma ray DSST-1 (GR)
HCAL .IN                   :  Edited caliper HILTB-1-2 (HCAL)
HCGR .GAPI                 :  Edited computed gamma ray HILTB-1-2 (HCGR)
HDRA .G/C3                 :  Edited density correction HILTB-1-2 (HDRA)
HSGR .GAPI                 :  Merged gamma ray HILTB-1-1 & HILTB-1-2 (HSGR)
NPHI .V/V                  :  Edited neutron HILTB-1-2 (NPHI)
PEFZ .B/E                  :  Edited photoelectric effect HILTB-1-2 (PEFZ)
RHOZ .G/C3                 :  Edited density HILTB-1-2 (RHOZ)
~Parameter Information Block
#MNEM.UNIT            Value   Description
#---------- ----------------  -----------
SET  .            COMP_WIRE:  
PROJ .             82ND_I_1:  
API  .                     :  
DATU .                  MSL:  
DMF  .                 D.F.:  Drilling Measured From
TDD  .F                5393:  
EDF  .F                  82:  
EKB  .F                  82:  Elevation_Kelly_Bushing
EPD  .F                  82:  
FN   .          EXPLORATION:  
LATI .     59 35' 03.0282 N:  
LCC  .          API 440 SCH:  
LONG .     01 08' 08.9472 E:  
LMF  .                 R.T.:  
ORDU .                 FEET:  
RANG .                     :  Range
RIG  .     BORGSTEN DOLPHIN:  
SECT .                     :  Section
SURF .F                -343:  
~Other Information Block
~A        DEPTH          AHT10          AHT20          AHT30          AHT60          AHT90           DT4P           DT4S           DTCO           DTSM             GR           HCAL           HCGR           HDRA           HSGR           NPHI           PEFZ           RHOZ 
# ...
      4019.5000       440.6020       486.3160       524.2290       520.7210       487.0200       135.9920       192.1040       134.2569       308.2541        63.1103        12.1270        49.5910         0.0300        59.2570         0.4150         4.1330         2.4010 
      4020.0000       388.5810       431.3550       464.5060       471.7690       448.1230       135.1900       191.9040       135.9091       321.4713        63.6218        12.6970        51.1880         0.0460        62.8270         0.4220         4.0910         2.3770 
      4020.5000       373.7860       410.0590       417.7550       434.6540       435.9400       135.1900       193.3070       138.0783       333.2673        63.6949        12.0170        53.8200         0.0400        66.1730         0.4200         3.8200         2.2350 
      4021.0000       373.1970       403.3590       411.1320       429.2140       425.7890       134.3890       193.3070       137.7474       334.9913        60.9821        12.3740        55.8450         0.0290        70.0980         0.4160         3.5540         2.1420 
      4021.5000       373.2440       403.2090       409.1740       422.9810       425.1080       134.3890       193.3070       135.6151       331.2841        60.5376        11.9160        58.0890         0.0240        71.0630         0.4310         3.3410         2.1070 
      4022.0000       372.9400       403.1880       410.8440       425.3080       425.5760       134.7900       193.3070       137.6789       332.4536        58.5519        11.9840        57.7770         0.0230        68.6220         0.4120         3.3250         2.0970 
      4022.5000       374.9990       410.8740       413.7320       435.7360       434.9620       132.3850       193.7070       136.8348       335.1631        54.0437        11.9970        53.2160         0.0180        64.5720         0.4190         3.3200         2.0930 
      4023.0000       389.8320       425.6770       423.5000       451.4450       443.8180       129.1780       193.7070       133.2800       329.8343        52.1388        12.0590        49.1260         0.0110        59.1180         0.4090         3.3160         2.0940 
      4023.5000       403.5240       449.2770       431.1400       450.9930       450.4730       129.1780       193.7070       131.2504       326.2532        46.4961        12.1430        47.2010         0.0070        54.2060         0.4090         3.3120         2.0990 
      4024.0000       407.4770       454.7910       440.1870       444.9910       440.8520       130.3810       193.7070       130.1671       329.0237        46.8775        12.1990        47.6220         0.0170        51.7050         0.4170         3.3070         2.1010 
      4024.5000       397.0660       432.3070       445.6930       453.0360       445.1350       131.1820       193.7070       130.6492       327.7001        48.2650        12.2760        49.6010         0.0260        55.2270         0.4320         3.2780         2.0950 
      4025.0000       389.5620       424.9770       448.9650       461.1270       453.2540       131.9840       192.9060       133.3497       323.9140        54.9789        12.3680        55.0540         0.0260        60.4690         0.4470         3.2360         2.0930 
      4025.5000       378.4140       419.1320       443.3320       456.6940       451.8080       132.3850       190.9020       134.2028       323.9843        58.2689        12.0830        58.2020         0.0220        64.7600         0.4310         3.1680         2.0950 
      4026.0000       371.4430       413.7390       434.5630       438.4090       441.6610       132.3850       188.8980       132.5313       328.0590        58.4880        11.9500        57.9310         0.0230        65.6970         0.4370         3.1020         2.1000 
      4026.5000       370.9980       409.5530       427.0680       435.1880       435.8030       131.9840       188.0960       132.3516       334.3059        57.2556        11.9760        56.9300         0.0240        65.0760         0.4140         3.0360         2.0990 
      4027.0000       369.1420       406.9190       427.2450       431.0320       431.6200       131.1820       188.0960       133.2358       339.2091        56.4437        12.2420        55.8810         0.0190        65.0160         0.4220         2.9870         2.0910 
      4027.5000       367.4910       407.2070       429.7600       432.2750       429.4760       130.3810       189.1480       131.0644       342.0533        57.5454        11.9290        55.7770         0.0120        64.1310         0.4230         3.0070         2.0850 
      4028.0000       365.2440       407.1550       431.1370       436.8020       426.7760       129.1780       189.9360       129.1559       343.5640        56.8974        12.0070        55.4730         0.0050        64.1380         0.4200         3.0240         2.0840 
      4028.5000       365.1210       407.1450       431.2010       437.2050       420.6060       128.7780       190.6630       128.5016       340.3320        59.2157        12.0530        55.3690         0.0080        64.1580         0.4300         3.0430         2.0890 
      4029.0000       366.7570       407.2010       430.6780       435.5530       413.3440       128.7780       191.3910       130.1906       335.7520        57.9738        12.0600        55.2160         0.0120        65.0550         0.4040         3.0970         2.0930 
      4029.5000       367.1990       406.6910       424.9080       435.1180       415.2570       128.7780       191.5780       129.4386       337.8467        60.4573        12.0740        52.5240         0.0190        64.2370         0.3890         3.1280         2.0980 
      4030.0000       367.1210       401.8890       425.1790       435.1280       419.0710       128.7780       191.3590       129.4429       335.7897        60.1838        12.0740        50.9640         0.0210        64.0880         0.3610         3.1090         2.1020 
      4030.5000       364.1650       397.0170       425.2360       435.3330       419.4100       129.3790       191.1400       130.0723       324.7679        62.0832        12.0750        49.3590         0.0180        65.2820         0.3890         3.1070         2.1020 
      4031.0000       359.2160       391.5310       421.5770       427.5670       414.0950       129.9800       190.9210       131.2231       323.1828        61.3524        12.0330        51.8620         0.0170        67.4240         0.4150         3.1070         2.0990 
      4031.5000       355.0830       389.1690       411.0610       420.9570       409.3510       130.5810       190.7020       132.4728       325.1199        60.9996        12.0130        52.3820         0.0210        67.3750         0.4400         3.1240         2.0990 
      4032.0000       355.1820       387.5020       406.4410       421.3290       404.0560       130.7820       190.5010       132.4812       329.3813        59.2949        12.0320        51.5350         0.0250        66.4610         0.4160         3.1900         2.1000 
      4032.5000       355.1810       384.8880       409.3910       423.1970       408.6110       130.7820       190.1000       132.4603       337.0612        59.2408        12.0630        51.3430         0.0200        64.8640         0.4280         3.2120         2.0950 
      4033.0000       355.0660       385.6900       412.7180       430.4450       416.8600       130.7820       189.6990       133.5270       337.9474        58.7353        12.1020        50.8310         0.0160        63.5760         0.4140         3.1830         2.0980 
      4033.5000       359.2710       391.5910       415.9920       435.7840       423.3870       130.3810       191.1020       131.8840       339.4247        61.3556        12.2570        49.9670         0.0160        63.2120         0.4210         3.1730         2.1010 
      4034.0000       359.1190       397.0670       420.9810       437.3550       425.5440       129.5790       191.7030       131.3050       341.9024        61.5558        12.2610        48.3040         0.0180        64.1460         0.4210         3.1850         2.1020 
