~Version Information Block
VERS .                 2.00:  CWLS LOG ASCII STANDARD - VERSION 2.00
WRAP .                   NO:  One line per depth step
~Well Information Block
#MNEM.UNIT        Data Type   Information
#---------- ----------------  -----------
STRT .F               374.5:  START DEPTH
STOP .F              5376.5:  STOP DEPTH
STEP .F                 0.5:  STEP
NULL .              -999.25:  NULL VALUE
COMP .     TEXACO BRITAIN LTD.:  COMPANY
WELL .              9/11A-6:  WELL
FLD  .              MARINER:  FIELD
LOC  .            NORTH SEA:  LOCATION
PROV .                 UKCS:  PROVINCE
SRVC .         SCHLUMBERGER:  SERVICE COMPANY
DATE .             09/09/96:  LOG DATE
UWI  .                24584:  UNIQUE WELL ID
~Curve Information Block
#MNEM.UNIT         API CODE   Curve Description
#---------- ----------------  -----------------
DEPTH.F                    :  Depth in Feet
AHT10.OHMM                 :  Edited resistivity HILTB-1-2 (AHT10)
AHT20.OHMM                 :  Edited resistivity HILTB-1-2 (AHT20)
AHT30.OHMM                 :  Edited resistivity HILTB-1-2 (AHT30)
AHT60.OHMM                 :  Edited resistivity HILTB-1-2 (AHT60)
AHT90.OHMM                 :  Edited resistivity HILTB-1-2 (AHT90)
DT4P .US/F                 :  Edited sonic  DSST-1 (DT4P)
DT4S .US/F                 :  Edited sonic  DSST-1 (DT4S)
DTCO .US/F                 :  Edited sonic  DSST-1 (DTCO)
DTSM .US/F                 :  Edited sonic  DSST-1 (DTSM)
GR   .GAPI                 :  Edited gamma ray DSST-1 (GR)
HCAL .IN                   :  Edited caliper HILTB-1-2 (HCAL)
HCGR .GAPI                 :  Edited computed gamma ray HILTB-1-2 (HCGR)
HDRA .G/C3                 :  Edited density correction HILTB-1-2 (HDRA)
HSGR .GAPI                 :  Merged gamma ray HILTB-1-1 & HILTB-1-2 (HSGR)
NPHI .V/V                  :  Edited neutron HILTB-1-2 (NPHI)
PEFZ .B/E                  :  Edited photoelectric effect HILTB-1-2 (PEFZ)
RHOZ .G/C3                 :  Edited density HILTB-1-2 (RHOZ)
~Parameter Information Block
#MNEM.UNIT            Value   Description
#---------- ----------------  -----------
SET  .            COMP_WIRE:  
PROJ .             82ND_I_1:  
API  .                     :  
DATU .                  MSL:  
DMF  .                 D.F.:  Drilling Measured From
TDD  .F                5393:  
EDF  .F                  82:  
EKB  .F                  82:  Elevation_Kelly_Bushing
EPD  .F                  82:  
FN   .          EXPLORATION:  
LATI .     59 35' 03.0282 N:  
LCC  .          API 440 SCH:  
LONG .     01 08' 08.9472 E:  
LMF  .                 R.T.:  
ORDU .                 FEET:  
RANG .                     :  Range
RIG  .     BORGSTEN DOLPHIN:  
SECT .                     :  Section
SURF .F                -343:  
~Other Information Block
~A        DEPTH          AHT10          AHT20          AHT30          AHT60          AHT90           DT4P           DT4S           DTCO           DTSM             GR           HCAL           HCGR           HDRA           HSGR           NPHI           PEFZ           RHOZ 
# ...
      2879.5000       253.1860       245.1820       251.1800       249.1150       251.1490       133.9880      -999.2500       135.2334      -999.2500        16.0071        12.0740        15.7610         0.0040        19.0170         0.3490         2.0360         2.0680 
      2880.0000       253.1790       244.8210       251.1780       249.1870       251.1840       134.3890      -999.2500       135.4267      -999.2500        15.3871        12.0740        16.5210         0.0040        19.6880         0.3600         2.0280         2.0670 
      2880.5000       253.1750       244.4330       251.4800       249.1850       251.1750       134.3890      -999.2500       135.5732      -999.2500        15.9407        12.0730        17.7600         0.0050        20.5200         0.3620         2.0280         2.0660 
      2881.0000       253.1750       244.0470       251.8140       249.1390       251.1790       133.5870      -999.2500       135.3259      -999.2500        17.2163        12.0720        18.9960         0.0060        21.7500         0.3600         2.0280         2.0580 
      2881.5000       253.1750       243.6600       252.1470       249.5810       251.1970       133.1860      -999.2500       134.7625      -999.2500        17.2099        12.0710        18.3380         0.0070        21.8640         0.3380         2.0190         2.0530 
      2882.0000       253.1790       243.2720       252.4800       251.2000       252.9520       131.9840      -999.2500       133.9190      -999.2500        17.1343        12.0700        17.8690         0.0010        21.7690         0.3160         2.0090         2.0510 
      2882.5000       253.1740       242.8850       252.8130       251.1990       256.1740       131.1820      -999.2500       133.4830      -999.2500        16.1700        12.0690        17.8990        -0.0010        21.4960         0.3080         2.0000         2.0490 
      2883.0000       253.2100       242.4980       253.1600       251.0170       259.3890       131.1820      -999.2500       133.9175      -999.2500        16.8110        12.0670        17.4330        -0.0040        20.4490         0.3180         1.9900         2.0500 
      2883.5000       256.7540       242.1110       253.1750       252.8630       260.1270       131.1820      -999.2500       134.4122      -999.2500        15.3678        12.0660        16.7180        -0.0020        19.5980         0.3390         1.9800         2.0550 
      2884.0000       260.7660       241.7240       253.1740       255.1930       261.2130       131.5830      -999.2500       134.6483      -999.2500        14.4061        12.0650        16.1860         0.0060        18.4310         0.3300         1.9700         2.0610 
      2884.5000       262.7810       241.3400       253.1620       257.3840       261.1350       132.3850      -999.2500       134.9995      -999.2500        14.4896        12.0640        15.0420         0.0140        17.8620         0.3380         1.9830         2.0580 
      2885.0000       263.2240       241.1790       253.1930       257.1260       261.3040       133.5870      -999.2500       135.3753      -999.2500        15.2157        12.0630        14.7110         0.0130        17.6790         0.3370         2.0040         2.0540 
      2885.5000       262.1440       241.1710       250.3200       257.2090       259.5520       134.3890      -999.2500       136.0058      -999.2500        15.4708        12.0620        14.6050         0.0050        18.2740         0.3770         2.0240         2.0490 
      2886.0000       255.5650       241.1540       245.9330       256.7640       253.8270       135.1900      -999.2500       137.0964      -999.2500        15.3910        12.0610        14.2930         0.0020        18.8130         0.3650         2.0450         2.0440 
      2886.5000       251.2210       240.4600       241.1380       254.3370       246.5060       135.1900      -999.2500       137.7587      -999.2500        15.0919        12.0600        15.7360         0.0010        19.6960         0.3800         2.0650         2.0360 
      2887.0000       246.1070       235.1390       236.9280       249.8650       243.1360       135.9920      -999.2500       138.1121      -999.2500        16.8426        12.0590        17.2940         0.0030        20.3220         0.3670         2.0860         2.0300 
      2887.5000       245.1520       230.9730       238.0260       247.1860       243.2230       136.7940      -999.2500       138.5553      -999.2500        17.5730        12.0580        19.6940         0.0040        20.2880         0.3450         2.1070         2.0250 
      2888.0000       245.5520       234.6400       248.2740       252.1580       243.0660       135.5910       137.5950       138.7690      -999.2500        18.5055        12.0560        20.8520         0.0060        20.2900         0.3400         2.1040         2.0250 
      2888.5000       253.0660       239.9150       253.8050       256.7360       247.3310       131.1110       137.5950       138.8279      -999.2500        16.7515        12.0550        19.4790         0.0050        20.3040         0.3400         2.0990         2.0350 
      2889.0000       255.0820       243.0880       256.1550       257.2070       251.2240       125.9150       137.9960       138.8587      -999.2500        16.1882        12.0540        18.1600         0.0040        19.4660         0.3360         2.0940         2.0470 
      2889.5000       254.7650       244.1480       257.4610       257.1330       253.0070       120.7190       137.9960       138.9898      -999.2500        16.7411        12.0530        19.2230         0.0060        19.6780         0.3230         2.0890         2.0560 
      2890.0000       247.8260       245.3600       250.4610       252.4890       253.0710       115.5220       137.9960       139.1206      -999.2500        15.7898        12.0520        20.3780         0.0110        20.1360         0.3160         2.0840         2.0620 
      2890.5000       244.9970       241.2400       244.2010       248.5880       245.6690       109.9400       137.5950       139.0763      -999.2500        15.7062        12.0510        21.2790         0.0110        20.6260         0.3410         2.0790         2.0530 
      2891.0000       245.2180       236.3710       241.5220       247.1920       241.0390       108.3370       136.7940       138.6426      -999.2500        13.0036        12.0500        22.1530         0.0120        20.9260         0.3440         2.0750         2.0420 
      2891.5000       245.1850       231.4180       242.1720       247.1460       241.2140       106.3330       136.3930       138.3146      -999.2500        14.5890        12.0490        23.3780         0.0110        20.6170         0.3300         2.0700         2.0350 
      2892.0000       246.4680       234.5820       243.1210       248.1770       241.1770       104.3290       136.3930       138.1547      -999.2500        14.4221        12.0480        22.5650         0.0080        20.3120         0.3050         2.0650         2.0360 
      2892.5000       247.8830       238.3260       240.9720       249.2180       241.1850       102.3250       135.9920       137.9496      -999.2500        15.6197        12.0470        20.7320         0.0040        19.6220         0.2990         2.0600         2.0400 
      2893.0000       249.2930       242.0330       241.2100       249.1590       241.1720       100.7210       136.3930       137.8957      -999.2500        15.3010        12.0450        18.4690         0.0010        19.1020         0.2970         2.0550         2.0420 
      2893.5000       250.7030       245.7640       241.1800       251.5190       243.1200       100.7210       138.3970       137.9424      -999.2500        15.8551        12.0440        16.6530        -0.0020        18.6530         0.3110         2.0500         2.0410 
      2894.0000       252.1240       249.1420       241.1600       257.5430       248.0200       100.7210       136.3930       138.0275      -999.2500        16.9705        12.0430        16.5070         0.0010        18.2020         0.2970         2.0470         2.0440 
