~Version Information Block
VERS .                 2.00:  CWLS LOG ASCII STANDARD - VERSION 2.00
WRAP .                   NO:  One line per depth step
~Well Information Block
#MNEM.UNIT        Data Type   Information
#---------- ----------------  -----------
STRT .F               374.5:  START DEPTH
STOP .F              5376.5:  STOP DEPTH
STEP .F                 0.5:  STEP
NULL .              -999.25:  NULL VALUE
COMP .     TEXACO BRITAIN LTD.:  COMPANY
WELL .              9/11A-6:  WELL
FLD  .              MARINER:  FIELD
LOC  .            NORTH SEA:  LOCATION
PROV .                 UKCS:  PROVINCE
SRVC .         SCHLUMBERGER:  SERVICE COMPANY
DATE .             09/09/96:  LOG DATE
UWI  .                24584:  UNIQUE WELL ID
~Curve Information Block
#MNEM.UNIT         API CODE   Curve Description
#---------- ----------------  -----------------
DEPTH.F                    :  Depth in Feet
AHT10.OHMM                 :  Edited resistivity HILTB-1-2 (AHT10)
AHT20.OHMM                 :  Edited resistivity HILTB-1-2 (AHT20)
AHT30.OHMM                 :  Edited resistivity HILTB-1-2 (AHT30)
AHT60.OHMM                 :  Edited resistivity HILTB-1-2 (AHT60)
AHT90.OHMM                 :  Edited resistivity HILTB-1-2 (AHT90)
DT4P .US/F                 :  Edited sonic  DSST-1 (DT4P)
DT4S .US/F                 :  Edited sonic  DSST-1 (DT4S)
DTCO .US/F                 :  Edited sonic  DSST-1 (DTCO)
DTSM .US/F                 :  Edited sonic  DSST-1 (DTSM)
GR   .GAPI                 :  Edited gamma ray DSST-1 (GR)
HCAL .IN                   :  Edited caliper HILTB-1-2 (HCAL)
HCGR .GAPI                 :  Edited computed gamma ray HILTB-1-2 (HCGR)
HDRA .G/C3                 :  Edited density correction HILTB-1-2 (HDRA)
HSGR .GAPI                 :  Merged gamma ray HILTB-1-1 & HILTB-1-2 (HSGR)
NPHI .V/V                  :  Edited neutron HILTB-1-2 (NPHI)
PEFZ .B/E                  :  Edited photoelectric effect HILTB-1-2 (PEFZ)
RHOZ .G/C3                 :  Edited density HILTB-1-2 (RHOZ)
~Parameter Information Block
#MNEM.UNIT            Value   Description
#---------- ----------------  -----------
SET  .            COMP_WIRE:  
PROJ .             82ND_I_1:  
API  .                     :  
DATU .                  MSL:  
DMF  .                 D.F.:  Drilling Measured From
TDD  .F                5393:  
EDF  .F                  82:  
EKB  .F                  82:  Elevation_Kelly_Bushing
EPD  .F                  82:  
FN   .          EXPLORATION:  
LATI .     59 35' 03.0282 N:  
LCC  .          API 440 SCH:  
LONG .     01 08' 08.9472 E:  
LMF  .                 R.T.:  
ORDU .                 FEET:  
RANG .                     :  Range
RIG  .     BORGSTEN DOLPHIN:  
SECT .                     :  Section
SURF .F                -343:  
~Other Information Block
~A        DEPTH          AHT10          AHT20          AHT30          AHT60          AHT90           DT4P           DT4S           DTCO           DTSM             GR           HCAL           HCGR           HDRA           HSGR           NPHI           PEFZ           RHOZ 
# ...
      3074.5000       269.2880       262.8970       275.1720       275.2120       269.3790       125.5710       179.2790       126.9949      -999.2500        23.9037        12.1750        25.8710         0.0150        27.5160         0.3100         2.1680         2.1030 
      3075.0000       280.0730       270.7790       275.1570       280.3420       277.7140       125.5710       179.6790       126.8183      -999.2500        25.4695        12.1100        26.8220         0.0150        27.8060         0.2970         2.1680         2.1000 
      3075.5000       283.1030       270.8130       275.1840       281.3690       281.1040       125.5710       179.2790       126.9460      -999.2500        23.8067        12.0370        28.1590         0.0150        29.8580         0.2990         2.1680         2.0900 
      3076.0000       275.9220       265.6910       274.0340       273.5160       280.3730       125.5710       178.2770       127.4470      -999.2500        24.1656        12.0240        30.7790         0.0080        31.7090         0.3050         2.1680         2.0830 
      3076.5000       267.6880       261.8900       265.6850       264.2580       274.4040       125.5710       177.6750       128.0734      -999.2500        23.3859        12.1030        29.6530         0.0070        31.6910         0.2850         2.1680         2.0890 
      3077.0000       261.2370       257.5660       260.5780       260.6020       265.3560       125.9720       178.2770       126.9619      -999.2500        26.3932        12.1350        29.6120         0.0120        32.2310         0.2850         2.1700         2.0990 
      3077.5000       255.0140       253.9350       256.5830       259.4080       254.0450       126.3730       179.3450       125.0191      -999.2500        27.1730        12.1440        29.9190         0.0150        32.7370         0.3220         2.2080         2.1030 
      3078.0000       263.6960       254.8240       255.1880       257.1350       251.0830       126.3730       180.0800       125.1214      -999.2500        26.6791        12.1310        31.1240         0.0160        33.5480         0.3380         2.2460         2.0990 
      3078.5000       269.1000       253.1430       255.1780       263.1180       260.8640       125.7720       180.0800       126.8463      -999.2500        24.3599        12.0550        32.1100         0.0090        34.1290         0.3220         2.2400         2.0860 
      3079.0000       267.9990       253.1810       255.1800       270.3380       266.7950       124.7700       180.0800       127.0825      -999.2500        25.3426        11.9610        32.2770         0.0060        33.8980         0.3090         2.2290         2.0770 
      3079.5000       261.6120       253.1760       255.1800       271.0970       267.1910       124.7700       180.0800       125.6717      -999.2500        25.1964        11.9900        31.4090         0.0080        33.5940         0.2960         2.2180         2.0760 
      3080.0000       261.1650       253.1830       255.2060       267.4060       267.1630       124.7700       180.0800       125.2401      -999.2500        26.5703        12.1540        30.7750         0.0110        32.8570         0.2880         2.2070         2.0810 
      3080.5000       261.0710       253.1670       262.3190       265.1150       267.1730       124.7700       180.0800       124.8826      -999.2500        25.3927        12.1750        30.8610         0.0120        32.9780         0.2730         2.1950         2.0910 
      3081.0000       266.8110       254.1100       267.2400       266.1890       267.1730       124.3690       180.0800       124.2477      -999.2500        26.8125        12.1180        30.1620         0.0130        31.4990         0.2700         2.1830         2.0950 
      3081.5000       270.3900       259.1070       266.7820       267.3000       267.1730       123.5670       180.0800       123.8613      -999.2500        25.4451        12.0320        29.3350         0.0100        29.8920         0.2890         2.1710         2.0930 
      3082.0000       273.0340       266.2880       266.4580       267.4800       267.1730       123.5670       178.8780       123.9095      -999.2500        25.4451        11.9930        26.3720         0.0080        28.7060         0.3020         2.1590         2.0870 
      3082.5000       273.1590       268.1750       266.1160       267.7100       267.1730       123.5670       176.8740       123.8625      -999.2500        26.3222        11.9800        24.2720         0.0050        28.1140         0.3050         2.1490         2.0880 
      3083.0000       273.2290       269.0840       265.7740       267.9320       267.1730       123.5670       176.0720       123.9576      -999.2500        26.2183        11.9310        22.6500         0.0100        28.4220         0.2960         2.1760         2.0990 
      3083.5000       270.7430       268.9020       265.4310       268.1550       267.1730       123.9680       176.0720       124.2845      -999.2500        25.6401        12.1530        22.3590         0.0130        29.3850         0.2900         2.2040         2.1120 
      3084.0000       269.1530       268.7600       265.1700       268.3770       267.1730       123.9680       176.8740       124.4669      -999.2500        23.0086        12.1710        22.6760         0.0150        30.4900         0.3080         2.2310         2.1150 
      3084.5000       269.1890       268.6110       265.1740       268.5990       267.1730       123.5670       177.2750       124.8155      -999.2500        24.2756        12.0900        23.3190         0.0160        30.8550         0.3200         2.2590         2.1080 
      3085.0000       269.1380       268.4610       265.1690       268.8210       267.1730       123.1660       177.6750       125.1061      -999.2500        25.6649        12.0170        22.6860         0.0120        29.6020         0.3340         2.2630         2.0990 
      3085.5000       269.5710       268.3110       265.1580       269.0420       267.1730       123.1660       176.4730       124.9809      -999.2500        25.8271        11.9940        22.6910         0.0070        28.5150         0.3260         2.2560         2.0950 
      3086.0000       271.2250       268.1610       264.4240       269.1720       267.1730       123.1660       177.2750       124.6985      -999.2500        23.7803        12.0630        22.3220         0.0050        28.0520         0.3210         2.2510         2.1030 
      3086.5000       269.1430       268.0110       260.7500       269.1730       267.1730       123.9680       178.8780       124.8584      -999.2500        21.9222        12.1750        21.7510         0.0100        27.4950         0.3190         2.1650         2.1150 
      3087.0000       269.1800       267.8610       256.8850       269.1730       267.1730       124.3690       180.0800       125.5543      -999.2500        22.4423        12.2160        21.1130         0.0140        28.1340         0.3130         2.1280         2.1210 
      3087.5000       269.1730       267.7110       257.7380       269.1730       267.1730       124.3690       180.8820       125.6034      -999.2500        23.2220        12.1800        20.5450         0.0180        27.6000         0.3170         2.1280         2.1160 
      3088.0000       269.1740       267.5610       261.3300       269.1690       267.1730       124.7700       180.4810       125.5077      -999.2500        24.7489        12.1200        20.8900         0.0170        28.1500         0.2850         2.1640         2.1020 
      3088.5000       269.1790       267.4110       263.1330       269.2080       267.1730       124.7700       179.6790       125.4394      -999.2500        23.9997        12.0310        20.5490         0.0090        27.5220         0.2970         2.2170         2.0940 
      3089.0000       269.1430       267.2620       265.2400       268.9720       267.1730       125.1700       178.8780       125.6828      -999.2500        25.1693        12.0660        20.2890         0.0030        26.6180         0.2910         2.2560         2.0980 
