~Version Information Block
VERS .                 2.00:  CWLS LOG ASCII STANDARD - VERSION 2.00
WRAP .                   NO:  One line per depth step
~Well Information Block
#MNEM.UNIT        Data Type   Information
#---------- ----------------  -----------
STRT .F               374.5:  START DEPTH
STOP .F              5376.5:  STOP DEPTH
STEP .F                 0.5:  STEP
NULL .              -999.25:  NULL VALUE
COMP .     TEXACO BRITAIN LTD.:  COMPANY
WELL .              9/11A-6:  WELL
FLD  .              MARINER:  FIELD
LOC  .            NORTH SEA:  LOCATION
PROV .                 UKCS:  PROVINCE
SRVC .         SCHLUMBERGER:  SERVICE COMPANY
DATE .             09/09/96:  LOG DATE
UWI  .                24584:  UNIQUE WELL ID
~Curve Information Block
#MNEM.UNIT         API CODE   Curve Description
#---------- ----------------  -----------------
DEPTH.F                    :  Depth in Feet
AHT10.OHMM                 :  Edited resistivity HILTB-1-2 (AHT10)
AHT20.OHMM                 :  Edited resistivity HILTB-1-2 (AHT20)
AHT30.OHMM                 :  Edited resistivity HILTB-1-2 (AHT30)
AHT60.OHMM                 :  Edited resistivity HILTB-1-2 (AHT60)
AHT90.OHMM                 :  Edited resistivity HILTB-1-2 (AHT90)
DT4P .US/F                 :  Edited sonic  DSST-1 (DT4P)
DT4S .US/F                 :  Edited sonic  DSST-1 (DT4S)
DTCO .US/F                 :  Edited sonic  DSST-1 (DTCO)
DTSM .US/F                 :  Edited sonic  DSST-1 (DTSM)
GR   .GAPI                 :  Edited gamma ray DSST-1 (GR)
HCAL .IN                   :  Edited caliper HILTB-1-2 (HCAL)
HCGR .GAPI                 :  Edited computed gamma ray HILTB-1-2 (HCGR)
HDRA .G/C3                 :  Edited density correction HILTB-1-2 (HDRA)
HSGR .GAPI                 :  Merged gamma ray HILTB-1-1 & HILTB-1-2 (HSGR)
NPHI .V/V                  :  Edited neutron HILTB-1-2 (NPHI)
PEFZ .B/E                  :  Edited photoelectric effect HILTB-1-2 (PEFZ)
RHOZ .G/C3                 :  Edited density HILTB-1-2 (RHOZ)
~Parameter Information Block
#MNEM.UNIT            Value   Description
#---------- ----------------  -----------
SET  .            COMP_WIRE:  
PROJ .             82ND_I_1:  
API  .                     :  
DATU .                  MSL:  
DMF  .                 D.F.:  Drilling Measured From
TDD  .F                5393:  
EDF  .F                  82:  
EKB  .F                  82:  Elevation_Kelly_Bushing
EPD  .F                  82:  
FN   .          EXPLORATION:  
LATI .     59 35' 03.0282 N:  
LCC  .          API 440 SCH:  
LONG .     01 08' 08.9472 E:  
LMF  .                 R.T.:  
ORDU .                 FEET:  
RANG .                     :  Range
RIG  .     BORGSTEN DOLPHIN:  
SECT .                     :  Section
SURF .F                -343:  
~Other Information Block
~A        DEPTH          AHT10          AHT20          AHT30          AHT60          AHT90           DT4P           DT4S           DTCO           DTSM             GR           HCAL           HCGR           HDRA           HSGR           NPHI           PEFZ           RHOZ 
# ...
      4769.5000       358.6620       353.1260       382.9190       378.1790       383.2380       133.9880       188.6970       135.3454       358.6424        59.3345        13.2520        84.0270         0.0120        84.4710         0.4260         3.7790         2.1700 
      4770.0000       352.9270       347.3480       382.8820       387.1440       385.1440       134.3890       189.9000       135.8809       364.9446        57.6497        13.2570        84.3300         0.0070        83.8570         0.4070         3.6500         2.1520 
      4770.5000       336.3630       358.0940       359.0270       366.7020       363.3450       133.5870       190.9020       135.9682       360.9594        57.4139        13.2700        84.9290         0.0140        82.3370         0.4110         3.6590         2.1470 
      4771.0000       329.6320       371.5690       336.3030       362.7990       365.9640       133.1860       191.3030       135.4144       354.0594        55.9123        13.5270        85.4380         0.0260        83.9590         0.4490         3.6380         2.1420 
      4771.5000       338.2110       385.0920       334.8710       394.0390       395.3250       131.9840       190.9020       133.8356       345.5820        53.3057        13.6130        83.7260         0.0410        80.3530         0.4370         3.7190         2.1200 
      4772.0000       352.2760       395.2570       356.8250       400.1130       378.0950       131.1820       190.3010       133.1483       337.7489        48.9225        14.8520        77.3050         0.0600        76.1290         0.4270         3.7880         2.0990 
      4772.5000       359.8320       377.6500       361.7820       352.9040       337.3500       130.1800       189.6100       131.5049       340.2553        51.1361        14.5610        72.4330         0.0660        71.2060         0.3930         3.8960         2.0950 
      4773.0000       361.1140       361.6140       341.0500       333.9630       341.5000       129.1780       189.2990       131.2101       341.2034        53.8186        15.5940        77.8210         0.0600        77.8830         0.4120         3.9880         2.1400 
      4773.5000       357.9780       349.4980       362.0750       364.5770       396.6230       129.1780       188.4970       131.0346       334.2069        55.9212        14.7740        80.3380         0.0460        80.9680         0.4540         3.9220         2.1690 
      4774.0000       348.4750       343.5180       393.2640       394.3600       414.8670       129.9800       187.6950       132.0423       328.5649        55.4081        15.6850        78.0280         0.0260        81.6060         0.4760         3.8660         2.1650 
      4774.5000       340.0490       357.2730       372.6990       357.9280       350.0930       130.3810       191.3030       134.3463       324.3465        52.3966        14.9750        76.1110         0.0150        81.1870         0.4710         3.8240         2.1470 
      4775.0000       335.6130       388.1330       355.2200       354.7990       362.6470       130.9820       191.5030       132.6186       324.9037        50.5627        14.9590        70.0720         0.0260        77.7290         0.4550         3.7720         2.1440 
      4775.5000       338.9340       394.0640       362.8690       377.6160       386.1980       130.7820       190.1000       130.2816       319.5751        46.6408        14.6870        65.0950         0.0510        72.9270         0.4500         3.8480         2.1380 
      4776.0000       361.5390       419.9310       395.0460       399.8390       395.4210       129.3790       189.8230       127.2471       321.1404        45.1410        16.2190        59.4110         0.0790        68.1400         0.4830         4.0630         2.1160 
      4776.5000       378.9280       437.3400       389.5340       407.0460       381.5970       126.7740       189.4530       127.7984       331.1386        45.0078        15.9570        56.7360         0.0790        65.5340         0.4550         4.3740         2.0990 
      4777.0000       378.9860       427.0540       377.6880       422.4800       406.3090       126.7740       189.0830       127.4935       335.7418        48.0797        15.2360        56.6450         0.0700        66.8950         0.3750         4.5340         2.1360 
      4777.5000       382.5280       397.2980       428.7780       443.8980       459.0050       127.9760       188.7130       127.9684       339.9754        52.3635        13.4620        62.0700         0.0590        71.5030         0.3660         4.5980         2.1940 
      4778.0000       389.1490       385.9620       422.0450       455.9780       439.6690       129.5790       188.4030       130.4869       337.6674        54.1096        15.7370        67.6610         0.0440        78.8330         0.3660         4.4410         2.2110 
      4778.5000       388.5400       407.2750       385.3440       379.0630       399.6590       131.5830       188.1780       131.5676       334.7734        54.4799        14.4440        73.6200         0.0270        84.4210         0.3760         4.2260         2.1840 
      4779.0000       366.6610       380.9330       375.8380       368.5230       358.5530       132.7860       187.9530       133.7897       341.9692        54.4168        13.7760        78.5500         0.0120        85.5580         0.3830         3.8980         2.1650 
      4779.5000       383.7580       367.8550       394.1600       394.7640       381.3600       132.7860       187.7280       135.9016       343.6926        54.4864        13.2730        78.5180         0.0200        83.8410         0.3830         3.7320         2.1670 
      4780.0000       390.8330       381.2040       406.1420       425.7940       434.1370       132.7860       187.5030       136.1581       344.3111        55.2407        13.8870        77.5910         0.0230        83.2230         0.3930         3.6680         2.1640 
      4780.5000       387.1000       398.1080       391.3540       420.5950       409.1260       132.3850       187.2780       135.5381       356.0484        56.4969        15.4540        74.7040         0.0190        83.1330         0.4140         3.6260         2.1490 
      4781.0000       375.5830       380.5030       370.9770       372.9370       374.6400       131.5830       187.0520       134.8310       364.3655        57.8979        14.1810        71.8920         0.0150        82.2490         0.4280         3.6260         2.1410 
      4781.5000       376.9380       373.5540       380.7320       382.5540       376.7820       130.7820       186.8940       132.4061       369.3041        57.0652        15.6560        69.4730         0.0140        80.5000         0.4430         3.6670         2.1410 
      4782.0000       392.3550       373.8170       404.1860       404.9520       416.3320       129.9800       187.6950       131.9198       369.3588        56.4558        13.8300        68.0370         0.0160        79.4830         0.4460         3.7100         2.1370 
      4782.5000       395.0140       403.6100       403.8140       422.5880       415.5360       129.9800       188.4970       131.7707       363.0946        55.7169        13.6650        67.7620         0.0200        79.9810         0.4300         3.7770         2.1420 
      4783.0000       378.9390       395.6920       378.8530       387.0120       367.2190       131.1820       188.4970       132.8525       356.4188        56.9697        14.3620        67.4620         0.0230        81.1690         0.4010         3.8250         2.1620 
      4783.5000       372.6270       370.5770       375.0440       368.6180       368.4710       132.7860       188.4970       134.3392       354.8755        54.7279        15.1960        67.9100         0.0250        82.9650         0.3700         3.8690         2.1800 
      4784.0000       382.4790       373.1690       390.2800       388.9090       382.8690       133.5870       188.0960       135.3579       359.3933        54.6550        14.7520        68.8600         0.0200        85.2230         0.3760         3.9070         2.1870 
