~Version Information Block
VERS .                 2.00:  CWLS LOG ASCII STANDARD - VERSION 2.00
WRAP .                   NO:  One line per depth step
~Well Information Block
#MNEM.UNIT        Data Type   Information
#---------- ----------------  -----------
STRT .F               374.5:  START DEPTH
STOP .F              5376.5:  STOP DEPTH
STEP .F                 0.5:  STEP
NULL .              -999.25:  NULL VALUE
COMP .     TEXACO BRITAIN LTD.:  COMPANY
WELL .              9/11A-6:  WELL
FLD  .              MARINER:  FIELD
LOC  .            NORTH SEA:  LOCATION
PROV .                 UKCS:  PROVINCE
SRVC .         SCHLUMBERGER:  SERVICE COMPANY
DATE .             09/09/96:  LOG DATE
UWI  .                24584:  UNIQUE WELL ID
~Curve Information Block
#MNEM.UNIT         API CODE   Curve Description
#---------- ----------------  -----------------
DEPTH.F                    :  Depth in Feet
AHT10.OHMM                 :  Edited resistivity HILTB-1-2 (AHT10)
AHT20.OHMM                 :  Edited resistivity HILTB-1-2 (AHT20)
AHT30.OHMM                 :  Edited resistivity HILTB-1-2 (AHT30)
AHT60.OHMM                 :  Edited resistivity HILTB-1-2 (AHT60)
AHT90.OHMM                 :  Edited resistivity HILTB-1-2 (AHT90)
DT4P .US/F                 :  Edited sonic  DSST-1 (DT4P)
DT4S .US/F                 :  Edited sonic  DSST-1 (DT4S)
DTCO .US/F                 :  Edited sonic  DSST-1 (DTCO)
DTSM .US/F                 :  Edited sonic  DSST-1 (DTSM)
GR   .GAPI                 :  Edited gamma ray DSST-1 (GR)
HCAL .IN                   :  Edited caliper HILTB-1-2 (HCAL)
HCGR .GAPI                 :  Edited computed gamma ray HILTB-1-2 (HCGR)
HDRA .G/C3                 :  Edited density correction HILTB-1-2 (HDRA)
HSGR .GAPI                 :  Merged gamma ray HILTB-1-1 & HILTB-1-2 (HSGR)
NPHI .V/V                  :  Edited neutron HILTB-1-2 (NPHI)
PEFZ .B/E                  :  Edited photoelectric effect HILTB-1-2 (PEFZ)
RHOZ .G/C3                 :  Edited density HILTB-1-2 (RHOZ)
~Parameter Information Block
#MNEM.UNIT            Value   Description
#---------- ----------------  -----------
SET  .            COMP_WIRE:  
PROJ .             82ND_I_1:  
API  .                     :  
DATU .                  MSL:  
DMF  .                 D.F.:  Drilling Measured From
TDD  .F                5393:  
EDF  .F                  82:  
EKB  .F                  82:  Elevation_Kelly_Bushing
EPD  .F                  82:  
FN   .          EXPLORATION:  
LATI .     59 35' 03.0282 N:  
LCC  .          API 440 SCH:  
LONG .     01 08' 08.9472 E:  
LMF  .                 R.T.:  
ORDU .                 FEET:  
RANG .                     :  Range
RIG  .     BORGSTEN DOLPHIN:  
SECT .                     :  Section
SURF .F                -343:  
~Other Information Block
~A        DEPTH          AHT10          AHT20          AHT30          AHT60          AHT90           DT4P           DT4S           DTCO           DTSM             GR           HCAL           HCGR           HDRA           HSGR           NPHI           PEFZ           RHOZ 
# ...
      3254.5000       272.6390       265.5750       269.1730       291.2150       305.1690        95.5110       154.4290       120.5940      -999.2500        19.6982        12.2550        19.4840         0.0170        24.5270         0.2690         2.0930         2.1360 
      3255.0000       273.3240       265.7580       269.1730       291.2950       307.1090        96.7130       154.4290       120.4655      -999.2500        20.7045        12.2770        18.0610         0.0140        24.1830         0.2860         2.0380         2.1290 
      3255.5000       274.0080       265.9440       269.1730       293.1710       313.0370        97.5150       154.0280       120.4915      -999.2500        20.6060        12.0900        19.2340         0.0070        24.5590         0.3040         2.0280         2.1130 
      3256.0000       274.6930       266.1300       269.1770       295.0390       315.3030        98.7170       154.0280       120.6481      -999.2500        19.9296        11.9880        19.2300         0.0050        25.2850         0.3160         2.0370         2.1010 
      3256.5000       275.3780       266.3160       269.1510       295.1930       310.9120        98.3170       153.2260       121.6933      -999.2500        20.4075        12.1350        18.9490         0.0020        25.8240         0.3060         2.0580         2.1030 
      3257.0000       276.0630       266.5030       269.3210       295.1760       310.2860        95.9120       152.8260       121.5679      -999.2500        19.7219        12.2760        17.3950         0.0050        25.0770         0.2880         2.0790         2.1120 
      3257.5000       276.7400       266.6880       271.1070       295.1260       316.4410        94.4590       154.0280       120.9980      -999.2500        21.0088        12.3230        16.3710         0.0090        23.7020         0.2750         2.1110         2.1220 
      3258.0000       277.0290       266.8750       275.0450       295.6080       323.7580        92.7050       155.6310       120.7078      -999.2500        18.5724        12.2460        16.3750         0.0140        22.9420         0.2760         2.1170         2.1190 
      3258.5000       276.6650       267.0580       276.8010       295.1510       325.1510        92.7050       155.6310       120.5362      -999.2500        17.7188        12.0750        16.6900         0.0120        22.6950         0.3090         2.1230         2.1110 
      3259.0000       276.2990       267.0620       279.2290       297.1960       325.1900        93.9080       155.2300       120.5106      -999.2500        15.7691        11.9810        17.0230         0.0080        22.7370         0.3010         2.1100         2.1040 
      3259.5000       275.9320       266.7890       279.0920       297.1620       318.4920        95.1100       154.8300       120.4249      -999.2500        17.5028        12.1600        17.7640         0.0030        23.5940         0.2880         2.1290         2.1100 
      3260.0000       275.5640       266.5140       276.5570       297.1810       315.1730        95.5110       155.2300       120.3223      -999.2500        19.1470        12.2710        18.5510         0.0050        23.8210         0.2730         2.1280         2.1200 
      3260.5000       275.1720       266.2390       275.2310       297.1450       315.1650        94.3090       154.8300       120.3383      -999.2500        20.4780        12.2650        19.6590         0.0090        24.6900         0.2610         2.1230         2.1260 
      3261.0000       273.8810       265.9640       271.5570       297.5290       316.7250        92.7050       154.8300       120.2193      -999.2500        20.8508        12.2460        20.3160         0.0050        25.0910         0.2880         2.0870         2.1140 
      3261.5000       272.4840       265.6890       271.1500       300.9070       320.7670        92.7050       155.6310       120.4565      -999.2500        20.7218        12.0610        20.9100         0.0020        24.7840         0.3090         2.0530         2.0990 
      3262.0000       271.0900       265.4140       271.1640       303.3350       321.6940        92.3050       156.0320       120.6238      -999.2500        21.4371        11.9740        21.3510         0.0040        24.7530         0.3110         2.0340         2.0920 
      3262.5000       269.6990       265.1390       271.2770       305.5550       325.3590        92.7050       155.6310       120.5498      -999.2500        19.8780        12.1290        20.8960         0.0040        23.7420         0.3120         2.0570         2.0970 
      3263.0000       269.6940       264.8640       273.2940       307.1940       325.2580        92.7050       155.6310       120.4577      -999.2500        19.1301        12.2510        20.2810         0.0090        23.9350         0.3170         2.0800         2.1120 
      3263.5000       270.4860       264.5890       275.2170       307.1630       327.1780        92.3050       155.2300       120.3948      -999.2500        18.7324        12.2300        19.3130         0.0140        23.2290         0.3100         2.1040         2.1230 
      3264.0000       271.2930       264.3140       275.1250       307.1680       329.0200        91.9040       155.6310       120.6471      -999.2500        19.8640        12.2110        18.3960         0.0160        22.7360         0.2890         2.1380         2.1290 
      3264.5000       272.0980       264.0400       275.4040       307.1820       331.1850        91.1020       156.0320       120.9203      -999.2500        19.6392        12.1750        18.1620         0.0160        21.5650         0.2810         2.1840         2.1250 
      3265.0000       272.9060       263.7650       272.8700       307.1270       333.1930        91.5030       156.4330       121.3454      -999.2500        17.5684        12.0620        18.4640         0.0150        21.4840         0.3020         2.2300         2.1150 
      3265.5000       272.8420       263.4950       271.0930       309.3140       333.0810        92.7050       156.0320       120.5180      -999.2500        17.9699        11.9580        19.5650         0.0120        21.5080         0.3170         2.2670         2.1070 
      3266.0000       272.3650       263.1950       272.8120       311.2450       330.8750        93.1060       155.2300       119.6297      -999.2500        19.2887        11.9470        20.8590         0.0100        22.1540         0.3210         2.2250         2.1100 
      3266.5000       271.8880       263.9720       273.0140       317.2020       329.0060        92.7050       155.2300       120.0063      -999.2500        20.9088        12.1390        22.6570         0.0110        22.7280         0.2880         2.1820         2.1190 
      3267.0000       271.3710       264.9220       275.0660       321.0150       329.1980        92.3050       155.6310       120.5449      -999.2500        21.2373        12.2310        23.2580         0.0130        22.1330         0.2790         2.1480         2.1270 
      3267.5000       272.3260       265.8630       275.1910       323.4600       329.1630        91.6530       155.6310       120.2380      -999.2500        20.1376        12.2410        22.9650         0.0140        21.7840         0.2940         2.1560         2.1260 
      3268.0000       273.2060       266.8060       275.1770       325.1900       329.1670        91.1020       156.4330       119.6151      -999.2500        19.8582        12.1240        22.3700         0.0110        21.7770         0.3080         2.1630         2.1160 
      3268.5000       273.1700       267.7490       275.1550       325.2390       329.1670        90.3010       156.4330       119.3293      -999.2500        19.3169        11.9970        23.7800         0.0100        23.0020         0.3090         2.1700         2.1080 
      3269.0000       273.1840       268.6930       277.1680       321.1800       329.1670        91.9040       156.0320       117.7070      -999.2500        18.8842        12.0280        21.9230         0.0100        22.2710         0.2940         2.1750         2.1080 
