~Version Information Block
VERS .                 2.00:  CWLS LOG ASCII STANDARD - VERSION 2.00
WRAP .                   NO:  One line per depth step
~Well Information Block
#MNEM.UNIT        Data Type   Information
#---------- ----------------  -----------
STRT .F               374.5:  START DEPTH
STOP .F              5376.5:  STOP DEPTH
STEP .F                 0.5:  STEP
NULL .              -999.25:  NULL VALUE
COMP .     TEXACO BRITAIN LTD.:  COMPANY
WELL .              9/11A-6:  WELL
FLD  .              MARINER:  FIELD
LOC  .            NORTH SEA:  LOCATION
PROV .                 UKCS:  PROVINCE
SRVC .         SCHLUMBERGER:  SERVICE COMPANY
DATE .             09/09/96:  LOG DATE
UWI  .                24584:  UNIQUE WELL ID
~Curve Information Block
#MNEM.UNIT         API CODE   Curve Description
#---------- ----------------  -----------------
DEPTH.F                    :  Depth in Feet
AHT10.OHMM                 :  Edited resistivity HILTB-1-2 (AHT10)
AHT20.OHMM                 :  Edited resistivity HILTB-1-2 (AHT20)
AHT30.OHMM                 :  Edited resistivity HILTB-1-2 (AHT30)
AHT60.OHMM                 :  Edited resistivity HILTB-1-2 (AHT60)
AHT90.OHMM                 :  Edited resistivity HILTB-1-2 (AHT90)
DT4P .US/F                 :  Edited sonic  DSST-1 (DT4P)
DT4S .US/F                 :  Edited sonic  DSST-1 (DT4S)
DTCO .US/F                 :  Edited sonic  DSST-1 (DTCO)
DTSM .US/F                 :  Edited sonic  DSST-1 (DTSM)
GR   .GAPI                 :  Edited gamma ray DSST-1 (GR)
HCAL .IN                   :  Edited caliper HILTB-1-2 (HCAL)
HCGR .GAPI                 :  Edited computed gamma ray HILTB-1-2 (HCGR)
HDRA .G/C3                 :  Edited density correction HILTB-1-2 (HDRA)
HSGR .GAPI                 :  Merged gamma ray HILTB-1-1 & HILTB-1-2 (HSGR)
NPHI .V/V                  :  Edited neutron HILTB-1-2 (NPHI)
PEFZ .B/E                  :  Edited photoelectric effect HILTB-1-2 (PEFZ)
RHOZ .G/C3                 :  Edited density HILTB-1-2 (RHOZ)
~Parameter Information Block
#MNEM.UNIT            Value   Description
#---------- ----------------  -----------
SET  .            COMP_WIRE:  
PROJ .             82ND_I_1:  
API  .                     :  
DATU .                  MSL:  
DMF  .                 D.F.:  Drilling Measured From
TDD  .F                5393:  
EDF  .F                  82:  
EKB  .F                  82:  Elevation_Kelly_Bushing
EPD  .F                  82:  
FN   .          EXPLORATION:  
LATI .     59 35' 03.0282 N:  
LCC  .          API 440 SCH:  
LONG .     01 08' 08.9472 E:  
LMF  .                 R.T.:  
ORDU .                 FEET:  
RANG .                     :  Range
RIG  .     BORGSTEN DOLPHIN:  
SECT .                     :  Section
SURF .F                -343:  
~Other Information Block
~A        DEPTH          AHT10          AHT20          AHT30          AHT60          AHT90           DT4P           DT4S           DTCO           DTSM             GR           HCAL           HCGR           HDRA           HSGR           NPHI           PEFZ           RHOZ 
# ...
      3449.5000       243.1760       243.1690       244.6850       245.7140       247.9320        90.1000       144.4090       120.8000      -999.2500        20.5566        12.1890        21.1040         0.0100        22.9330         0.2950         2.0630         2.0760 
      3450.0000       243.1940       243.2060       243.8960       244.7820       247.7610        89.9000       145.2100       120.9263      -999.2500        19.3419        12.1590        21.4900         0.0140        23.7450         0.2850         2.0070         2.0750 
      3450.5000       243.0730       241.5860       243.1830       243.8910       247.5850        91.5030       146.0120       120.2124      -999.2500        20.1264        12.2050        20.7330         0.0130        24.1860         0.2850         1.9920         2.0690 
      3451.0000       241.0090       241.1050       243.1770       242.7760       247.4410        92.3050       144.8100       119.5016      -999.2500        18.4528        12.2140        19.9760         0.0070        23.6670         0.2960         2.0770         2.0580 
      3451.5000       239.6160       241.3710       243.1670       238.3510       247.1070        93.9080       146.0120       119.5110      -999.2500        19.4773        12.0940        20.6250         0.0030        23.1430         0.3030         2.1020         2.0520 
      3452.0000       239.1360       239.3000       243.2110       233.6660       245.2130        96.3130       149.6190       121.0863      -999.2500        20.3912        12.0340        21.3920         0.0010        22.7330         0.3260         2.1260         2.0560 
      3452.5000       239.1830       238.7880       242.7510       233.1080       242.9010        99.1180       152.0240       122.9846      -999.2500        21.7809        12.0400        22.1010         0.0010        23.2860         0.3180         2.1470         2.0620 
      3453.0000       239.2130       236.7510       241.2190       233.3450       241.1220       100.3210       153.2260       122.4444      -999.2500        21.9508        12.1530        22.1100         0.0010        24.1250         0.2980         2.1180         2.0650 
      3453.5000       238.9920       235.1290       237.4650       235.1440       241.2360        97.9160       155.6310       120.7961      -999.2500        20.9441        12.1550        21.4290         0.0040        25.2130         0.2670         2.1000         2.0640 
      3454.0000       242.4950       235.3700       235.0180       240.2180       240.9480        98.7170       157.6350       119.3684      -999.2500        21.3159        12.2000        21.2400         0.0070        26.4010         0.2600         2.0930         2.0610 
      3454.5000       245.9070       236.9060       234.9620       247.9930       245.5670        93.5070       156.8340       118.7133      -999.2500        20.4847        12.2750        20.3870         0.0060        26.9060         0.2840         2.0880         2.0540 
      3455.0000       251.5570       243.0480       241.2010       258.1640       254.1080        92.7050       157.2340       119.0268      -999.2500        19.6131        12.1770        19.3510         0.0020        26.7460         0.3160         2.1020         2.0530 
      3455.5000       260.9490       248.9140       251.2920       263.1340       260.1620        92.7050       156.8340       121.3563      -999.2500        18.6280        12.0590        19.1010         0.0020        25.9670         0.3120         2.1210         2.0530 
      3456.0000       261.2230       255.2120       255.4360       262.9200       258.3400        93.5070       156.4330       123.1232      -999.2500        19.6346        12.0570        19.2690         0.0040        25.1810         0.3080         2.1390         2.0630 
      3456.5000       259.1850       258.7960       252.7590       253.9840       249.9710        92.7050       155.6310       122.2345      -999.2500        20.5990        12.1530        18.4500         0.0060        24.1110         0.3020         2.0780         2.0820 
      3457.0000       255.5600       258.4200       245.7180       253.3880       249.1850        91.5030       154.0280       121.4114      -999.2500        19.9816        12.2010        16.9070         0.0070        24.2600         0.2820         2.0740         2.0900 
      3457.5000       253.0630       244.8900       245.3220       251.2120       249.2200        91.1020       154.4290       120.8857      -999.2500        18.9295        12.2430        17.6350         0.0090        25.2130         0.2670         2.0820         2.0900 
      3458.0000       255.2320       246.1950       251.1930       253.1760       252.7830        91.1020       155.2300       120.3387      -999.2500        18.3777        12.2730        19.0780         0.0120        25.6880         0.2880         2.0800         2.0840 
      3458.5000       262.4330       254.1000       262.2940       260.5010       260.8090        91.1020       155.6310       120.8175      -999.2500        20.2981        12.2170        19.6820         0.0110        25.0640         0.3260         2.0680         2.0740 
      3459.0000       263.2050       257.3690       264.6660       258.4240       266.7580        91.1020       155.2300       121.2293      -999.2500        20.1180        12.0320        19.5670         0.0090        23.2850         0.3140         2.0550         2.0660 
      3459.5000       260.3240       263.3350       250.0720       249.1990       259.7990        90.3010       153.2260       121.9038      -999.2500        20.4894        12.0470        18.7610         0.0020        22.6660         0.2910         2.0500         2.0710 
      3460.0000       251.0850       255.5090       239.4920       243.6330       248.4900        88.2970       151.2220       122.3029      -999.2500        19.3664        12.2070        18.8930         0.0040        22.1000         0.2930         2.0540         2.0820 
      3460.5000       247.1520       243.5390       236.9260       246.4820       247.0690        85.8920       150.0200       122.2479      -999.2500        20.0672        12.2710        19.4120         0.0070        22.0910         0.3060         2.0580         2.0880 
      3461.0000       250.2410       243.7420       252.7670       258.3700       250.9030        85.6910       151.6230       122.4326      -999.2500        19.3168        12.2700        19.6340         0.0120        22.0960         0.3000         2.0630         2.0900 
      3461.5000       289.6060       261.3600       293.5440       304.0000       274.5740        86.8940       153.8280       122.1572      -999.2500        19.3121        12.2580        19.6910         0.0150        22.2930         0.2550         2.0630         2.1000 
      3462.0000       337.2440       340.6470       333.9100       350.1730       332.6150        87.4950       156.4330       123.4318      -999.2500        18.8790        12.2340        19.6830         0.0100        22.9470         0.2030         2.1650         2.1350 
      3462.5000       363.4980       362.6680       373.7730       387.8170       353.7190        88.6970       157.4350       122.8926      -999.2500        18.3153        12.2080        20.6860         0.0060        23.2880         0.1690         2.2550         2.2210 
      3463.0000       343.4100       338.4260       377.8450       390.2190       337.9020        89.6990       157.0340       122.0143      -999.2500        18.7685        12.0770        21.4720         0.0090        23.5250         0.1930         2.3300         2.2790 
      3463.5000       300.3350       312.7970       305.0590       330.9720       297.5480        89.2990       157.2340       122.6241      -999.2500        17.8833        12.0550        22.1080         0.0150        23.8930         0.2200         2.2860         2.2870 
      3464.0000       290.0510       284.6110       265.5860       282.8040       260.4330        94.1080       157.2340       121.3944      -999.2500        19.9038        12.0740        22.0980         0.0190        23.8950         0.3250         2.2370         2.2040 
