~Version Information Block
VERS .                 2.00:  CWLS LOG ASCII STANDARD - VERSION 2.00
WRAP .                   NO:  One line per depth step
~Well Information Block
#MNEM.UNIT        Data Type   Information
#---------- ----------------  -----------
STRT .F               374.5:  START DEPTH
STOP .F              5376.5:  STOP DEPTH
STEP .F                 0.5:  STEP
NULL .              -999.25:  NULL VALUE
COMP .     TEXACO BRITAIN LTD.:  COMPANY
WELL .              9/11A-6:  WELL
FLD  .              MARINER:  FIELD
LOC  .            NORTH SEA:  LOCATION
PROV .                 UKCS:  PROVINCE
SRVC .         SCHLUMBERGER:  SERVICE COMPANY
DATE .             09/09/96:  LOG DATE
UWI  .                24584:  UNIQUE WELL ID
~Curve Information Block
#MNEM.UNIT         API CODE   Curve Description
#---------- ----------------  -----------------
DEPTH.F                    :  Depth in Feet
AHT10.OHMM                 :  Edited resistivity HILTB-1-2 (AHT10)
AHT20.OHMM                 :  Edited resistivity HILTB-1-2 (AHT20)
AHT30.OHMM                 :  Edited resistivity HILTB-1-2 (AHT30)
AHT60.OHMM                 :  Edited resistivity HILTB-1-2 (AHT60)
AHT90.OHMM                 :  Edited resistivity HILTB-1-2 (AHT90)
DT4P .US/F                 :  Edited sonic  DSST-1 (DT4P)
DT4S .US/F                 :  Edited sonic  DSST-1 (DT4S)
DTCO .US/F                 :  Edited sonic  DSST-1 (DTCO)
DTSM .US/F                 :  Edited sonic  DSST-1 (DTSM)
GR   .GAPI                 :  Edited gamma ray DSST-1 (GR)
HCAL .IN                   :  Edited caliper HILTB-1-2 (HCAL)
HCGR .GAPI                 :  Edited computed gamma ray HILTB-1-2 (HCGR)
HDRA .G/C3                 :  Edited density correction HILTB-1-2 (HDRA)
HSGR .GAPI                 :  Merged gamma ray HILTB-1-1 & HILTB-1-2 (HSGR)
NPHI .V/V                  :  Edited neutron HILTB-1-2 (NPHI)
PEFZ .B/E                  :  Edited photoelectric effect HILTB-1-2 (PEFZ)
RHOZ .G/C3                 :  Edited density HILTB-1-2 (RHOZ)
~Parameter Information Block
#MNEM.UNIT            Value   Description
#---------- ----------------  -----------
SET  .            COMP_WIRE:  
PROJ .             82ND_I_1:  
API  .                     :  
DATU .                  MSL:  
DMF  .                 D.F.:  Drilling Measured From
TDD  .F                5393:  
EDF  .F                  82:  
EKB  .F                  82:  Elevation_Kelly_Bushing
EPD  .F                  82:  
FN   .          EXPLORATION:  
LATI .     59 35' 03.0282 N:  
LCC  .          API 440 SCH:  
LONG .     01 08' 08.9472 E:  
LMF  .                 R.T.:  
ORDU .                 FEET:  
RANG .                     :  Range
RIG  .     BORGSTEN DOLPHIN:  
SECT .                     :  Section
SURF .F                -343:  
~Other Information Block
~A        DEPTH          AHT10          AHT20          AHT30          AHT60          AHT90           DT4P           DT4S           DTCO           DTSM             GR           HCAL           HCGR           HDRA           HSGR           NPHI           PEFZ           RHOZ 
# ...
      3644.5000       247.4850       245.3360       246.2210       248.5620       234.8730       122.9110       189.4990       123.8814      -999.2500        23.3107        12.0940        30.2660         0.0050        29.8800         0.3650         2.4250         2.0530 
      3645.0000       236.7440       232.9740       235.4810       234.9310       228.9010       122.4960       190.9020       124.4166      -999.2500        20.7588        12.0720        30.8620         0.0070        28.5210         0.3530         2.4990         2.0600 
      3645.5000       228.8320       223.0460       230.3110       227.9670       226.6390       122.0810       191.7030       124.5271      -999.2500        20.6373        12.0550        32.0160         0.0040        27.1580         0.3330         2.4110         2.0680 
      3646.0000       223.1880       219.6210       227.2760       227.1950       225.1680       121.6670       191.7030       123.9049      -999.2500        18.7174        12.0870        31.3620         0.0020        25.9640         0.3020         2.3360         2.0800 
      3646.5000       224.9040       219.1580       227.3420       227.2620       225.4600       121.1100       190.9020       123.2045      -999.2500        19.7079        12.1340        29.4850        -0.0010        24.8900         0.3080         2.2680         2.0850 
      3647.0000       233.1730       222.8830       231.5190       229.1680       232.9050       120.9010       190.9020       122.7170      -999.2500        18.0245        12.1100        27.2960        -0.0030        23.8000         0.3180         2.2000         2.0820 
      3647.5000       235.2400       233.6860       233.2180       231.0010       233.7850       120.6920       191.1590       122.2830      -999.2500        18.2391        12.0740        25.6860        -0.0020        23.1300         0.3210         2.2010         2.0790 
      3648.0000       235.1420       233.1140       233.1660       232.8340       234.4100       120.4830       191.5030       121.4754      -999.2500        19.1886        12.0940        26.0230         0.0030        23.8580         0.3180         2.2280         2.0780 
      3648.5000       235.2710       231.1420       233.1850       234.6680       235.0690       119.9600       191.7030       121.0428      -999.2500        19.7652        12.1060        25.9990         0.0100        24.5390         0.3060         2.2500         2.0840 
      3649.0000       237.5810       232.0860       233.1710       236.5030       235.7180       119.7800       191.7030       120.1330      -999.2500        19.5545        12.1030        25.9930         0.0080        25.2650         0.3090         2.2610         2.0890 
      3649.5000       241.0630       237.3070       234.0270       238.3380       236.3630       119.6140       191.7030       120.1364      -999.2500        18.7377        12.1400        24.4600         0.0070        24.7290         0.2870         2.2680         2.0890 
      3650.0000       241.2140       237.1530       241.0320       240.1720       237.0390       119.4490       191.7030       120.8859      -999.2500        18.9749        12.1040        23.2540         0.0060        23.8190         0.2820         2.2680         2.0900 
      3650.5000       237.7110       237.1750       243.1880       242.0040       237.1540       119.2830       191.7030       121.2891      -999.2500        20.8267        12.2120        22.1030         0.0020        22.9000         0.3010         2.2680         2.0870 
      3651.0000       235.4810       237.1760       245.0200       243.8330       239.1990       119.1580       191.7030       121.1646      -999.2500        20.7471        12.1530        20.9540        -0.0080        21.7980         0.3100         2.2670         2.0870 
      3651.5000       233.0500       237.1760       245.2440       245.2180       239.1680       119.5590       191.7030       120.9122      -999.2500        19.8322        12.0580        19.7930        -0.0110        20.2640         0.3080         2.2590         2.0860 
      3652.0000       236.6230       237.1760       244.6970       243.5760       239.1760       119.5590       190.9020       121.6624      -999.2500        18.0639        12.0570        18.7730        -0.0060        20.2210         0.2890         2.2510         2.0890 
      3652.5000       237.6370       237.1760       240.5700       243.1390       239.1760       119.2470       191.1590       122.1419      -999.2500        17.6259        12.1330        19.7040         0.0010        19.9430         0.2650         2.2220         2.0940 
      3653.0000       239.2020       237.1720       237.1650       243.1850       239.1760       118.7580       191.5030       122.2651      -999.2500        18.9318        12.2270        21.4750         0.0050        20.7040         0.2520         2.1690         2.0950 
      3653.5000       239.0970       237.1860       237.1880       243.1660       239.1760       119.5590       191.7030       121.5489      -999.2500        20.7302        12.2600        23.3650         0.0070        22.6450         0.2470         2.1260         2.0920 
      3654.0000       234.9570       237.0980       237.1850       243.2120       239.1800       120.3610       190.9020       120.8525      -999.2500        21.0842        12.2760        25.2560         0.0050        24.1880         0.2480         2.0840         2.0890 
      3654.5000       235.2250       234.6400       237.1520       242.7700       239.1570       120.7620       190.5010       120.1846      -999.2500        20.6010        12.2300        27.1440         0.0010        26.0280         0.2460         2.0670         2.0850 
      3655.0000       235.1440       230.7520       239.2000       241.1470       239.2780       120.7620       190.5010       120.2409      -999.2500        20.1255        12.1800        28.6160        -0.0050        26.3050         0.2670         2.1080         2.0820 
      3655.5000       236.7710       229.2030       239.1640       241.1820       241.3690       120.7620       190.5010       121.4201      -999.2500        21.1656        12.1970        27.0090        -0.0070        25.7950         0.2770         2.1540         2.0790 
      3656.0000       237.2200       233.7840       239.2110       241.1810       241.1870       120.7620       190.9020       121.7543      -999.2500        20.6518        12.2190        25.5130        -0.0010        24.7860         0.2870         2.1860         2.0800 
      3656.5000       237.1580       236.7670       238.9960       241.1570       245.3200       120.3610       191.3030       121.3791      -999.2500        21.0369        12.2380        23.9310         0.0000        23.8530         0.2970         2.2190         2.0840 
      3657.0000       238.6750       238.6110       240.9800       241.2730       247.7080       119.5590       191.3030       120.6266      -999.2500        19.0408        12.1150        24.2930         0.0020        24.4830         0.3090         2.1960         2.0880 
      3657.5000       244.2490       242.0570       245.2920       243.3670       251.3650       119.5590       191.7030       121.0138      -999.2500        19.9592        12.1000        24.3110         0.0010        24.4910         0.3200         2.1570         2.0890 
      3658.0000       247.1340       245.0970       245.1390       243.1330       251.2060       120.5610       191.9640       121.8888      -999.2500        20.9037        12.1200        23.9920        -0.0010        23.2240         0.3180         2.1260         2.0880 
      3658.5000       246.6460       245.2610       245.2330       243.1510       246.9620       121.5630       192.2040       122.3114      -999.2500        23.2388        12.1280        22.3570        -0.0030        22.9220         0.2980         2.0960         2.0900 
      3659.0000       239.8040       243.0680       243.1960       238.2520       239.1750       121.9640       192.4450       122.6913      -999.2500        23.0968        12.1350        21.4920        -0.0050        22.8620         0.2820         2.0660         2.0930 
