~Version Information Block
VERS .                 2.00:  CWLS LOG ASCII STANDARD - VERSION 2.00
WRAP .                   NO:  One line per depth step
~Well Information Block
#MNEM.UNIT        Data Type   Information
#---------- ----------------  -----------
STRT .F               374.5:  START DEPTH
STOP .F              5376.5:  STOP DEPTH
STEP .F                 0.5:  STEP
NULL .              -999.25:  NULL VALUE
COMP .     TEXACO BRITAIN LTD.:  COMPANY
WELL .              9/11A-6:  WELL
FLD  .              MARINER:  FIELD
LOC  .            NORTH SEA:  LOCATION
PROV .                 UKCS:  PROVINCE
SRVC .         SCHLUMBERGER:  SERVICE COMPANY
DATE .             09/09/96:  LOG DATE
UWI  .                24584:  UNIQUE WELL ID
~Curve Information Block
#MNEM.UNIT         API CODE   Curve Description
#---------- ----------------  -----------------
DEPTH.F                    :  Depth in Feet
AHT10.OHMM                 :  Edited resistivity HILTB-1-2 (AHT10)
AHT20.OHMM                 :  Edited resistivity HILTB-1-2 (AHT20)
AHT30.OHMM                 :  Edited resistivity HILTB-1-2 (AHT30)
AHT60.OHMM                 :  Edited resistivity HILTB-1-2 (AHT60)
AHT90.OHMM                 :  Edited resistivity HILTB-1-2 (AHT90)
DT4P .US/F                 :  Edited sonic  DSST-1 (DT4P)
DT4S .US/F                 :  Edited sonic  DSST-1 (DT4S)
DTCO .US/F                 :  Edited sonic  DSST-1 (DTCO)
DTSM .US/F                 :  Edited sonic  DSST-1 (DTSM)
GR   .GAPI                 :  Edited gamma ray DSST-1 (GR)
HCAL .IN                   :  Edited caliper HILTB-1-2 (HCAL)
HCGR .GAPI                 :  Edited computed gamma ray HILTB-1-2 (HCGR)
HDRA .G/C3                 :  Edited density correction HILTB-1-2 (HDRA)
HSGR .GAPI                 :  Merged gamma ray HILTB-1-1 & HILTB-1-2 (HSGR)
NPHI .V/V                  :  Edited neutron HILTB-1-2 (NPHI)
PEFZ .B/E                  :  Edited photoelectric effect HILTB-1-2 (PEFZ)
RHOZ .G/C3                 :  Edited density HILTB-1-2 (RHOZ)
~Parameter Information Block
#MNEM.UNIT            Value   Description
#---------- ----------------  -----------
SET  .            COMP_WIRE:  
PROJ .             82ND_I_1:  
API  .                     :  
DATU .                  MSL:  
DMF  .                 D.F.:  Drilling Measured From
TDD  .F                5393:  
EDF  .F                  82:  
EKB  .F                  82:  Elevation_Kelly_Bushing
EPD  .F                  82:  
FN   .          EXPLORATION:  
LATI .     59 35' 03.0282 N:  
LCC  .          API 440 SCH:  
LONG .     01 08' 08.9472 E:  
LMF  .                 R.T.:  
ORDU .                 FEET:  
RANG .                     :  Range
RIG  .     BORGSTEN DOLPHIN:  
SECT .                     :  Section
SURF .F                -343:  
~Other Information Block
~A        DEPTH          AHT10          AHT20          AHT30          AHT60          AHT90           DT4P           DT4S           DTCO           DTSM             GR           HCAL           HCGR           HDRA           HSGR           NPHI           PEFZ           RHOZ 
# ...
      4394.5000       305.1190       333.1620       343.1570       343.2160       358.7760       137.9960       195.3110       138.1069       360.3201        57.2712        12.2140        58.9890         0.0180        75.3770         0.4830         3.3950         2.0940 
      4395.0000       308.1650       333.1850       343.1750       346.3490       359.1920       137.9960       193.5070       138.2717       383.8193        55.6664        12.2190        55.8250         0.0110        71.2860         0.4810         3.4770         2.1010 
      4395.5000       309.3060       333.0630       343.1300       349.9980       359.1540       137.9960       193.1060       138.4473       411.2769        54.9588        12.2900        53.6450         0.0040        69.2340         0.4490         3.5690         2.1160 
      4396.0000       302.9420       330.9750       343.5710       353.0560       359.1640       137.9960       193.5070       140.0722       427.9168        53.9692        12.2830        54.5550         0.0040        68.0000         0.4580         3.5880         2.1230 
      4396.5000       301.1050       329.7070       345.1690       354.8180       359.1640       138.7980       194.1080       138.3243       432.9806        54.7240        12.1640        54.6570         0.0070        68.3850         0.4700         3.6070         2.1180 
      4397.0000       300.1970       324.1510       345.2420       354.9580       359.1650       138.7980       195.3110       138.1536       434.6195        54.1129        12.0860        54.8760         0.0100        68.4520         0.4950         3.5500         2.1000 
      4397.5000       299.1560       318.1620       341.1740       357.5600       359.1860       138.7980       196.9140       139.5319       419.0751        53.1886        11.9890        55.7220         0.0130        69.2900         0.4970         3.5070         2.0830 
      4398.0000       299.1290       315.0250       337.5380       362.9480       359.1670       138.7980       198.3170       141.8155       405.5226        52.8665        11.9760        58.4180         0.0130        70.2690         0.4850         3.5060         2.0760 
      4398.5000       301.5610       318.0790       337.8760       372.4690       362.8030       139.1980       198.9180       142.0793       405.1764        56.1907        12.1750        62.0460         0.0100        69.8150         0.4600         3.5070         2.0690 
      4399.0000       304.8490       326.9380       343.2060       388.1380       376.9850       139.1980       198.3170       139.3687       409.1411        59.2463        12.2190        64.4270         0.0070        69.8300         0.4530         3.4920         2.0720 
      4399.5000       308.3950       335.6850       349.3350       397.5310       394.4130       139.5990       196.1120       137.2004       401.5443        59.9646        12.2120        66.4760         0.0020        69.7400         0.4630         3.4460         2.0750 
      4400.0000       309.1860       340.5400       354.8210       402.6440       399.2600       138.3970       194.9100       137.9282       392.9237        56.8767        12.2500        66.1730         0.0020        70.3410         0.4510         3.4520         2.0840 
      4400.5000       309.0770       345.2050       355.1130       403.2250       398.9260       137.9960       193.3070       138.0986       385.0764        57.7498        12.2000        64.9720         0.0040        70.1340         0.4420         3.4570         2.0980 
      4401.0000       313.2760       347.6700       360.4080       404.5940       402.9420       137.9960       192.1040       137.5717       367.2708        58.2797        12.2150        63.8150         0.0050        70.2290         0.4230         3.4620         2.1020 
      4401.5000       321.0310       351.9690       369.0460       417.4380       420.3880       137.9960       191.3030       136.0308       347.8614        59.3457        12.2550        60.0990         0.0060        68.2250         0.4070         3.4690         2.0990 
      4402.0000       329.7480       363.3560       382.2110       433.7800       437.0900       136.3930       191.3030       134.5917       328.5197        54.9125        12.2540        56.3320         0.0070        64.5640         0.3650         3.4860         2.0960 
      4402.5000       365.3750       380.9720       412.6480       462.6710       495.3530       134.7900       191.3030       135.3968       311.0816        48.1357        12.2540        51.2880         0.0130        59.3780         0.3920         3.4890         2.1030 
      4403.0000       413.7940       431.5600       533.0450       507.8970       561.7430       133.5870       190.9020       135.1447       298.6171        39.8361        12.2550        46.2000         0.0160        53.8630         0.4300         3.3770         2.1090 
      4403.5000       488.6790       553.7210       631.5310       628.7420       689.4850       132.3850       189.6990       133.5719       296.3919        31.7700        12.3730        39.5120         0.0130        46.4130         0.4010         3.2610         2.1150 
      4404.0000       574.6870       726.4750       735.3320       747.1730       865.0600       130.7820       188.8980       132.1810       291.9272        27.0436        12.9820        31.6950         0.0040        40.8480         0.3510         2.8760         2.1070 
      4404.5000       593.3070       733.6480       792.5950       832.9770       867.7380       129.5790       188.8980       131.0149       288.7510        23.8342        12.8470        24.5050        -0.0040        33.4260         0.2690         2.5410         2.0950 
      4405.0000       590.7290       734.4730       778.9290       776.9090       762.3370       129.1780       188.8980       130.6714       290.6876        23.6353        12.9080        21.3280        -0.0040        30.1060         0.2760         2.3030         2.0810 
      4405.5000       587.8420       721.9410       772.9930       775.0030       728.1170       132.3850       190.1000       132.1355       286.2785        23.6353        12.6780        20.0970        -0.0060        28.4310         0.2940         2.1850         2.0770 
      4406.0000       582.3050       697.1040       788.8270       780.3230       754.5770       135.1900       192.5050       133.0519       286.8375        24.0659        12.9350        21.1920        -0.0080        27.5290         0.2880         2.1980         2.0840 
      4406.5000       557.7600       648.9590       791.2810       802.4290       804.0240       136.7940       194.9100       135.6890       291.7263        25.1583        12.8780        22.7440        -0.0080        27.8060         0.2720         2.2080         2.0830 
      4407.0000       520.1920       610.7850       746.8190       783.6480       782.8860       138.7980       197.7150       137.6767       291.8135        25.0398        13.0870        24.5640        -0.0080        29.4010         0.2910         2.2740         2.0650 
      4407.5000       503.8680       582.5760       681.9330       749.3480       739.6550       139.1980       198.1160       139.2631       295.3200        26.1993        13.4750        26.7890        -0.0070        32.0810         0.3170         2.4340         2.0340 
      4408.0000       523.3050       624.7550       665.4630       746.0010       744.0280       138.3970       195.7110       139.4777       299.5867        25.1362        14.6830        29.0450        -0.0060        35.6710         0.3470         2.5960         2.0180 
      4408.5000       558.3690       690.5190       680.2350       811.4010       880.5500       136.7940       191.7030       135.8355       301.4504        25.4150        15.9900        30.1890        -0.0020        35.9310         0.3500         2.7950         2.0210 
      4409.0000       568.1510       758.2410       745.2590       961.7250      1058.2870       134.3890       189.2990       135.0466       301.9096        24.5924        16.3640        30.2010        -0.0020        35.3220         0.3510         2.8890         2.0410 
