~Version Information Block
VERS .                 2.00:  CWLS LOG ASCII STANDARD - VERSION 2.00
WRAP .                   NO:  One line per depth step
~Well Information Block
#MNEM.UNIT        Data Type   Information
#---------- ----------------  -----------
STRT .F               374.5:  START DEPTH
STOP .F              5376.5:  STOP DEPTH
STEP .F                 0.5:  STEP
NULL .              -999.25:  NULL VALUE
COMP .     TEXACO BRITAIN LTD.:  COMPANY
WELL .              9/11A-6:  WELL
FLD  .              MARINER:  FIELD
LOC  .            NORTH SEA:  LOCATION
PROV .                 UKCS:  PROVINCE
SRVC .         SCHLUMBERGER:  SERVICE COMPANY
DATE .             09/09/96:  LOG DATE
UWI  .                24584:  UNIQUE WELL ID
~Curve Information Block
#MNEM.UNIT         API CODE   Curve Description
#---------- ----------------  -----------------
DEPTH.F                    :  Depth in Feet
AHT10.OHMM                 :  Edited resistivity HILTB-1-2 (AHT10)
AHT20.OHMM                 :  Edited resistivity HILTB-1-2 (AHT20)
AHT30.OHMM                 :  Edited resistivity HILTB-1-2 (AHT30)
AHT60.OHMM                 :  Edited resistivity HILTB-1-2 (AHT60)
AHT90.OHMM                 :  Edited resistivity HILTB-1-2 (AHT90)
DT4P .US/F                 :  Edited sonic  DSST-1 (DT4P)
DT4S .US/F                 :  Edited sonic  DSST-1 (DT4S)
DTCO .US/F                 :  Edited sonic  DSST-1 (DTCO)
DTSM .US/F                 :  Edited sonic  DSST-1 (DTSM)
GR   .GAPI                 :  Edited gamma ray DSST-1 (GR)
HCAL .IN                   :  Edited caliper HILTB-1-2 (HCAL)
HCGR .GAPI                 :  Edited computed gamma ray HILTB-1-2 (HCGR)
HDRA .G/C3                 :  Edited density correction HILTB-1-2 (HDRA)
HSGR .GAPI                 :  Merged gamma ray HILTB-1-1 & HILTB-1-2 (HSGR)
NPHI .V/V                  :  Edited neutron HILTB-1-2 (NPHI)
PEFZ .B/E                  :  Edited photoelectric effect HILTB-1-2 (PEFZ)
RHOZ .G/C3                 :  Edited density HILTB-1-2 (RHOZ)
~Parameter Information Block
#MNEM.UNIT            Value   Description
#---------- ----------------  -----------
SET  .            COMP_WIRE:  
PROJ .             82ND_I_1:  
API  .                     :  
DATU .                  MSL:  
DMF  .                 D.F.:  Drilling Measured From
TDD  .F                5393:  
EDF  .F                  82:  
EKB  .F                  82:  Elevation_Kelly_Bushing
EPD  .F                  82:  
FN   .          EXPLORATION:  
LATI .     59 35' 03.0282 N:  
LCC  .          API 440 SCH:  
LONG .     01 08' 08.9472 E:  
LMF  .                 R.T.:  
ORDU .                 FEET:  
RANG .                     :  Range
RIG  .     BORGSTEN DOLPHIN:  
SECT .                     :  Section
SURF .F                -343:  
~Other Information Block
~A        DEPTH          AHT10          AHT20          AHT30          AHT60          AHT90           DT4P           DT4S           DTCO           DTSM             GR           HCAL           HCGR           HDRA           HSGR           NPHI           PEFZ           RHOZ 
# ...
      2699.5000       259.1810       245.8880       259.1460       253.1140       253.6740       135.9920       188.8980       135.4934      -999.2500        14.9764        12.0580        18.7570         0.0080        19.3550         0.2930         1.9540         2.0700 
      2700.0000       259.1860       244.1640       259.1880       253.1600       253.1540       135.5910       188.6970       135.6810      -999.2500        15.4544        12.0590        20.2360         0.0080        21.7930         0.2960         1.9620         2.0690 
      2700.5000       259.4480       242.4470       259.1400       253.3700       252.9930       135.5910       186.4930       136.0648      -999.2500        15.3646        12.0600        22.8970         0.0080        23.6390         0.3100         1.9800         2.0670 
      2701.0000       259.6990       241.2030       259.3700       251.2810       255.0780       135.5910       184.8900       135.9077      -999.2500        13.7981        12.0610        22.8100         0.0080        23.5910         0.3230         2.0080         2.0680 
      2701.5000       259.9510       244.3130       257.2710       251.1200       255.1980       135.5910       184.6990       135.8156      -999.2500        15.0273        12.0620        21.5570         0.0070        23.0590         0.3250         2.0080         2.0670 
      2702.0000       260.2030       247.6750       257.1550       251.5890       255.1510       135.5910       187.0080       135.6897      -999.2500        15.6154        12.0630        20.9650         0.0050        22.4190         0.3220         2.0100         2.0650 
      2702.5000       260.4550       251.0320       257.1790       253.1840       255.2690       135.1900       189.3180       135.4740      -999.2500        15.9585        12.0640        20.3820         0.0040        21.4090         0.3060         2.0220         2.0650 
      2703.0000       260.7070       249.6500       257.1740       253.2650       257.3790       133.9880       191.7030       135.3112      -999.2500        16.4502        12.0650        19.6750         0.0020        20.8590         0.2930         2.0340         2.0680 
      2703.5000       260.9610       248.0510       257.1740       255.3690       256.6480       133.1860       191.7030       135.2237      -999.2500        16.6925        12.0660        19.4730         0.0030        20.5470         0.3140         2.0460         2.0750 
      2704.0000       261.1780       246.4650       257.1700       255.1400       256.0690       132.3850       191.7030       135.1983      -999.2500        17.0568        12.0670        19.7010         0.0050        20.9630         0.2980         2.0370         2.0790 
      2704.5000       261.1600       244.8730       257.1840       255.1690       255.4510       133.5870       191.7030       135.2180      -999.2500        16.7361        12.0680        20.8100         0.0060        21.7450         0.2940         2.0220         2.0790 
      2705.0000       261.2360       243.2840       257.0830       255.2030       254.8360       134.7900       191.3030       136.1411      -999.2500        16.1309        12.0690        21.7010         0.0080        21.7990         0.2820         2.0080         2.0740 
      2705.5000       257.2630       241.6850       253.0480       254.7930       254.2200       135.5910       189.6990       136.9297      -999.2500        16.6281        12.0700        20.9650         0.0080        21.5940         0.2850         2.0080         2.0690 
      2706.0000       253.8870       241.1810       247.7240       251.1220       253.6050       135.5910       189.6990       136.7361      -999.2500        16.0187        12.0710        20.5760         0.0070        21.1180         0.2820         2.0080         2.0660 
      2706.5000       249.3660       241.1770       245.2030       251.1890       252.9900       135.5910       190.5010       136.7605      -999.2500        17.6068        12.0720        20.9090         0.0070        20.9100         0.2850         2.0080         2.0660 
      2707.0000       250.2670       241.1760       245.3880       251.1850       252.3770       135.5910       191.7030       136.9420      -999.2500        17.3618        12.0730        20.4780         0.0080        20.5280         0.2700         2.0080         2.0650 
      2707.5000       253.1360       241.1760       242.9180       251.1470       251.7590       135.5910       190.5010       137.0743      -999.2500        18.6721        12.0740        19.9170         0.0060        20.2790         0.2840         2.0160         2.0650 
      2708.0000       253.1790       241.1760       239.4380       251.5700       251.2360       135.5910       190.5010       137.1806      -999.2500        17.7897        12.0750        19.6480         0.0040        19.7580         0.2660         2.0240         2.0650 
      2708.5000       253.1700       241.1760       236.9550       255.1720       252.6680       135.5910       190.5010       137.2924      -999.2500        17.4466        12.0760        18.5370         0.0000        19.0200         0.2690         1.9820         2.0630 
      2709.0000       253.1800       241.1800       237.2250       255.6670       254.0870       135.5910       188.0960       137.3253      -999.2500        16.6624        12.0770        17.9440         0.0020        18.4770         0.2700         1.9790         2.0590 
      2709.5000       253.1620       241.1570       237.1540       259.3790       255.5050       135.5910       186.4930       137.2863      -999.2500        15.9567        12.0780        17.6500         0.0030        18.8030         0.2860         1.9890         2.0500 
      2710.0000       253.2430       241.2810       237.2730       259.2300       256.9260       135.5910       186.4930       136.0293      -999.2500        15.3436        12.0790        17.2400         0.0050        19.7790         0.2930         1.9920         2.0520 
      2710.5000       256.9680       243.3430       239.3720       261.3640       258.3360       135.1900       186.8940       134.6038      -999.2500        14.9929        12.0800        17.5750         0.0070        21.1180         0.2920         1.9950         2.0520 
      2711.0000       257.1570       245.2000       239.1420       261.1590       259.1670       134.3890       188.0960       134.2241      -999.2500        15.6680        12.0810        17.6130         0.0110        21.1990         0.3010         1.9980         2.0570 
      2711.5000       257.2650       244.9820       239.1810       260.1930       259.1730       133.5870       188.0960       135.3745      -999.2500        18.6489        12.0820        17.6340         0.0120        21.1920         0.3110         2.0000         2.0610 
      2712.0000       259.3680       247.0500       239.1910       256.3340       259.1620       132.7860       187.2950       136.6418      -999.2500        18.3897        12.0830        17.2900         0.0130        21.1930         0.3100         2.0030         2.0640 
      2712.5000       259.1220       248.7850       239.1540       251.6900       259.1910       133.9880       186.8940       136.6859      -999.2500        18.7667        12.0840        17.2830         0.0130        21.1780         0.2790         2.0060         2.0650 
      2713.0000       259.2240       249.2630       242.6960       249.1200       257.6250       134.7900       188.0960       137.1151      -999.2500        18.9070        12.0850        17.2820         0.0100        21.8170         0.2850         1.9490         2.0640 
      2713.5000       254.2010       248.9160       246.7450       249.2010       249.8990       135.1900       189.2990       137.6773      -999.2500        20.2183        12.0860        17.9030         0.0080        22.4940         0.2970         1.9260         2.0630 
      2714.0000       249.6270       253.1040       254.1150       255.6960       249.8070       135.9920       190.9020       138.0860      -999.2500        20.7443        12.0870        18.9640         0.0070        23.9250         0.3280         2.0110         2.0550 
