~Version Information Block
VERS .                 2.00:  CWLS LOG ASCII STANDARD - VERSION 2.00
WRAP .                   NO:  One line per depth step
~Well Information Block
#MNEM.UNIT        Data Type   Information
#---------- ----------------  -----------
STRT .F               374.5:  START DEPTH
STOP .F              5376.5:  STOP DEPTH
STEP .F                 0.5:  STEP
NULL .              -999.25:  NULL VALUE
COMP .     TEXACO BRITAIN LTD.:  COMPANY
WELL .              9/11A-6:  WELL
FLD  .              MARINER:  FIELD
LOC  .            NORTH SEA:  LOCATION
PROV .                 UKCS:  PROVINCE
SRVC .         SCHLUMBERGER:  SERVICE COMPANY
DATE .             09/09/96:  LOG DATE
UWI  .                24584:  UNIQUE WELL ID
~Curve Information Block
#MNEM.UNIT         API CODE   Curve Description
#---------- ----------------  -----------------
DEPTH.F                    :  Depth in Feet
AHT10.OHMM                 :  Edited resistivity HILTB-1-2 (AHT10)
AHT20.OHMM                 :  Edited resistivity HILTB-1-2 (AHT20)
AHT30.OHMM                 :  Edited resistivity HILTB-1-2 (AHT30)
AHT60.OHMM                 :  Edited resistivity HILTB-1-2 (AHT60)
AHT90.OHMM                 :  Edited resistivity HILTB-1-2 (AHT90)
DT4P .US/F                 :  Edited sonic  DSST-1 (DT4P)
DT4S .US/F                 :  Edited sonic  DSST-1 (DT4S)
DTCO .US/F                 :  Edited sonic  DSST-1 (DTCO)
DTSM .US/F                 :  Edited sonic  DSST-1 (DTSM)
GR   .GAPI                 :  Edited gamma ray DSST-1 (GR)
HCAL .IN                   :  Edited caliper HILTB-1-2 (HCAL)
HCGR .GAPI                 :  Edited computed gamma ray HILTB-1-2 (HCGR)
HDRA .G/C3                 :  Edited density correction HILTB-1-2 (HDRA)
HSGR .GAPI                 :  Merged gamma ray HILTB-1-1 & HILTB-1-2 (HSGR)
NPHI .V/V                  :  Edited neutron HILTB-1-2 (NPHI)
PEFZ .B/E                  :  Edited photoelectric effect HILTB-1-2 (PEFZ)
RHOZ .G/C3                 :  Edited density HILTB-1-2 (RHOZ)
~Parameter Information Block
#MNEM.UNIT            Value   Description
#---------- ----------------  -----------
SET  .            COMP_WIRE:  
PROJ .             82ND_I_1:  
API  .                     :  
DATU .                  MSL:  
DMF  .                 D.F.:  Drilling Measured From
TDD  .F                5393:  
EDF  .F                  82:  
EKB  .F                  82:  Elevation_Kelly_Bushing
EPD  .F                  82:  
FN   .          EXPLORATION:  
LATI .     59 35' 03.0282 N:  
LCC  .          API 440 SCH:  
LONG .     01 08' 08.9472 E:  
LMF  .                 R.T.:  
ORDU .                 FEET:  
RANG .                     :  Range
RIG  .     BORGSTEN DOLPHIN:  
SECT .                     :  Section
SURF .F                -343:  
~Other Information Block
~A        DEPTH          AHT10          AHT20          AHT30          AHT60          AHT90           DT4P           DT4S           DTCO           DTSM             GR           HCAL           HCGR           HDRA           HSGR           NPHI           PEFZ           RHOZ 
# ...
      5339.5000      1353.5790      1315.5110      1127.4680      1123.4990      1093.1100      -999.2500      -999.2500      -999.2500      -999.2500      -999.2500        12.3320      -999.2500        -0.0010      -999.2500         0.0630         3.4810         2.7560 
      5340.0000      1225.0229      1155.0330      1103.9120      1119.4550      1114.3190      -999.2500      -999.2500      -999.2500      -999.2500      -999.2500        12.2840      -999.2500         0.0020      -999.2500         0.0730         3.4250         2.7510 
      5340.5000      1229.4470      1149.4500      1144.7700      1157.4189      1154.4800      -999.2500      -999.2500      -999.2500      -999.2500      -999.2500        12.2740      -999.2500         0.0040      -999.2500         0.0820         3.2990         2.7360 
      5341.0000      1162.0760      1115.2750      1154.9110      1144.2010      1168.0031      -999.2500      -999.2500      -999.2500      -999.2500      -999.2500        12.2750      -999.2500         0.0070      -999.2500         0.0890         3.1650         2.7290 
      5341.5000      1112.8240      1075.1940      1120.8650      1053.2740      1107.9830      -999.2500      -999.2500      -999.2500      -999.2500      -999.2500        12.2750      -999.2500         0.0160      -999.2500         0.0960         3.1080         2.7210 
      5342.0000      1062.4890      1035.6100      1061.2550      1063.8330      1049.4850      -999.2500      -999.2500      -999.2500      -999.2500      -999.2500        12.2750      -999.2500         0.0210      -999.2500         0.1030         3.0670         2.7150 
      5342.5000      1008.1860      1003.6010      1039.4260      1033.1000      1029.8210      -999.2500      -999.2500      -999.2500      -999.2500      -999.2500        12.2740      -999.2500         0.0260      -999.2500         0.1080         3.1290         2.7060 
      5343.0000       989.0780      1001.2760      1057.4290      1042.1620      1027.7250      -999.2500      -999.2500      -999.2500      -999.2500      -999.2500        12.2760      -999.2500         0.0270      -999.2500         0.1110         3.2290         2.7090 
      5343.5000      1000.8540      1013.9530      1094.7180      1087.4110      1050.8110      -999.2500      -999.2500      -999.2500      -999.2500      -999.2500        12.1860      -999.2500         0.0290      -999.2500         0.1130         3.3600         2.7210 
      5344.0000      1007.4070      1051.8300      1140.1780      1132.7061      1044.4800      -999.2500      -999.2500      -999.2500      -999.2500      -999.2500        12.2060      -999.2500         0.0230      -999.2500         0.1170         3.4860         2.7500 
      5344.5000      1021.8290      1063.5840      1175.6760      1179.0980      1157.8250      -999.2500      -999.2500      -999.2500      -999.2500      -999.2500        12.2500      -999.2500         0.0160      -999.2500         0.1010         3.6130         2.7670 
      5345.0000      1029.6200      1075.5320      1195.9890      1193.9930      1187.1420      -999.2500      -999.2500      -999.2500      -999.2500      -999.2500        12.2350      -999.2500         0.0030      -999.2500         0.0950         3.6270         2.7700 
      5345.5000      1042.1600      1088.5580      1204.1390      1195.1541      1227.3560      -999.2500      -999.2500      -999.2500      -999.2500      -999.2500        12.2210      -999.2500        -0.0090      -999.2500         0.0920         3.5600         2.7600 
      5346.0000      1051.3330      1132.7930      1226.1870      1187.5560      1200.6320      -999.2500      -999.2500      -999.2500      -999.2500      -999.2500        12.2070      -999.2500        -0.0080      -999.2500         0.0830         3.5100         2.7560 
      5346.5000      1119.2061      1180.7980      1299.3920      1164.9510      1222.5070      -999.2500      -999.2500      -999.2500      -999.2500      -999.2500        12.1930      -999.2500        -0.0010      -999.2500         0.0800         3.4870         2.7520 
      5347.0000      1177.6370      1223.0840      1348.3550      1066.1021      1240.1790      -999.2500      -999.2500      -999.2500      -999.2500      -999.2500        12.1810      -999.2500         0.0110      -999.2500         0.0860         3.4860         2.7510 
      5347.5000      1188.9110      1214.5179      1404.4550       949.5510      1226.8640      -999.2500      -999.2500      -999.2500      -999.2500      -999.2500        12.1740      -999.2500         0.0200      -999.2500         0.0910         3.5030         2.7430 
      5348.0000      1183.4850      1186.6350      1411.0450       852.1260      1274.5940      -999.2500      -999.2500      -999.2500      -999.2500      -999.2500        12.1740      -999.2500         0.0190      -999.2500         0.0970         3.4730         2.7340 
      5348.5000      1189.1450      1189.2650      1382.4250       780.3230      1320.0090      -999.2500      -999.2500      -999.2500      -999.2500      -999.2500        12.1740      -999.2500         0.0190      -999.2500         0.1020         3.4450         2.7380 
      5349.0000      1143.0680      1199.4091      1321.9771       661.6940      1319.6541      -999.2500      -999.2500      -999.2500      -999.2500      -999.2500        12.1740      -999.2500         0.0190      -999.2500      -999.2500         3.4250         2.7500 
      5349.5000      1139.8380      1128.0389      1244.0830       570.4270      1373.3719      -999.2500      -999.2500      -999.2500      -999.2500      -999.2500        12.1740      -999.2500         0.0200      -999.2500      -999.2500         3.4920         2.7600 
      5350.0000      1134.8571      1063.2120      1211.8280       510.8960      1474.9390      -999.2500      -999.2500      -999.2500      -999.2500      -999.2500        12.1740      -999.2500         0.0310      -999.2500      -999.2500         3.5530         2.7590 
      5350.5000      1089.5610       998.7360      1154.4100       471.0020      1576.6600      -999.2500      -999.2500      -999.2500      -999.2500      -999.2500        12.1740      -999.2500         0.0400      -999.2500      -999.2500         3.6070         2.7440 
      5351.0000      1045.1639       933.8250      1050.8440       463.1160      1678.3240      -999.2500      -999.2500      -999.2500      -999.2500      -999.2500        12.1610      -999.2500         0.0500      -999.2500      -999.2500         3.5830         2.7360 
      5351.5000      1030.1090       910.7600       912.8940       471.6360      1777.7570      -999.2500      -999.2500      -999.2500      -999.2500      -999.2500        12.1220      -999.2500         0.0630      -999.2500      -999.2500         3.4550         2.7520 
      5352.0000      1102.8770      1037.7209       788.3640       466.5720      1859.3370      -999.2500      -999.2500      -999.2500      -999.2500      -999.2500        12.1850      -999.2500         0.0730      -999.2500      -999.2500         3.4470         2.7790 
      5352.5000      1370.4750      1156.2340       657.5330       439.2550      1940.4380      -999.2500      -999.2500      -999.2500      -999.2500      -999.2500        12.1850      -999.2500         0.0640      -999.2500      -999.2500         3.4640         2.7950 
      5353.0000      1636.4080      1182.8040       526.9130       418.5230      1984.1479      -999.2500      -999.2500      -999.2500      -999.2500      -999.2500        12.1700      -999.2500         0.0520      -999.2500      -999.2500         3.4860         2.8010 
      5353.5000      1876.9500      1105.2510       396.3290       403.1930      1989.4410      -999.2500      -999.2500      -999.2500      -999.2500      -999.2500        12.1550      -999.2500         0.0570      -999.2500      -999.2500         3.5080         2.8050 
      5354.0000      2001.0000      1023.1210       281.1720       415.7450      1999.8040      -999.2500      -999.2500      -999.2500      -999.2500      -999.2500        12.1710      -999.2500         0.0660      -999.2500      -999.2500         3.5290         2.7970 
