~Version Information Block
VERS .                 2.00:  CWLS LOG ASCII STANDARD - VERSION 2.00
WRAP .                  YES:  Multiple lines per depth step
~Well Information Block
#MNEM.UNIT        Data Type   Information
#---------- ----------------  -----------
STRT .F                 294:  START DEPTH
STOP .F              5041.5:  STOP DEPTH
STEP .F                 0.5:  STEP
NULL .              -999.25:  NULL VALUE
COMP .     TEXACO NORTH SEA LTD.:  COMPANY
WELL .              9/11A-9:  WELL
FLD  .              MARINER:  FIELD
LOC  .       X=390680.74mE Y=6606678.22mN:  LOCATION
PROV .                 UKCS:  PROVINCE
SRVC .         SCHLUMBERGER:  SERVICE COMPANY
DATE .     09-01-97 TO 27-01-97:  LOG DATE
UWI  .                25043:  UNIQUE WELL ID
~Curve Information Block
#MNEM.UNIT         API CODE   Curve Description
#---------- ----------------  -----------------
DEPTH.F                    :  Depth in Feet
AHT10.OHMM                 :  Edited AIT-H 10 Inch Investigation (AHT10)
AHT20.OHMM                 :  Edited AIT-H 20 Inch Investigation (AHT20)
AHT30.OHMM                 :  Edited AIT-H 30 Inch Investigation (AHT30)
AHT60.OHMM                 :  Edited AIT-H 60 Inch Investigation (AHT60)
AHT90.OHMM                 :  Edited AIT-H 90 Inch Investigation (AHT90)
CGR  .GAPI                 :  Edited Computed Gamma Ray from NGT
DT   .US/FT                 :  Merged Delta-T from SDT
GR   .GAPI                 :  Merged HILTB Gamma Ray
GRS  .GAPI                 :  Merged Gamma Ray from SDT
HCAL .IN                   :  Edited HILTB Caliper
HDRA .G/C3                 :  Edited Density Correction
NPHI .V/V                  :  Edited Neutron Porosity
PEFZ .B/E                  :  Edited Photo-electric
POTA .                     :  Edited Potassium from NGT
RHOZ .G/C3                 :  Edited Bulk Density Caliper
RXOZ .OHMM                 :  Edited Std. Res. Invaded Zone Resistivity
SGR  .GAPI                 :  Edited Spectral Gamma Ray from NGT
THOR .PPM                  :  Edited Thorium from NGT
URAN .PPM                  :  Edited Uranium from NGT
~Parameter Information Block
#MNEM.UNIT            Value   Description
#---------- ----------------  -----------
SET  .            COMP_WIRE:  
PROJ .             88TH_I_1:  
DATU .                  MSL:  
DMF  .          Drill Floor:  Drilling Measured From
TDD  .F                5055:  
EDF  .F                  82:  Elevation of Derrick Floor
EKB  .F                  82:  
EPD  .F                   0:  Elevation Of Perm. Datum
LATI .     59DEG 34' 57.497 N:  
LCC  .                  440:  Logging Company Code
LONG .     01DEG 03' 51.604:  
LMF  .          DRILL FLOOR:  
ORDU .                 FEET:  
PDAT .                  MSL:  
RIG_NAME.     BORGSTEN DOLPHIN:  
SURF .F                -355:  
~Other Information Block
~Ascii Log Data
# ...
      4020.0000 
        1.6490         1.3970         1.5600         1.7810         0.9760 
       43.0930       133.9104        45.6510        46.9220        10.9360 
        0.0802         0.4800         4.5554         0.0140         1.7932 
        0.4310        49.5460         6.3330         0.7820 
      4020.5000 
        1.8410         1.5600         2.0140         2.2130         1.1310 
       43.1460       144.3627        48.0870        47.2227        11.9070 
        0.1171         0.4626         4.0921         0.0130         1.8751 
        0.5860        48.8020         6.3330         0.7410 
      4021.0000 
        1.9460         1.8930         2.3600         2.3380         1.2170 
       43.2000       144.7620        50.0140        47.5235        11.1490 
        0.1133         0.4491         3.8362         0.0130         1.9320 
        0.8120        48.5820         6.3330         0.7410 
      4021.5000 
        1.5040         1.8240         1.9460         1.8930         1.1110 
       43.7880       143.2646        50.7120        48.9487        10.5400 
        0.1091         0.4356         4.1105         0.0130         1.9350 
        0.7010        49.2010         6.4130         0.7410 
      4022.0000 
        1.4630         1.5750         1.6950         1.6800         1.1110 
       44.8580       139.4010        48.1350        49.9295        11.4870 
        0.1171         0.4612         4.2557         0.0140         1.9150 
        0.6700        50.3800         6.6530         0.7410 
      4022.5000 
        1.8080         1.7580         1.8930         1.9820         1.2170 
       45.6520       135.3080        46.7410        49.9295        12.2580 
        0.1281         0.4620         4.6354         0.0150         1.9480 
        0.7140        51.1490         6.8140         0.7410 
      4023.0000 
        1.7110         1.6490         2.0000         2.0750         1.1110 
       45.7880       128.5196        46.0100        48.1167        10.6060 
        0.1301         0.4760         4.5954         0.0150         1.9741 
        0.7830        52.4610         6.9740         0.7410 
      4023.5000 
        1.4230         1.3590         1.6640         1.4900         0.9950 
       48.2250       129.3182        46.6980        46.3199         9.1330 
        0.1131         0.4914         4.2563         0.0150         1.9880 
        0.7620        53.9730         7.0540         0.7410 
      4024.0000 
        1.3350         1.5320         1.4500         1.4370         1.1110 
       48.8650       130.2167        48.6810        50.5307        11.1690 
        0.0956         0.4914         4.0959         0.0150         1.9770 
        0.8350        54.1900         7.0540         0.7410 
      4024.5000 
        1.3100         1.7910         1.6340         1.5750         1.3590 
       48.8900       131.7141        52.4850        49.2098        13.8010 
        0.0852         0.4914         4.0959         0.0150         1.9650 
        0.8510        54.6980         7.0540         0.7410 
      4025.0000 
        1.5040         1.9460         1.8240         1.8410         1.3850 
       48.4920       133.5111        54.1310        47.5227         8.6260 
        0.0752         0.5115         4.0160         0.0150         1.9690 
        0.8350        54.8410         6.9740         0.7410 
      4025.5000 
        1.6040         1.6490         1.8410         1.7750         1.2170 
       47.6360       134.2099        54.2640        49.2868         8.8210 
        0.0832         0.5285         3.8480         0.0150         2.0209 
        1.0130        54.7360         6.8940         0.7410 
      4026.0000 
        1.4100         1.4770         1.6340         1.6640         1.1740 
       46.9860       134.2099        54.1900        51.0508         7.7930 
        0.0942         0.5147         3.7163         0.0150         2.0619 
        1.2060        53.3570         6.8140         0.8220 
      4026.5000 
        1.3350         1.4520         1.4370         1.5600         1.1310 
       47.0280       134.6092        53.1650        51.7334         8.9640 
        0.1061         0.4602         3.7762         0.0150         2.0429 
        0.9760        53.8860         6.7330         0.8220 
      4027.0000 
        1.3220         1.4370         1.5180         1.4230         1.1520 
       47.3480       135.4079        52.1940        51.1318         9.9910 
        0.1068         0.4602         4.4156         0.0160         1.9730 
        0.7830        54.5710         6.7330         0.8220 
      4027.5000 
        1.3970         1.5320         1.4370         1.3850         1.1950 
       47.7190       136.4062        51.4970        50.3921        10.3010 
        0.1071         0.4776         4.6381         0.0160         1.9680 
        0.7210        54.9720         6.8140         0.7820 
      4028.0000 
        1.3590         1.4770         1.3350         1.4370         1.2750 
       48.1940       136.6058        51.2730        49.3269        12.0310 
        0.1231         0.5009         4.9550         0.0160         1.9810 
        0.7980        55.1180         6.8940         0.7820 
      4028.5000 
        1.3470         1.5890         1.4770         1.4900         1.2750 
       48.2700       136.3063        51.2900        50.4749        11.6940 
        0.1221         0.5033         4.7038         0.0160         1.9857 
        0.8050        54.8010         6.8940         0.7820 
      4029.0000 
        1.5080         1.5320         1.4370         1.6490         1.2400 
       48.2000       135.6075        51.3470        51.6228        12.2050 
        0.1211         0.4914         4.4526         0.0160         1.9900 
        0.7410        55.0120         6.8140         0.8220 
      4029.5000 
        1.8130         1.8750         1.6340         2.0450         1.5460 
       48.7120       134.7091        52.4810        52.7708        13.8950 
        0.1149         0.4836         4.3157         0.0160         2.0279 
        0.8740        55.6310         6.6530         0.8620 
      4030.0000 
        2.0750         2.2540         2.2330         2.2750         1.6190 
       48.8590       132.7125        54.8420        53.9188        12.7790 
        0.1101         0.4740         3.7762         0.0160         2.0493 
        1.0900        56.9900         6.6530         0.9420 
      4030.5000 
        1.7260         1.6640         1.5890         1.9220         1.6190 
       49.0340       131.9139        57.7950        55.0668        11.7480 
        0.0944         0.4812         3.8267         0.0170         2.0549 
        1.1740        57.8890         6.6530         1.0620 
      4031.0000 
        1.6040         1.5890         1.4770         1.6340         1.4500 
       49.5790       132.0137        59.6650        57.1465        10.7080 
        0.0802         0.4812         3.8771         0.0170         2.0451 
        1.1310        58.7360         6.6530         1.0620 
      4031.5000 
        1.7260         2.0180         2.0720         2.0750         1.6490 
       50.0750       132.7125        59.2570        59.2519         9.2200 
        0.0502         0.4531         3.9361         0.0170         2.0419 
        1.2290        58.9950         6.6530         1.0620 
      4032.0000 
        2.4020         2.7340         2.8140         2.6850         2.5630 
       50.3000       133.1118        57.2250        60.4828         9.3320 
        0.0152         0.4251         3.9161         0.0170         2.0539 
        1.3130        59.4410         6.5730         1.0620 
      4032.5000 
        2.9150         3.4720         3.5560         3.5360         3.1090 
       49.9730       131.5146        53.8750        62.2592         8.4640 
       -0.0007         0.3937         3.6164         0.0170         2.1063 
        1.5020        59.1980         6.4930         1.0620 
      4033.0000 
        3.1380         4.2890         3.9850         4.2890         3.7370 
       48.5280       128.5198        51.7490        61.3569         8.8840 
        0.0082         0.3541         2.9371         0.0170         2.1868 
        1.9030        59.8670         6.1720         0.9420 
