~Version Information Block
VERS .                 2.00:  CWLS LOG ASCII STANDARD - VERSION 2.00
WRAP .                  YES:  Multiple lines per depth step
~Well Information Block
#MNEM.UNIT        Data Type   Information
#---------- ----------------  -----------
STRT .F                 294:  START DEPTH
STOP .F              5041.5:  STOP DEPTH
STEP .F                 0.5:  STEP
NULL .              -999.25:  NULL VALUE
COMP .     TEXACO NORTH SEA LTD.:  COMPANY
WELL .              9/11A-9:  WELL
FLD  .              MARINER:  FIELD
LOC  .       X=390680.74mE Y=6606678.22mN:  LOCATION
PROV .                 UKCS:  PROVINCE
SRVC .         SCHLUMBERGER:  SERVICE COMPANY
DATE .     09-01-97 TO 27-01-97:  LOG DATE
UWI  .                25043:  UNIQUE WELL ID
~Curve Information Block
#MNEM.UNIT         API CODE   Curve Description
#---------- ----------------  -----------------
DEPTH.F                    :  Depth in Feet
AHT10.OHMM                 :  Edited AIT-H 10 Inch Investigation (AHT10)
AHT20.OHMM                 :  Edited AIT-H 20 Inch Investigation (AHT20)
AHT30.OHMM                 :  Edited AIT-H 30 Inch Investigation (AHT30)
AHT60.OHMM                 :  Edited AIT-H 60 Inch Investigation (AHT60)
AHT90.OHMM                 :  Edited AIT-H 90 Inch Investigation (AHT90)
CGR  .GAPI                 :  Edited Computed Gamma Ray from NGT
DT   .US/FT                 :  Merged Delta-T from SDT
GR   .GAPI                 :  Merged HILTB Gamma Ray
GRS  .GAPI                 :  Merged Gamma Ray from SDT
HCAL .IN                   :  Edited HILTB Caliper
HDRA .G/C3                 :  Edited Density Correction
NPHI .V/V                  :  Edited Neutron Porosity
PEFZ .B/E                  :  Edited Photo-electric
POTA .                     :  Edited Potassium from NGT
RHOZ .G/C3                 :  Edited Bulk Density Caliper
RXOZ .OHMM                 :  Edited Std. Res. Invaded Zone Resistivity
SGR  .GAPI                 :  Edited Spectral Gamma Ray from NGT
THOR .PPM                  :  Edited Thorium from NGT
URAN .PPM                  :  Edited Uranium from NGT
~Parameter Information Block
#MNEM.UNIT            Value   Description
#---------- ----------------  -----------
SET  .            COMP_WIRE:  
PROJ .             88TH_I_1:  
DATU .                  MSL:  
DMF  .          Drill Floor:  Drilling Measured From
TDD  .F                5055:  
EDF  .F                  82:  Elevation of Derrick Floor
EKB  .F                  82:  
EPD  .F                   0:  Elevation Of Perm. Datum
LATI .     59DEG 34' 57.497 N:  
LCC  .                  440:  Logging Company Code
LONG .     01DEG 03' 51.604:  
LMF  .          DRILL FLOOR:  
ORDU .                 FEET:  
PDAT .                  MSL:  
RIG_NAME.     BORGSTEN DOLPHIN:  
SURF .F                -355:  
~Other Information Block
~Ascii Log Data
# ...
      3682.5000 
        0.7980         0.7550         0.7900         0.7010         0.6220 
       24.1560       127.3144        23.6780        22.8853         8.6990 
       -0.0279         0.2910         1.1153         0.0120         2.0987 
        1.3100        28.9710         1.9240         0.3010 
      3683.0000 
        0.7980         0.7550         0.7760         0.6950         0.6270 
       24.6180       127.0148        24.8050        24.6920         8.6960 
       -0.0289         0.2947         1.0802         0.0120         2.0930 
        1.3100        29.4760         2.1640         0.4210 
      3683.5000 
        0.7980         0.7550         0.7760         0.6890         0.6300 
       23.4070       126.4155        25.3710        24.9930         8.6930 
       -0.0224         0.2984         1.2802         0.0110         2.0913 
        1.2870        27.3720         2.2440         0.5010 
      3684.0000 
        0.7980         0.7550         0.7620         0.6820         0.6340 
       22.1000       126.5154        24.2910        24.9930         8.6900 
       -0.0128         0.3102         1.4803         0.0100         2.0890 
        1.2750        26.2090         2.2440         0.4610 
      3684.5000 
        0.7760         0.7410         0.7480         0.6820         0.6320 
       20.7620       126.7152        21.5630        24.9930         8.6870 
       -0.0141         0.3079         1.7404         0.0090         2.0875 
        1.2520        23.9950         2.1640         0.4210 
      3685.0000 
        0.7690         0.7340         0.7280         0.6820         0.6300 
       20.7000       127.0148        21.0770        24.6918         8.6840 
       -0.0154         0.3060         1.6804         0.0090         2.0860 
        1.2170        23.6420         2.1640         0.3810 
      3685.5000 
        0.7690         0.7340         0.7210         0.6820         0.6280 
       21.6120       127.0148        21.8150        22.5839         8.6810 
       -0.0168         0.2988         1.6604         0.0090         2.0845 
        1.2170        22.8080         2.0840         0.3810 
      3686.0000 
        0.7760         0.7340         0.7340         0.7010         0.6220 
       21.9950       127.1147        21.7440        21.0783         8.6780 
       -0.0155         0.3036         1.4608         0.0100         2.0830 
        1.2410        21.4050         2.0840         0.3810 
      3686.5000 
        0.7830         0.7340         0.7410         0.7080         0.6220 
       21.4370       127.1147        22.0050        19.5727         8.6750 
       -0.0142         0.3078         1.3004         0.0100         2.0820 
        1.2450        23.2630         2.0840         0.4610 
      3687.0000 
        0.7830         0.7480         0.7410         0.7210         0.6280 
       21.2800       126.9150        22.3670        19.2715         8.6720 
       -0.0129         0.3047         1.2331         0.0100         2.0840 
        1.2500        24.9680         1.5230         0.5010 
      3687.5000 
        0.7900         0.7550         0.7410         0.7210         0.6280 
       20.5710       127.0149        23.1420        20.4759         8.6690 
       -0.0116         0.3059         1.1804         0.0100         2.0869 
        1.2630        24.7790         1.4430         0.5810 
      3688.0000 
        0.8050         0.7620         0.7490         0.7210         0.6340 
       19.9450       127.0149        23.7690        23.1859         8.6660 
       -0.0103         0.3071         1.1804         0.0100         2.0897 
        1.2750        24.3160         1.3630         0.6210 
      3688.5000 
        0.8010         0.7690         0.7480         0.7210         0.6460 
       18.1130       127.0149        24.1240        24.0893         8.6630 
       -0.0087         0.3104         1.2405         0.0100         2.0925 
        1.2870        24.5680         1.3630         0.6610 
      3689.0000 
        0.7900         0.7760         0.7490         0.7210         0.6460 
       16.9770       127.1148        24.4790        24.6915         8.6600 
       -0.0087         0.3107         1.2661         0.0090         2.0941 
        1.2980        24.6070         1.3630         0.6780 
      3689.5000 
        0.7970         0.7620         0.7410         0.7210         0.6460 
       16.2060       127.1148        24.8360        25.2936         8.6570 
       -0.0087         0.3107         1.2917         0.0080         2.0948 
        1.3100        23.2390         1.4430         0.6940 
      3690.0000 
        0.8040         0.7650         0.7410         0.7210         0.6460 
       16.0730       126.7153        25.1950        25.5947         8.6540 
       -0.0076         0.3057         1.3173         0.0080         2.0956 
        1.3100        22.9700         1.5230         0.7010 
      3690.5000 
        0.7980         0.7690         0.7620         0.7210         0.6460 
       16.2920       126.5155        25.4610        26.4980         8.6510 
       -0.0036         0.2993         1.3429         0.0080         2.0951 
        1.2870        24.0140         1.5230         0.7410 
      3691.0000 
        0.8200         0.7830         0.7620         0.7210         0.6470 
       16.6190       126.5155        24.0760        25.5946         8.6480 
       -0.0036         0.2999         1.3607         0.0080         2.0951 
        1.2630        24.4290         1.5230         0.7410 
      3691.5000 
        0.8050         0.7830         0.7480         0.7210         0.6490 
       16.9610       126.6154        21.8420        24.0890         8.6450 
       -0.0101         0.2993         1.3369         0.0090         2.0961 
        1.2870        24.5060         1.4430         0.7820 
      3692.0000 
        0.8120         0.7830         0.7480         0.7200         0.6520 
       17.5560       126.8152        20.8770        23.1856         8.6420 
       -0.0146         0.2885         1.3808         0.0090         2.1003 
        1.3030        23.6870         1.2830         0.8220 
      3692.5000 
        0.8200         0.7830         0.7340         0.7340         0.6540 
       18.0000       126.8152        21.0260        22.5834         8.6410 
       -0.0108         0.2735         1.3718         0.0090         2.1045 
        1.3310        23.5860         1.1220         0.8220 
      3693.0000 
        0.8280         0.7820         0.7280         0.7340         0.6570 
       19.2910       127.0150        22.2120        23.4867         8.6410 
       -0.0070         0.2753         1.4228         0.0100         2.1091 
        1.3350        23.8620         0.9620         0.8220 
      3693.5000 
        0.8280         0.7980         0.7280         0.7340         0.6580 
       18.9580       126.7154        22.9720        24.0888         8.6410 
       -0.0032         0.2789         1.4739         0.0100         2.1055 
        1.3470        24.4540         0.9620         0.7820 
      3694.0000 
        0.8200         0.7980         0.7480         0.7340         0.6400 
       18.2290       126.2159        22.8110        24.0888         8.6410 
        0.0005         0.3083         1.5249         0.0100         2.1018 
        1.3350        24.7730         0.9620         0.7820 
      3694.5000 
        0.8200         0.7980         0.7690         0.7280         0.6520 
       17.0420       125.9163        22.4980        23.7877         8.6410 
       -0.0045         0.3155         1.5812         0.0090         2.0991 
        1.3100        25.1000         1.1220         0.7410 
      3695.0000 
        0.8430         0.7830         0.7690         0.7550         0.6580 
       16.8250       125.5168        22.1890        23.4865         8.6410 
       -0.0045         0.3245         1.5611         0.0080         2.1047 
        1.3350        23.5570         1.2830         0.7410 
      3695.5000 
        0.8430         0.7830         0.7550         0.7520         0.6550 
       17.0660       125.0174        21.8650        23.1854         8.6410 
       -0.0154         0.3155         1.4646         0.0080         2.1102 
        1.3850        22.4020         1.5230         0.7410 
