~Version Information Block
VERS .                 2.00:  CWLS LOG ASCII STANDARD - VERSION 2.00
WRAP .                  YES:  Multiple lines per depth step
~Well Information Block
#MNEM.UNIT        Data Type   Information
#---------- ----------------  -----------
STRT .F                 294:  START DEPTH
STOP .F              5041.5:  STOP DEPTH
STEP .F                 0.5:  STEP
NULL .              -999.25:  NULL VALUE
COMP .     TEXACO NORTH SEA LTD.:  COMPANY
WELL .              9/11A-9:  WELL
FLD  .              MARINER:  FIELD
LOC  .       X=390680.74mE Y=6606678.22mN:  LOCATION
PROV .                 UKCS:  PROVINCE
SRVC .         SCHLUMBERGER:  SERVICE COMPANY
DATE .     09-01-97 TO 27-01-97:  LOG DATE
UWI  .                25043:  UNIQUE WELL ID
~Curve Information Block
#MNEM.UNIT         API CODE   Curve Description
#---------- ----------------  -----------------
DEPTH.F                    :  Depth in Feet
AHT10.OHMM                 :  Edited AIT-H 10 Inch Investigation (AHT10)
AHT20.OHMM                 :  Edited AIT-H 20 Inch Investigation (AHT20)
AHT30.OHMM                 :  Edited AIT-H 30 Inch Investigation (AHT30)
AHT60.OHMM                 :  Edited AIT-H 60 Inch Investigation (AHT60)
AHT90.OHMM                 :  Edited AIT-H 90 Inch Investigation (AHT90)
CGR  .GAPI                 :  Edited Computed Gamma Ray from NGT
DT   .US/FT                 :  Merged Delta-T from SDT
GR   .GAPI                 :  Merged HILTB Gamma Ray
GRS  .GAPI                 :  Merged Gamma Ray from SDT
HCAL .IN                   :  Edited HILTB Caliper
HDRA .G/C3                 :  Edited Density Correction
NPHI .V/V                  :  Edited Neutron Porosity
PEFZ .B/E                  :  Edited Photo-electric
POTA .                     :  Edited Potassium from NGT
RHOZ .G/C3                 :  Edited Bulk Density Caliper
RXOZ .OHMM                 :  Edited Std. Res. Invaded Zone Resistivity
SGR  .GAPI                 :  Edited Spectral Gamma Ray from NGT
THOR .PPM                  :  Edited Thorium from NGT
URAN .PPM                  :  Edited Uranium from NGT
~Parameter Information Block
#MNEM.UNIT            Value   Description
#---------- ----------------  -----------
SET  .            COMP_WIRE:  
PROJ .             88TH_I_1:  
DATU .                  MSL:  
DMF  .          Drill Floor:  Drilling Measured From
TDD  .F                5055:  
EDF  .F                  82:  Elevation of Derrick Floor
EKB  .F                  82:  
EPD  .F                   0:  Elevation Of Perm. Datum
LATI .     59DEG 34' 57.497 N:  
LCC  .                  440:  Logging Company Code
LONG .     01DEG 03' 51.604:  
LMF  .          DRILL FLOOR:  
ORDU .                 FEET:  
PDAT .                  MSL:  
RIG_NAME.     BORGSTEN DOLPHIN:  
SURF .F                -355:  
~Other Information Block
~Ascii Log Data
# ...
      4843.5000 
        0.7200         0.6580         0.6330         0.6390         0.5730 
       36.1330       110.5601        43.2250        38.6404         8.6610 
       -0.0155         0.2931         1.3917         0.0180         2.0996 
        1.3270        45.1480         2.6450         0.9420 
      4844.0000 
        0.7210         0.6700         0.6400         0.6320         0.5740 
       37.2850       110.6604        43.9100        38.2536         8.6500 
       -0.0165         0.3051         1.3723         0.0180         2.1016 
        1.3470        45.1470         2.4850         0.9420 
      4844.5000 
        0.7210         0.6700         0.6370         0.6280         0.5750 
       37.7620       110.6605        44.5040        38.1200         8.6350 
       -0.0224         0.3116         1.3922         0.0180         2.0996 
        1.3220        45.2660         2.5650         0.9020 
      4845.0000 
        0.7210         0.6760         0.6350         0.6280         0.5770 
       37.9230       110.9609        44.9420        38.2921         8.6200 
       -0.0305         0.3261         1.4120         0.0190         2.0976 
        1.3100        45.2390         2.5650         0.8620 
      4845.5000 
        0.7210         0.6700         0.6330         0.6280         0.5780 
       38.2580       110.9612        45.0390        38.4642         8.6050 
       -0.0305         0.3231         1.3519         0.0190         2.0956 
        1.3220        45.1980         2.5650         0.7820 
      4846.0000 
        0.7210         0.6580         0.6310         0.6280         0.5890 
       38.4050       111.0613        44.6860        39.6210         8.5900 
       -0.0282         0.3156         1.2918         0.0190         2.0994 
        1.3720        44.6350         2.5650         0.6210 
      4846.5000 
        0.7200         0.6640         0.6280         0.6300         0.5840 
       38.5930       111.4617        43.2640        38.1131         8.5750 
       -0.0246         0.3081         1.2717         0.0180         2.1026 
        1.3590        44.3290         2.6450         0.4210 
      4847.0000 
        0.7280         0.6700         0.6340         0.6340         0.5840 
       38.2300       111.8618        42.1740        37.4947         8.5600 
       -0.0186         0.3021         1.2716         0.0180         2.1086 
        1.3590        45.1750         2.7250         0.3810 
      4847.5000 
        0.7280         0.6760         0.6280         0.6300         0.5780 
       37.8430       112.3620        42.6410        36.9052         8.5450 
       -0.0206         0.2925         1.3566         0.0180         2.1145 
        1.3720        45.7570         2.8060         0.5810 
      4848.0000 
        0.7280         0.6640         0.6220         0.6230         0.5680 
       37.8910       112.2623        43.8890        37.2752         8.5400 
       -0.0166         0.2955         1.3712         0.0180         2.1145 
        1.3850        45.7990         2.8860         0.8620 
      4848.5000 
        0.7280         0.6520         0.6110         0.6150         0.5680 
       38.7850       111.9629        43.7330        37.6453         8.5400 
       -0.0166         0.3105         1.3711         0.0170         2.1145 
        1.3720        47.1910         2.9660         1.0620 
      4849.0000 
        0.7280         0.6460         0.6110         0.6050         0.5680 
       38.8520       111.6634        42.5760        38.0153         8.5400 
       -0.0124         0.3219         1.3709         0.0170         2.1135 
        1.3720        47.5990         3.1260         1.1020 
      4849.5000 
        0.7350         0.6520         0.6170         0.6090         0.5730 
       38.3370       111.3640        42.7700        38.1044         8.5400 
       -0.0077         0.3132         1.3708         0.0170         2.1125 
        1.3590        46.9810         3.3670         1.1420 
      4850.0000 
        0.7340         0.6580         0.6250         0.6150         0.5890 
       36.6690       111.0644        43.6510        38.4038         8.5410 
       -0.0079         0.2925         1.4906         0.0170         2.1125 
        1.3590        45.5960         3.4470         1.1420 
      4850.5000 
        0.7280         0.6640         0.6400         0.6220         0.5940 
       35.3450       110.9647        45.8440        39.3887         8.5430 
       -0.0081         0.2811         1.5106         0.0160         2.1145 
        1.3590        44.6100         3.4470         1.1420 
      4851.0000 
        0.7280         0.6580         0.6460         0.6410         0.5940 
       34.7040       111.0651        46.5570        40.8103         8.5440 
       -0.0082         0.2835         1.6303         0.0160         2.1135 
        1.3720        44.1690         3.4470         1.1420 
      4851.5000 
        0.7140         0.6520         0.6520         0.6580         0.6110 
       34.4430       111.2652        46.3920        42.6164         8.5460 
       -0.0084         0.2883         1.4993         0.0160         2.1161 
        1.4100        45.7230         3.2870         1.1420 
      4852.0000 
        0.7140         0.6460         0.6590         0.6650         0.6110 
       34.2970       111.6656        45.2060        45.3254         8.5480 
       -0.0086         0.2912         1.4101         0.0160         2.1187 
        1.4230        45.7790         3.0460         1.1420 
      4852.5000 
        0.7140         0.6700         0.6660         0.6710         0.6110 
       36.5580       111.7657        45.0000        46.2284         8.5490 
       -0.0088         0.2931         1.3101         0.0160         2.1205 
        1.4230        46.1210         2.8860         1.1420 
      4853.0000 
        0.7140         0.6700         0.6760         0.6760         0.6170 
       39.5890       112.0660        46.6320        47.0789         8.5510 
       -0.0088         0.2998         1.3530         0.0160         2.1178 
        1.4100        46.9440         2.9660         1.1420 
      4853.5000 
        0.7140         0.6820         0.6890         0.6930         0.6340 
       39.4320       112.2663        48.7270        47.4301         8.5530 
       -0.0105         0.3104         1.3897         0.0160         2.1164 
        1.4100        48.2010         3.1260         1.1820 
      4854.0000 
        0.7140         0.6770         0.7210         0.6990         0.6640 
       39.5190       112.6665        49.0470        46.7768         8.5540 
       -0.0128         0.3214         1.3896         0.0170         2.1214 
        1.3720        49.2800         3.4470         1.3030 
      4854.5000 
        0.7280         0.6700         0.7410         0.7250         0.7340 
       39.5540       113.5665        49.4140        46.1235         8.5560 
       -0.0128         0.3214         1.3496         0.0170         2.1324 
        1.3590        50.2690         3.6870         1.3430 
      4855.0000 
        0.7140         0.6820         0.6760         0.7340         0.6820 
       39.4050       114.8664        49.1340        44.7143         8.5580 
       -0.0065         0.3058         1.4408         0.0170         2.1324 
        1.3590        51.6860         4.0080         1.4230 
      4855.5000 
        0.6950         0.6700         0.6340         0.7080         0.6460 
       40.2360       114.3668        47.2790        42.0021         8.5600 
       -0.0002         0.2740         1.5291         0.0170         2.1284 
        1.3470        53.3380         3.9280         1.4230 
      4856.0000 
        0.7140         0.7080         0.6640         0.6820         0.6220 
       40.1220       112.2681        44.5440        32.9640         8.5760 
        0.0061         0.2302         1.7289         0.0170         2.1354 
        1.3590        53.7950         3.9280         1.4230 
      4856.5000 
        0.9070         0.7690         0.7720         0.9060         0.6640 
       37.7770       106.3711        39.3350        25.4319         8.6050 
        0.0121         0.2025         2.2085         0.0170         2.1824 
        1.5360        52.7800         3.7680         1.4230 
