~Version Information Block
VERS .                 2.00:  CWLS LOG ASCII STANDARD - VERSION 2.00
WRAP .                  YES:  Multiple lines per depth step
~Well Information Block
#MNEM.UNIT        Data Type   Information
#---------- ----------------  -----------
STRT .F                 294:  START DEPTH
STOP .F              5041.5:  STOP DEPTH
STEP .F                 0.5:  STEP
NULL .              -999.25:  NULL VALUE
COMP .     TEXACO NORTH SEA LTD.:  COMPANY
WELL .              9/11A-9:  WELL
FLD  .              MARINER:  FIELD
LOC  .       X=390680.74mE Y=6606678.22mN:  LOCATION
PROV .                 UKCS:  PROVINCE
SRVC .         SCHLUMBERGER:  SERVICE COMPANY
DATE .     09-01-97 TO 27-01-97:  LOG DATE
UWI  .                25043:  UNIQUE WELL ID
~Curve Information Block
#MNEM.UNIT         API CODE   Curve Description
#---------- ----------------  -----------------
DEPTH.F                    :  Depth in Feet
AHT10.OHMM                 :  Edited AIT-H 10 Inch Investigation (AHT10)
AHT20.OHMM                 :  Edited AIT-H 20 Inch Investigation (AHT20)
AHT30.OHMM                 :  Edited AIT-H 30 Inch Investigation (AHT30)
AHT60.OHMM                 :  Edited AIT-H 60 Inch Investigation (AHT60)
AHT90.OHMM                 :  Edited AIT-H 90 Inch Investigation (AHT90)
CGR  .GAPI                 :  Edited Computed Gamma Ray from NGT
DT   .US/FT                 :  Merged Delta-T from SDT
GR   .GAPI                 :  Merged HILTB Gamma Ray
GRS  .GAPI                 :  Merged Gamma Ray from SDT
HCAL .IN                   :  Edited HILTB Caliper
HDRA .G/C3                 :  Edited Density Correction
NPHI .V/V                  :  Edited Neutron Porosity
PEFZ .B/E                  :  Edited Photo-electric
POTA .                     :  Edited Potassium from NGT
RHOZ .G/C3                 :  Edited Bulk Density Caliper
RXOZ .OHMM                 :  Edited Std. Res. Invaded Zone Resistivity
SGR  .GAPI                 :  Edited Spectral Gamma Ray from NGT
THOR .PPM                  :  Edited Thorium from NGT
URAN .PPM                  :  Edited Uranium from NGT
~Parameter Information Block
#MNEM.UNIT            Value   Description
#---------- ----------------  -----------
SET  .            COMP_WIRE:  
PROJ .             88TH_I_1:  
DATU .                  MSL:  
DMF  .          Drill Floor:  Drilling Measured From
TDD  .F                5055:  
EDF  .F                  82:  Elevation of Derrick Floor
EKB  .F                  82:  
EPD  .F                   0:  Elevation Of Perm. Datum
LATI .     59DEG 34' 57.497 N:  
LCC  .                  440:  Logging Company Code
LONG .     01DEG 03' 51.604:  
LMF  .          DRILL FLOOR:  
ORDU .                 FEET:  
PDAT .                  MSL:  
RIG_NAME.     BORGSTEN DOLPHIN:  
SURF .F                -355:  
~Other Information Block
~Ascii Log Data
# ...
      3034.5000 
        0.7530         0.7210         0.6820         0.6820         0.6340 
       18.6850       129.8929        17.7980        21.7382         8.3800 
       -0.0108         0.3130         1.3109         0.0110         2.0555 
        1.1730        24.9920         0.5610         0.6210 
      3035.0000 
        0.7410         0.7140         0.6700         0.6820         0.6170 
       17.8160       130.0924        18.1950        22.3418         8.3800 
       -0.0145         0.3130         1.2979         0.0110         2.0585 
        1.1730        24.8110         0.4810         0.6210 
      3035.5000 
        0.7480         0.7080         0.6700         0.6950         0.6170 
       16.8270       130.1921        19.5300        22.6433         8.3800 
       -0.0182         0.3130         1.3101         0.0110         2.0516 
        1.1840        24.4850         0.4010         0.7010 
      3036.0000 
        0.7550         0.7210         0.6760         0.7010         0.6220 
       15.9530       130.0919        21.5700        22.9455         8.3800 
       -0.0202         0.3160         1.3098         0.0100         2.0475 
        1.1850        23.4750         0.2400         0.7010 
      3036.5000 
        0.7620         0.7280         0.7010         0.6890         0.6050 
       15.5830       129.9918        21.5060        22.9464         8.3800 
       -0.0202         0.3160         1.3094         0.0100         2.0494 
        1.1630        22.7680         0.0800         0.6210 
      3037.0000 
        0.7690         0.7210         0.7140         0.6820         0.6170 
       15.2380       129.9916        20.1560        22.3446         8.3790 
       -0.0202         0.2962         1.3090         0.0100         2.0494 
        1.1950        22.4440         0.0800         0.7410 
      3037.5000 
        0.7550         0.7140         0.7080         0.6700         0.6170 
       14.7910       129.5917        19.5840        20.2371         8.3800 
       -0.0233         0.3023         1.3087         0.0090         2.0494 
        1.2170        22.4660         0.3610         0.8020 
      3038.0000 
        0.7410         0.7280         0.6950         0.6640         0.6050 
       14.0050       129.3916        20.2620        18.4305         8.3890 
       -0.0264         0.3119         1.3283         0.0090         2.0454 
        1.1950        22.8050         0.4010         1.0220 
      3038.5000 
        0.7410         0.7210         0.6820         0.6640         0.6050 
       13.8430       129.5912        21.0630        16.9254         8.3990 
       -0.0294         0.3364         1.3282         0.0080         2.0404 
        1.1740        23.7800         0.4010         1.1020 
      3039.0000 
        0.7380         0.7080         0.6700         0.6640         0.6050 
       14.0110       129.8907        21.0450        16.0224         8.4090 
       -0.0313         0.3377         1.2762         0.0080         2.0355 
        1.1630        24.2080         0.4010         1.2630 
      3039.5000 
        0.7340         0.7010         0.6640         0.6640         0.6050 
       14.7600       129.9903        21.1760        16.0230         8.4190 
       -0.0297         0.3251         1.2071         0.0080         2.0104 
        1.1420        24.4440         0.4810         1.3030 
      3040.0000 
        0.7370         0.7080         0.6580         0.6760         0.6050 
       14.8610       130.7893        22.1230        17.5300         8.4290 
       -0.0253         0.3125         1.2069         0.0080         2.0383 
        1.1420        24.6160         0.4810         1.3030 
      3040.5000 
        0.7420         0.7080         0.6520         0.6760         0.6170 
       14.3300       130.8890        21.3000        18.4342         8.4390 
       -0.0253         0.3083         1.2897         0.0080         2.0403 
        1.1740        24.7690         0.4810         1.2630 
      3041.0000 
        0.7470         0.7210         0.6640         0.6760         0.6220 
       14.2320       131.0884        21.0890        20.2424         8.4380 
       -0.0269         0.3132         1.3724         0.0090         2.0403 
        1.1840        24.5110         0.4010         1.1020 
      3041.5000 
        0.7520         0.7280         0.6890         0.6820         0.6170 
       14.7130       130.8884        20.9860        20.8454         8.4360 
       -0.0284         0.3191         1.4653         0.0100         2.0223 
        1.1840        24.0750         0.2400         1.0620 
      3042.0000 
        0.7600         0.7340         0.7010         0.6950         0.6170 
       15.5570       130.1888        21.1090        18.4367         8.4340 
       -0.0304         0.3152         1.4425         0.0100         2.0492 
        1.2060        23.0380         0.1600         0.9820 
      3042.5000 
        0.7710         0.7480         0.7140         0.7140         0.6220 
       15.6540       129.8889        19.6040        18.1361         8.4330 
       -0.0304         0.3113         1.4198         0.0100         2.0202 
        1.2170        22.7200         0.0800         0.8220 
      3043.0000 
        0.7760         0.7550         0.7480         0.7280         0.6280 
       16.0370       129.1893        18.3430        19.0407         8.4310 
       -0.0283         0.3054         1.3970         0.0100         2.0202 
        1.2290        23.3550         0.0800         0.7820 
      3043.5000 
        0.7640         0.7410         0.7280         0.6950         0.6280 
       16.2640       129.0892        18.0760        20.5473         8.4290 
       -0.0262         0.3060         1.3840         0.0110         2.0222 
        1.2520        24.1190         0.0800         0.7410 
      3044.0000 
        0.7550         0.7210         0.7080         0.6700         0.6220 
       16.9220       129.1889        17.9340        21.7527         8.4270 
       -0.0240         0.3066         1.5432         0.0110         2.0262 
        1.2290        25.0520         0.1600         0.7410 
      3044.5000 
        0.7550         0.7210         0.6890         0.6640         0.6220 
       17.3270       129.5882        18.2340        21.7537         8.4250 
       -0.0219         0.3176         1.5430         0.0110         2.0271 
        1.2290        25.0920         0.3210         0.7820 
      3045.0000 
        0.7550         0.7280         0.6760         0.6760         0.6170 
       17.2690       129.5880        18.6160        21.7540         8.4240 
       -0.0198         0.3286         1.4828         0.0110         2.0239 
        1.2170        25.0830         0.3210         0.8220 
      3045.5000 
        0.7550         0.7280         0.6700         0.6760         0.6110 
       17.2870       129.4878        20.7950        20.2489         8.4220 
       -0.0185         0.3354         1.4021         0.0110         2.0207 
        1.2060        25.3910         0.3210         0.8220 
      3046.0000 
        0.7550         0.7240         0.6890         0.6760         0.6170 
       17.2860       129.4876        22.0020        19.3462         8.4200 
       -0.0256         0.3354         1.3670         0.0110         2.0161 
        1.2060        25.9700         0.2400         0.8620 
      3046.5000 
        0.7550         0.7210         0.6890         0.6890         0.6220 
       17.2770       129.8869        22.1130        18.4435         8.4180 
       -0.0306         0.3180         1.3320         0.0110         2.0151 
        1.2170        26.6350         0.1600         0.8620 
      3047.0000 
        0.7550         0.7210         0.6760         0.6950         0.6220 
       17.3420       129.9866        20.0340        18.4438         8.4160 
       -0.0256         0.3079         1.2969         0.0110         2.0141 
        1.2290        25.9040         0.3210         0.8620 
      3047.5000 
        0.7550         0.7210         0.6700         0.7010         0.6110 
       17.6310       129.9864        19.1420        19.0478         8.4150 
       -0.0196         0.3097         1.2619         0.0110         2.0120 
        1.2520        25.6830         0.4810         0.8620 
