~Version Information Block
VERS .                 2.00:  CWLS LOG ASCII STANDARD - VERSION 2.00
WRAP .                  YES:  Multiple lines per depth step
~Well Information Block
#MNEM.UNIT        Data Type   Information
#---------- ----------------  -----------
STRT .F                 294:  START DEPTH
STOP .F              5041.5:  STOP DEPTH
STEP .F                 0.5:  STEP
NULL .              -999.25:  NULL VALUE
COMP .     TEXACO NORTH SEA LTD.:  COMPANY
WELL .              9/11A-9:  WELL
FLD  .              MARINER:  FIELD
LOC  .       X=390680.74mE Y=6606678.22mN:  LOCATION
PROV .                 UKCS:  PROVINCE
SRVC .         SCHLUMBERGER:  SERVICE COMPANY
DATE .     09-01-97 TO 27-01-97:  LOG DATE
UWI  .                25043:  UNIQUE WELL ID
~Curve Information Block
#MNEM.UNIT         API CODE   Curve Description
#---------- ----------------  -----------------
DEPTH.F                    :  Depth in Feet
AHT10.OHMM                 :  Edited AIT-H 10 Inch Investigation (AHT10)
AHT20.OHMM                 :  Edited AIT-H 20 Inch Investigation (AHT20)
AHT30.OHMM                 :  Edited AIT-H 30 Inch Investigation (AHT30)
AHT60.OHMM                 :  Edited AIT-H 60 Inch Investigation (AHT60)
AHT90.OHMM                 :  Edited AIT-H 90 Inch Investigation (AHT90)
CGR  .GAPI                 :  Edited Computed Gamma Ray from NGT
DT   .US/FT                 :  Merged Delta-T from SDT
GR   .GAPI                 :  Merged HILTB Gamma Ray
GRS  .GAPI                 :  Merged Gamma Ray from SDT
HCAL .IN                   :  Edited HILTB Caliper
HDRA .G/C3                 :  Edited Density Correction
NPHI .V/V                  :  Edited Neutron Porosity
PEFZ .B/E                  :  Edited Photo-electric
POTA .                     :  Edited Potassium from NGT
RHOZ .G/C3                 :  Edited Bulk Density Caliper
RXOZ .OHMM                 :  Edited Std. Res. Invaded Zone Resistivity
SGR  .GAPI                 :  Edited Spectral Gamma Ray from NGT
THOR .PPM                  :  Edited Thorium from NGT
URAN .PPM                  :  Edited Uranium from NGT
~Parameter Information Block
#MNEM.UNIT            Value   Description
#---------- ----------------  -----------
SET  .            COMP_WIRE:  
PROJ .             88TH_I_1:  
DATU .                  MSL:  
DMF  .          Drill Floor:  Drilling Measured From
TDD  .F                5055:  
EDF  .F                  82:  Elevation of Derrick Floor
EKB  .F                  82:  
EPD  .F                   0:  Elevation Of Perm. Datum
LATI .     59DEG 34' 57.497 N:  
LCC  .                  440:  Logging Company Code
LONG .     01DEG 03' 51.604:  
LMF  .          DRILL FLOOR:  
ORDU .                 FEET:  
PDAT .                  MSL:  
RIG_NAME.     BORGSTEN DOLPHIN:  
SURF .F                -355:  
~Other Information Block
~Ascii Log Data
# ...
      2535.0000 
     -999.2500      -999.2500      -999.2500      -999.2500      -999.2500 
     -999.2500       104.0719        15.2370        14.7558        18.5040 
     -999.2500         0.5350      -999.2500      -999.2500      -999.2500 
     -999.2500      -999.2500      -999.2500      -999.2500 
      2535.5000 
     -999.2500      -999.2500      -999.2500      -999.2500      -999.2500 
     -999.2500       114.2515        15.3090        15.3570        21.3010 
     -999.2500         0.5872      -999.2500      -999.2500      -999.2500 
     -999.2500      -999.2500      -999.2500      -999.2500 
      2536.0000 
     -999.2500      -999.2500      -999.2500      -999.2500      -999.2500 
     -999.2500       121.0379        15.3820        15.6690        20.8820 
     -999.2500         0.6153      -999.2500      -999.2500      -999.2500 
     -999.2500      -999.2500      -999.2500      -999.2500 
      2536.5000 
        1.0900         1.3470         1.0130         0.7710         0.6820 
     -999.2500       122.3353        15.4540        14.4592        18.0980 
     -999.2500         0.5715      -999.2500      -999.2500      -999.2500 
        0.4720      -999.2500      -999.2500      -999.2500 
      2537.0000 
        1.1520         1.2980         0.9850         0.7340         0.6520 
     -999.2500       118.9421        15.5270        13.8575        16.0500 
     -999.2500         0.5139      -999.2500      -999.2500      -999.2500 
        0.9240      -999.2500      -999.2500      -999.2500 
      2537.5000 
        1.1310         1.2520         1.0640         0.8510         0.7010 
     -999.2500       117.2455        15.5990        14.1626        12.6200 
     -999.2500         0.5055      -999.2500      -999.2500      -999.2500 
        2.5400      -999.2500      -999.2500      -999.2500 
      2538.0000 
        1.1110         1.1950         1.1210         0.9680         0.7690 
     -999.2500       114.8503        15.6720        14.4677        12.7550 
     -999.2500         0.5148      -999.2500      -999.2500      -999.2500 
        2.4710      -999.2500      -999.2500      -999.2500 
      2538.5000 
        1.1310         1.1420         1.0210         0.9030         0.7980 
     -999.2500       114.1517        15.7430        14.7717        12.5800 
     -999.2500         0.5241      -999.2500      -999.2500      -999.2500 
        2.4480      -999.2500      -999.2500      -999.2500 
      2539.0000 
        1.1630         1.1420         0.9330         0.7620         0.6890 
     -999.2500       102.5749        15.8310        15.3818        12.9100 
     -999.2500         0.5342      -999.2500      -999.2500      -999.2500 
        2.3600      -999.2500      -999.2500      -999.2500 
      2539.5000 
        1.1520         1.1420         0.9500         0.7620         0.6520 
     -999.2500       101.3772        16.3410        14.7791        13.4310 
     -999.2500         0.5462      -999.2500      -999.2500      -999.2500 
        2.4260      -999.2500      -999.2500      -999.2500 
      2540.0000 
        1.0900         1.0950         1.0180         0.7830         0.6950 
     -999.2500       107.1984        16.7030        13.8726        13.9650 
        0.0182         0.5614         4.6588      -999.2500      -999.2500 
        2.5400      -999.2500      -999.2500      -999.2500 
      2540.5000 
        1.0220         1.0320         1.0220         0.8590         0.7410 
     -999.2500       108.9621        16.6030        12.0573        14.5020 
        0.0297         0.5732         4.8163      -999.2500      -999.2500 
        2.4260      -999.2500      -999.2500      -999.2500 
      2541.0000 
        0.9760         0.9950         0.9160         0.8280         0.7620 
     -999.2500       114.9501        16.5130        11.1508        15.0050 
        0.0307         0.5854         6.4191      -999.2500      -999.2500 
        1.7490      -999.2500      -999.2500      -999.2500 
      2541.5000 
        0.9590         0.9950         0.8660         0.7760         0.6760 
     -999.2500       118.6427        16.4110        11.3293        15.0800 
        0.0077         0.6031         7.6975      -999.2500      -999.2500 
        0.9080      -999.2500      -999.2500      -999.2500 
      2542.0000 
        1.0700         1.0900         0.9240         0.7980         0.7140 
     -999.2500       117.4986        15.6310        11.5078        14.5790 
       -0.0222         0.6031         8.6896      -999.2500      -999.2500 
        0.5840      -999.2500      -999.2500      -999.2500 
      2542.5000 
        1.1210         1.1110         0.9760         0.8510         0.7480 
     -999.2500       116.3545        14.7930        11.6863        15.3770 
       -0.0170         0.5845         9.2584      -999.2500      -999.2500 
        0.5840      -999.2500      -999.2500      -999.2500 
      2543.0000 
        1.0410         1.0800         0.9760         0.8510         0.7620 
     -999.2500       115.2104        13.9550        11.8648        15.7670 
       -0.0111         0.5437         9.2593      -999.2500      -999.2500 
        1.0700      -999.2500      -999.2500      -999.2500 
      2543.5000 
        0.9950         1.0130         0.9160         0.8430         0.7410 
     -999.2500       115.2495        13.1260        12.0433        14.0060 
       -0.0211         0.5377         8.8799      -999.2500      -999.2500 
        1.4160      -999.2500      -999.2500      -999.2500 
      2544.0000 
        1.0040         0.9950         0.9220         0.7900         0.7010 
     -999.2500       117.8443        13.6690        12.0770        13.1670 
       -0.0421         0.5456         8.6811      -999.2500      -999.2500 
        1.3350      -999.2500      -999.2500      -999.2500 
      2544.5000 
        1.0410         1.0220         0.9680         0.7830         0.6820 
     -999.2500       117.7445        15.2770        11.7125        13.0640 
       -0.0390         0.5509         8.6423      -999.2500      -999.2500 
        1.4100      -999.2500      -999.2500      -999.2500 
      2545.0000 
        1.0810         1.0850         1.0320         0.8050         0.7080 
     -999.2500       114.6507        15.4920        11.3479        12.6200 
       -0.0458         0.5509         8.6749      -999.2500      -999.2500 
        1.5180      -999.2500      -999.2500      -999.2500 
      2545.5000 
        1.1070         1.1110         0.9950         0.8280         0.7280 
     -999.2500       111.6567        15.7500        11.4791        12.3670 
       -0.0470         0.5120         8.7075      -999.2500      -999.2500 
        1.7260      -999.2500      -999.2500      -999.2500 
      2546.0000 
        1.1210         1.1110         0.9680         0.8280         0.7280 
     -999.2500       105.3693        14.4330        12.0253        12.4280 
       -0.0444         0.4717         8.7448      -999.2500      -999.2500 
        1.8240      -999.2500      -999.2500      -999.2500 
      2546.5000 
        1.0900         1.0800         0.9590         0.8280         0.7140 
     -999.2500       100.8782        12.7710        12.0891        12.5370 
       -0.0419         0.4711         8.7257      -999.2500      -999.2500 
        1.7420      -999.2500      -999.2500      -999.2500 
      2547.0000 
        1.0700         1.0610         0.9760         0.7980         0.7010 
     -999.2500        95.5888        12.7900        11.1840        12.6630 
       -0.0419         0.4779         8.7867      -999.2500      -999.2500 
        1.6800      -999.2500      -999.2500      -999.2500 
      2547.5000 
        1.0510         1.0320         0.9680         0.7980         0.7280 
     -999.2500        91.4970        13.9420        11.2742        12.6790 
       -0.0512         0.4914         8.8067      -999.2500      -999.2500 
        1.5890      -999.2500      -999.2500      -999.2500 
      2548.0000 
        1.0320         1.0220         0.9950         0.8240         0.7520 
     -999.2500       103.9721        15.2220        10.2824        12.6950 
       -0.0568         0.5226         9.0291      -999.2500      -999.2500 
        1.5320      -999.2500      -999.2500      -999.2500 
