~Version Information Block
VERS .                 2.00:  CWLS LOG ASCII STANDARD - VERSION 2.00
WRAP .                  YES:  Multiple lines per depth step
~Well Information Block
#MNEM.UNIT        Data Type   Information
#---------- ----------------  -----------
STRT .F                 294:  START DEPTH
STOP .F              5041.5:  STOP DEPTH
STEP .F                 0.5:  STEP
NULL .              -999.25:  NULL VALUE
COMP .     TEXACO NORTH SEA LTD.:  COMPANY
WELL .              9/11A-9:  WELL
FLD  .              MARINER:  FIELD
LOC  .       X=390680.74mE Y=6606678.22mN:  LOCATION
PROV .                 UKCS:  PROVINCE
SRVC .         SCHLUMBERGER:  SERVICE COMPANY
DATE .     09-01-97 TO 27-01-97:  LOG DATE
UWI  .                25043:  UNIQUE WELL ID
~Curve Information Block
#MNEM.UNIT         API CODE   Curve Description
#---------- ----------------  -----------------
DEPTH.F                    :  Depth in Feet
AHT10.OHMM                 :  Edited AIT-H 10 Inch Investigation (AHT10)
AHT20.OHMM                 :  Edited AIT-H 20 Inch Investigation (AHT20)
AHT30.OHMM                 :  Edited AIT-H 30 Inch Investigation (AHT30)
AHT60.OHMM                 :  Edited AIT-H 60 Inch Investigation (AHT60)
AHT90.OHMM                 :  Edited AIT-H 90 Inch Investigation (AHT90)
CGR  .GAPI                 :  Edited Computed Gamma Ray from NGT
DT   .US/FT                 :  Merged Delta-T from SDT
GR   .GAPI                 :  Merged HILTB Gamma Ray
GRS  .GAPI                 :  Merged Gamma Ray from SDT
HCAL .IN                   :  Edited HILTB Caliper
HDRA .G/C3                 :  Edited Density Correction
NPHI .V/V                  :  Edited Neutron Porosity
PEFZ .B/E                  :  Edited Photo-electric
POTA .                     :  Edited Potassium from NGT
RHOZ .G/C3                 :  Edited Bulk Density Caliper
RXOZ .OHMM                 :  Edited Std. Res. Invaded Zone Resistivity
SGR  .GAPI                 :  Edited Spectral Gamma Ray from NGT
THOR .PPM                  :  Edited Thorium from NGT
URAN .PPM                  :  Edited Uranium from NGT
~Parameter Information Block
#MNEM.UNIT            Value   Description
#---------- ----------------  -----------
SET  .            COMP_WIRE:  
PROJ .             88TH_I_1:  
DATU .                  MSL:  
DMF  .          Drill Floor:  Drilling Measured From
TDD  .F                5055:  
EDF  .F                  82:  Elevation of Derrick Floor
EKB  .F                  82:  
EPD  .F                   0:  Elevation Of Perm. Datum
LATI .     59DEG 34' 57.497 N:  
LCC  .                  440:  Logging Company Code
LONG .     01DEG 03' 51.604:  
LMF  .          DRILL FLOOR:  
ORDU .                 FEET:  
PDAT .                  MSL:  
RIG_NAME.     BORGSTEN DOLPHIN:  
SURF .F                -355:  
~Other Information Block
~Ascii Log Data
# ...
      3858.0000 
        0.8430         0.7900         0.7480         0.7490         0.7100 
       28.4500       122.6797        32.0680        27.3860         8.3990 
       -0.0010         0.2857         1.4276         0.0140         2.0710 
        1.1310        30.1040         1.6030         0.1400 
      3858.5000 
        1.0020         0.9330         0.9000         0.8730         0.7760 
       29.2990       123.9230        39.9970        29.7935         8.3990 
       -0.0013         0.3083         1.6668         0.0150         2.0743 
        1.2060        31.2090         1.6830         0.2200 
      3859.0000 
        1.2060         1.1310         1.1000         1.0410         0.8870 
       30.7850       123.5236        47.8970        41.5302         8.3270 
       -0.0013         0.3245         1.8954         0.0160         2.1028 
        1.3220        32.2080         1.8440         0.3410 
      3859.5000 
        1.4770         1.4630         1.3350         1.3040         1.1420 
       29.5780       121.0720        55.8010        43.3916         8.2370 
       -0.0014         0.3461         2.1240         0.0160         2.1362 
        1.6370        33.6160         2.0040         0.4210 
      3860.0000 
        1.5750         1.4900         1.4630         1.4900         1.3100 
       42.1350       118.6205        60.6230        58.9848         8.1970 
        0.0009         0.3515         2.3245         0.0180         2.1711 
        2.0310        37.2440         2.2850         0.6810 
      3860.5000 
        1.5750         1.5040         1.4770         1.5320         1.3470 
       49.1790       115.7348        63.2190        58.9847         8.1990 
        0.0032         0.3305         2.3036         0.0210         2.2190 
        2.4040        50.2010         3.6870         1.0220 
      3861.0000 
        1.5750         1.5460         1.5320         1.5460         1.3470 
       50.9960       115.4353        64.5310        58.7755         8.2330 
        0.0065         0.3300         2.2401         0.0220         2.2302 
        2.4480        60.3900         4.4890         1.1420 
      3861.5000 
        1.6040         1.5890         1.5600         1.5460         1.3470 
       51.6110       115.8347        65.5690        58.5662         8.3820 
        0.0127         0.3456         2.1825         0.0230         2.2360 
        2.5170        61.2260         5.2100         1.2220 
      3862.0000 
        1.6800         1.6640         1.5460         1.5320         1.3350 
       52.4370       116.1343        66.4280        58.3570         8.5620 
        0.0194         0.3555         2.1824         0.0220         2.2779 
        2.5400        62.5580         5.6110         1.2630 
      3862.5000 
        1.7580         1.7260         1.5890         1.5320         1.3590 
       54.2380       115.9346        66.5180        58.1477         8.7360 
        0.0194         0.3696         2.4008         0.0220         2.2858 
        2.5630        64.6700         6.0120         1.3430 
      3863.0000 
        1.6950         1.6640         1.5180         1.4370         1.2400 
       54.3990       115.5352        62.0610        55.6739         8.9200 
        0.0154         0.3625         2.3125         0.0220         2.2748 
        2.4940        66.0790         6.0920         1.4630 
      3863.5000 
        1.4340         1.2170         1.2440         1.2410         0.9890 
       52.8200       116.4339        55.1030        53.1595         8.6830 
        0.0144         0.3553         2.2243         0.0220         2.1889 
        1.9700        66.1680         6.0120         1.5030 
      3864.0000 
        1.0890         0.8910         0.9260         0.9580         0.7760 
       51.8700       117.8319        47.6510        50.6451         8.5010 
        0.0078         0.3482         2.1795         0.0210         2.1239 
        1.4660        62.8970         4.9700         1.5430 
      3864.5000 
        0.8510         0.8350         0.7900         0.7830         0.7140 
       49.8770       119.0302        43.0460        48.1306         8.4390 
        0.0003         0.3421         1.8846         0.0210         2.0849 
        1.3220        56.1810         4.6490         1.5430 
      3865.0000 
        0.8280         0.8290         0.8280         0.8120         0.7620 
       47.3130       120.7278        39.0630        42.1313         8.4850 
       -0.0046         0.3442         1.6985         0.0200         2.0769 
        1.3470        49.4350         3.9280         1.4030 
      3865.5000 
        0.8510         0.8120         0.8350         0.8120         0.7830 
       43.1050       122.6251        38.2560        37.6172         8.5410 
       -0.0108         0.3475         1.5350         0.0190         2.0788 
        1.4100        45.6770         3.2060         1.1420 
      3866.0000 
        0.8350         0.8120         0.7900         0.8050         0.7690 
       39.0220       125.0216        37.2290        34.0059         8.5200 
       -0.0026         0.3487         1.4174         0.0180         2.0768 
        1.3590        42.9500         2.8860         1.0220 
      3866.5000 
        0.8200         0.7980         0.7690         0.7980         0.7550 
       37.9930       125.6208        37.2630        32.8021         8.5020 
        0.0055         0.3416         1.5134         0.0170         2.0698 
        1.2870        42.6060         2.6450         0.7410 
      3867.0000 
        0.8510         0.8280         0.8200         0.8120         0.7480 
       38.0860       126.3198        40.5750        33.4039         8.5470 
        0.0101         0.3290         1.6358         0.0170         2.0628 
        1.2630        42.5360         2.6450         0.6610 
      3867.5000 
        1.0320         0.9320         0.9430         0.8910         0.8200 
       39.3910       127.2185        46.0860        36.4132         8.5600 
        0.0243         0.3158         1.7622         0.0180         2.0767 
        1.2870        43.9670         2.7660         0.5610 
      3868.0000 
        1.3290         1.2250         1.1750         1.2200         1.0420 
       40.2060       129.6150        53.1500        39.1216         8.6240 
        0.0385         0.3288         1.8941         0.0180         2.1266 
        1.4370        45.9820         3.0460         0.7010 
      3868.5000 
        1.6040         1.5180         1.4600         1.4620         1.3690 
       44.3990       134.9074        58.1450        44.8392         8.9270 
        0.0530         0.3446         2.0131         0.0180         2.1975 
        1.7180        52.0810         3.2870         0.8220 
      3869.0000 
        1.8750         1.7260         1.7420         1.6640         1.6340 
       45.8270       139.1013        61.4390        48.4504         9.0920 
        0.0456         0.3950         2.3558         0.0190         2.2434 
        1.9820        57.6600         5.3710         1.0220 
      3869.5000 
        1.9460         1.8580         1.8410         1.8080         1.6640 
       46.4680       136.8046        57.9430        50.5568         9.0770 
        0.0359         0.3896         2.6116         0.0200         2.3023 
        2.2540        62.5610         5.5310         1.2220 
      3870.0000 
        1.8410         2.0370         1.8580         1.8580         1.5890 
       48.3210       134.1085        52.1860        50.5567         8.9220 
        0.0369         0.3657         2.4908         0.0210         2.3982 
        3.6690        61.2000         5.5310         1.3030 
      3870.5000 
        2.0560         2.1930         1.9640         1.8580         1.6190 
       49.6040       125.1216        49.9200        49.9548         8.9470 
        0.0418         0.2680         2.3274         0.0210         2.4841 
        5.7560        58.8790         5.5310         1.3430 
      3871.0000 
        2.0750         2.2330         1.9100         1.8960         1.6490 
       49.7960       119.4299        51.6120        50.5566         8.9780 
        0.0373         0.2560         2.1699         0.0200         2.4821 
        6.0270        57.7610         5.5310         1.3030 
