~Version Information Block
VERS .                 2.00:  CWLS LOG ASCII STANDARD - VERSION 2.00
WRAP .                  YES:  Multiple lines per depth step
~Well Information Block
#MNEM.UNIT        Data Type   Information
#---------- ----------------  -----------
STRT .F                 294:  START DEPTH
STOP .F              5041.5:  STOP DEPTH
STEP .F                 0.5:  STEP
NULL .              -999.25:  NULL VALUE
COMP .     TEXACO NORTH SEA LTD.:  COMPANY
WELL .              9/11A-9:  WELL
FLD  .              MARINER:  FIELD
LOC  .       X=390680.74mE Y=6606678.22mN:  LOCATION
PROV .                 UKCS:  PROVINCE
SRVC .         SCHLUMBERGER:  SERVICE COMPANY
DATE .     09-01-97 TO 27-01-97:  LOG DATE
UWI  .                25043:  UNIQUE WELL ID
~Curve Information Block
#MNEM.UNIT         API CODE   Curve Description
#---------- ----------------  -----------------
DEPTH.F                    :  Depth in Feet
AHT10.OHMM                 :  Edited AIT-H 10 Inch Investigation (AHT10)
AHT20.OHMM                 :  Edited AIT-H 20 Inch Investigation (AHT20)
AHT30.OHMM                 :  Edited AIT-H 30 Inch Investigation (AHT30)
AHT60.OHMM                 :  Edited AIT-H 60 Inch Investigation (AHT60)
AHT90.OHMM                 :  Edited AIT-H 90 Inch Investigation (AHT90)
CGR  .GAPI                 :  Edited Computed Gamma Ray from NGT
DT   .US/FT                 :  Merged Delta-T from SDT
GR   .GAPI                 :  Merged HILTB Gamma Ray
GRS  .GAPI                 :  Merged Gamma Ray from SDT
HCAL .IN                   :  Edited HILTB Caliper
HDRA .G/C3                 :  Edited Density Correction
NPHI .V/V                  :  Edited Neutron Porosity
PEFZ .B/E                  :  Edited Photo-electric
POTA .                     :  Edited Potassium from NGT
RHOZ .G/C3                 :  Edited Bulk Density Caliper
RXOZ .OHMM                 :  Edited Std. Res. Invaded Zone Resistivity
SGR  .GAPI                 :  Edited Spectral Gamma Ray from NGT
THOR .PPM                  :  Edited Thorium from NGT
URAN .PPM                  :  Edited Uranium from NGT
~Parameter Information Block
#MNEM.UNIT            Value   Description
#---------- ----------------  -----------
SET  .            COMP_WIRE:  
PROJ .             88TH_I_1:  
DATU .                  MSL:  
DMF  .          Drill Floor:  Drilling Measured From
TDD  .F                5055:  
EDF  .F                  82:  Elevation of Derrick Floor
EKB  .F                  82:  
EPD  .F                   0:  Elevation Of Perm. Datum
LATI .     59DEG 34' 57.497 N:  
LCC  .                  440:  Logging Company Code
LONG .     01DEG 03' 51.604:  
LMF  .          DRILL FLOOR:  
ORDU .                 FEET:  
PDAT .                  MSL:  
RIG_NAME.     BORGSTEN DOLPHIN:  
SURF .F                -355:  
~Other Information Block
~Ascii Log Data
# ...
      2859.0000 
        1.4370         1.5600         1.4900         1.5890         1.4230 
     -999.2500       139.0303        53.2350        51.1679         8.5860 
        0.0074         0.3449         2.0161      -999.2500         2.1562 
        1.7910      -999.2500      -999.2500      -999.2500 
      2859.5000 
        1.3350         1.4100         1.3970         1.5040         1.2520 
     -999.2500       138.9257        48.8230        52.9701         8.5650 
        0.0054         0.3688         2.1450      -999.2500         2.1743 
        2.1530      -999.2500      -999.2500      -999.2500 
      2860.0000 
        1.0210         1.1460         1.1840         1.1000         0.9570 
     -999.2500       138.8212        42.6720        54.7731         8.5540 
        0.0054         0.3700         2.3447      -999.2500         2.1693 
        2.0750      -999.2500      -999.2500      -999.2500 
      2860.5000 
        0.7760         0.8830         0.9610         0.9010         0.7080 
     -999.2500       139.1311        30.9300        34.6182         8.5410 
       -0.0068         0.3893         1.9633      -999.2500         2.1262 
        1.5110      -999.2500      -999.2500      -999.2500 
      2861.0000 
        0.7140         0.7340         0.7610         0.6890         0.6520 
     -999.2500       139.4078        27.7580        29.5032         8.5290 
       -0.0237         0.3815         1.7265      -999.2500         2.0421 
        1.3100      -999.2500      -999.2500      -999.2500 
      2861.5000 
        0.6890         0.6820         0.7030         0.6580         0.6000 
     -999.2500       140.1306        25.7620        24.9888         8.5170 
       -0.0247         0.3726         1.4897      -999.2500         2.0161 
        1.1210      -999.2500      -999.2500      -999.2500 
      2862.0000 
        0.6820         0.6760         0.6900         0.6400         0.5890 
     -999.2500       140.7867        26.7570        24.2169         8.5050 
       -0.0220         0.3642         1.2009      -999.2500         2.0061 
        1.1210      -999.2500      -999.2500      -999.2500 
      2862.5000 
        0.7010         0.6760         0.6760         0.6400         0.6050 
     -999.2500       141.4298        27.5480        23.7821         8.4930 
       -0.0193         0.3606         1.2008      -999.2500         2.0054 
        1.1420      -999.2500      -999.2500      -999.2500 
      2863.0000 
        0.7140         0.6950         0.6700         0.6340         0.5840 
     -999.2500       140.8480        27.9710        24.5160         8.4800 
       -0.0166         0.3714         1.2913      -999.2500         2.0050 
        1.1420      -999.2500      -999.2500      -999.2500 
      2863.5000 
        0.7340         0.7010         0.6760         0.6340         0.5730 
     -999.2500       141.1305        26.6080        25.2500         8.4680 
       -0.0129         0.3714         1.3986      -999.2500         2.0089 
        1.1420      -999.2500      -999.2500      -999.2500 
      2864.0000 
        0.7340         0.7010         0.6830         0.6460         0.5840 
     -999.2500       139.5325        23.7810        25.9839         8.4610 
       -0.0163         0.3660         1.4099      -999.2500         2.0144 
        1.1740      -999.2500      -999.2500      -999.2500 
      2864.5000 
        0.7410         0.6950         0.6890         0.6700         0.6170 
     -999.2500       138.6336        22.5750        26.7178         8.4670 
       -0.0189         0.3469         1.4175      -999.2500         2.0189 
        1.1740      -999.2500      -999.2500      -999.2500 
      2865.0000 
        0.7550         0.6950         0.7010         0.6760         0.6220 
     -999.2500       137.9345        22.6730        26.7804         8.4720 
       -0.0201         0.3289         1.3617      -999.2500         2.0118 
        1.1420      -999.2500      -999.2500      -999.2500 
      2865.5000 
        0.7550         0.6950         0.6990         0.6760         0.6280 
     -999.2500       137.2355        22.9300        23.7689         8.4780 
       -0.0230         0.3216         1.3059      -999.2500         2.0068 
        1.1310      -999.2500      -999.2500      -999.2500 
      2866.0000 
        0.7480         0.6950         0.6950         0.6760         0.6220 
     -999.2500       137.0357        23.1760        21.9615         8.4840 
       -0.0220         0.3175         1.2346      -999.2500         2.0097 
        1.1420      -999.2500      -999.2500      -999.2500 
      2866.5000 
        0.7480         0.6940         0.7030         0.6820         0.6180 
     -999.2500       136.6824        23.4240        21.9597         8.4900 
       -0.0188         0.3097         1.2344      -999.2500         2.0117 
        1.1630      -999.2500      -999.2500      -999.2500 
      2867.0000 
        0.7480         0.7080         0.7080         0.6700         0.6130 
     -999.2500       136.3290        23.6700        23.2647         8.4960 
       -0.0171         0.3122         1.4129      -999.2500         2.0231 
        1.1950      -999.2500      -999.2500      -999.2500 
      2867.5000 
        0.7620         0.7080         0.7140         0.6700         0.6090 
     -999.2500       136.0377        23.9220        24.3618         8.5020 
       -0.0154         0.3190         1.3929      -999.2500         2.0356 
        1.2060      -999.2500      -999.2500      -999.2500 
      2868.0000 
        0.7480         0.7080         0.7140         0.6700         0.6050 
     -999.2500       135.7789        23.2960        24.3600         8.5080 
       -0.0152         0.3290         1.3920      -999.2500         2.0386 
        1.2170      -999.2500      -999.2500      -999.2500 
      2868.5000 
        0.7550         0.7140         0.7210         0.6680         0.6000 
     -999.2500       135.5201        21.7880        23.6512         8.5140 
       -0.0117         0.3270         1.3907      -999.2500         2.0381 
        1.2170      -999.2500      -999.2500      -999.2500 
      2869.0000 
        0.7550         0.7210         0.7210         0.6650         0.5990 
     -999.2500       135.3391        21.0960        22.9425         8.5200 
       -0.0112         0.3255         1.4150      -999.2500         2.0375 
        1.2060      -999.2500      -999.2500      -999.2500 
      2869.5000 
        0.7550         0.7080         0.7140         0.6640         0.5970 
     -999.2500       135.3393        21.6670        22.8498         8.5180 
       -0.0140         0.3174         1.4393      -999.2500         2.0380 
        1.1840      -999.2500      -999.2500      -999.2500 
      2870.0000 
        0.7410         0.7010         0.7050         0.6640         0.5960 
     -999.2500       136.0131        22.0880        21.6439         8.5160 
       -0.0163         0.3094         1.4635      -999.2500         2.0384 
        1.1740      -999.2500      -999.2500      -999.2500 
      2870.5000 
        0.7340         0.7010         0.6950         0.6640         0.5940 
     -999.2500       136.6870        21.3180        20.7397         8.5140 
       -0.0185         0.3039         1.4878      -999.2500         2.0297 
        1.1520      -999.2500      -999.2500      -999.2500 
      2871.0000 
        0.7340         0.7010         0.6900         0.6570         0.5940 
     -999.2500       137.2382        21.4730        18.6314         8.5130 
       -0.0208         0.2931         1.4522      -999.2500         2.0183 
        1.1310      -999.2500      -999.2500      -999.2500 
      2871.5000 
        0.7300         0.7010         0.6810         0.6520         0.5840 
     -999.2500       137.4313        21.2670        17.1255         8.5110 
       -0.0230         0.2872         1.4060      -999.2500         2.0196 
        1.1420      -999.2500      -999.2500      -999.2500 
      2872.0000 
        0.7240         0.7020         0.6730         0.6460         0.5680 
     -999.2500       137.6243        21.3610        15.0171         8.5090 
       -0.0252         0.2878         1.3437      -999.2500         2.0208 
        1.1520      -999.2500      -999.2500      -999.2500 
