~Version Information Block
VERS .                 2.00:  CWLS LOG ASCII STANDARD - VERSION 2.00
WRAP .                  YES:  Multiple lines per depth step
~Well Information Block
#MNEM.UNIT        Data Type   Information
#---------- ----------------  -----------
STRT .F                 294:  START DEPTH
STOP .F              5041.5:  STOP DEPTH
STEP .F                 0.5:  STEP
NULL .              -999.25:  NULL VALUE
COMP .     TEXACO NORTH SEA LTD.:  COMPANY
WELL .              9/11A-9:  WELL
FLD  .              MARINER:  FIELD
LOC  .       X=390680.74mE Y=6606678.22mN:  LOCATION
PROV .                 UKCS:  PROVINCE
SRVC .         SCHLUMBERGER:  SERVICE COMPANY
DATE .     09-01-97 TO 27-01-97:  LOG DATE
UWI  .                25043:  UNIQUE WELL ID
~Curve Information Block
#MNEM.UNIT         API CODE   Curve Description
#---------- ----------------  -----------------
DEPTH.F                    :  Depth in Feet
AHT10.OHMM                 :  Edited AIT-H 10 Inch Investigation (AHT10)
AHT20.OHMM                 :  Edited AIT-H 20 Inch Investigation (AHT20)
AHT30.OHMM                 :  Edited AIT-H 30 Inch Investigation (AHT30)
AHT60.OHMM                 :  Edited AIT-H 60 Inch Investigation (AHT60)
AHT90.OHMM                 :  Edited AIT-H 90 Inch Investigation (AHT90)
CGR  .GAPI                 :  Edited Computed Gamma Ray from NGT
DT   .US/FT                 :  Merged Delta-T from SDT
GR   .GAPI                 :  Merged HILTB Gamma Ray
GRS  .GAPI                 :  Merged Gamma Ray from SDT
HCAL .IN                   :  Edited HILTB Caliper
HDRA .G/C3                 :  Edited Density Correction
NPHI .V/V                  :  Edited Neutron Porosity
PEFZ .B/E                  :  Edited Photo-electric
POTA .                     :  Edited Potassium from NGT
RHOZ .G/C3                 :  Edited Bulk Density Caliper
RXOZ .OHMM                 :  Edited Std. Res. Invaded Zone Resistivity
SGR  .GAPI                 :  Edited Spectral Gamma Ray from NGT
THOR .PPM                  :  Edited Thorium from NGT
URAN .PPM                  :  Edited Uranium from NGT
~Parameter Information Block
#MNEM.UNIT            Value   Description
#---------- ----------------  -----------
SET  .            COMP_WIRE:  
PROJ .             88TH_I_1:  
DATU .                  MSL:  
DMF  .          Drill Floor:  Drilling Measured From
TDD  .F                5055:  
EDF  .F                  82:  Elevation of Derrick Floor
EKB  .F                  82:  
EPD  .F                   0:  Elevation Of Perm. Datum
LATI .     59DEG 34' 57.497 N:  
LCC  .                  440:  Logging Company Code
LONG .     01DEG 03' 51.604:  
LMF  .          DRILL FLOOR:  
ORDU .                 FEET:  
PDAT .                  MSL:  
RIG_NAME.     BORGSTEN DOLPHIN:  
SURF .F                -355:  
~Other Information Block
~Ascii Log Data
# ...
      3520.5000 
        0.8660         0.8590         0.7340         0.7550         0.6950 
       16.1160       132.3312        21.8430        18.7046         8.5420 
       -0.0039         0.2998         1.5893         0.0090         2.1113 
        1.3970        22.7250         0.5610         0.9420 
      3521.0000 
        0.8120         0.7830         0.7210         0.7280         0.6640 
       16.3590       132.0320        22.7060        19.6095         8.5450 
       -0.0029         0.3154         1.7077         0.0090         2.0924 
        1.2980        23.1060         0.4810         0.9420 
      3521.5000 
        0.7900         0.7550         0.7140         0.7010         0.6400 
       16.6160       131.3335        21.6150        21.1177         8.5480 
       -0.0039         0.3178         1.6078         0.0100         2.0880 
        1.2520        23.2720         0.5610         0.8620 
      3522.0000 
        0.7760         0.7340         0.6820         0.6950         0.6340 
       16.8810       130.8346        19.5610        21.7208         8.5510 
       -0.0039         0.3150         1.4870         0.0100         2.0834 
        1.2290        23.6100         0.5610         0.8620 
      3522.5000 
        0.7760         0.7340         0.6890         0.6820         0.6340 
       17.0560       130.0365        19.1460        20.2121         8.5540 
       -0.0008         0.3118         1.3684         0.0090         2.0785 
        1.2290        23.8230         0.7620         0.8220 
      3523.0000 
        0.7760         0.7210         0.6950         0.6820         0.6340 
       17.1710       129.8370        19.2510        19.5076         8.5570 
        0.0021         0.3160         1.3884         0.0080         2.0724 
        1.2400        22.8810         0.9620         0.8220 
      3523.5000 
        0.7690         0.7210         0.6890         0.6890         0.6340 
       17.2790       129.8374        19.3410        19.0052         8.5600 
        0.0021         0.3160         1.3887         0.0080         2.0654 
        1.1950        22.5330         1.0420         0.8220 
      3524.0000 
        0.7770         0.7280         0.6820         0.6890         0.6340 
       17.2910       129.6382        20.4020        19.3066         8.5630 
        0.0021         0.3124         1.3889         0.0090         2.0658 
        1.2400        24.8380         0.9620         0.9020 
      3524.5000 
        0.7760         0.7410         0.6950         0.6950         0.6340 
       17.0830       129.2392        22.3330        18.7031         8.5660 
        0.0021         0.3089         1.4248         0.0100         2.0662 
        1.2630        25.5480         0.9620         1.0220 
      3525.0000 
        0.7760         0.7480         0.6950         0.6950         0.6320 
       16.5020       128.5407        23.6250        18.4013         8.5690 
        0.0011         0.3070         1.4693         0.0100         2.0664 
        1.2870        25.7410         0.9620         1.0820 
      3525.5000 
        0.7760         0.7370         0.6950         0.6890         0.6250 
       16.0580       128.5411        23.6210        19.9093         8.5720 
       -0.0016         0.3154         1.4693         0.0090         2.0685 
        1.2750        25.6870         0.9620         1.1420 
      3526.0000 
        0.7630         0.7340         0.6890         0.6820         0.6180 
       15.1900       128.9410        22.9460        20.5126         8.5750 
       -0.0044         0.3160         1.6095         0.0080         2.0675 
        1.2750        25.3460         0.9620         1.1420 
      3526.5000 
        0.7550         0.7340         0.6760         0.6760         0.6170 
       15.0790       129.9402        22.0490        20.8139         8.5770 
       -0.0059         0.3168         1.7897         0.0080         2.0625 
        1.2170        23.3690         0.7210         1.1420 
      3527.0000 
        0.7550         0.7340         0.6640         0.6700         0.6280 
       14.5130       130.4399        22.9830        20.8137         8.5810 
       -0.0094         0.3177         1.7697         0.0080         2.0585 
        1.1840        22.5640         0.6410         1.1020 
      3527.5000 
        0.7550         0.7280         0.6760         0.6700         0.6280 
       14.6150       130.7401        23.8960        22.0200         8.5980 
       -0.0119         0.3190         1.5901         0.0080         2.0505 
        1.1740        22.3260         0.6010         1.1020 
      3528.0000 
        0.7480         0.7210         0.6950         0.6760         0.6280 
       14.5700       130.7405        23.8730        22.6231         8.6000 
       -0.0116         0.3203         1.3705         0.0090         2.0475 
        1.1950        23.8100         0.5610         1.1020 
      3528.5000 
        0.7550         0.7140         0.6890         0.6950         0.6220 
       14.5970       130.2417        22.8350        22.0196         8.6000 
       -0.0089         0.3213         1.3906         0.0090         2.0485 
        1.2520        24.5580         0.6410         1.1020 
      3529.0000 
        0.7760         0.7140         0.6820         0.7140         0.6170 
       14.9220       129.8426        21.7900        21.7178         8.6010 
       -0.0110         0.3208         1.4508         0.0080         2.0505 
        1.2980        24.6170         0.8020         1.1420 
      3529.5000 
        0.7900         0.7340         0.7280         0.7140         0.6280 
       15.2160       129.3439        22.4920        21.1143         8.5990 
       -0.0107         0.3201         1.6509         0.0080         2.0645 
        1.2980        23.3500         0.8020         1.1820 
      3530.0000 
        0.8120         0.7620         0.7210         0.7210         0.6520 
       15.1450       127.7465        24.1740        18.7011         8.6160 
       -0.0104         0.3063         1.7710         0.0080         2.0775 
        1.2980        24.0730         0.8820         1.2830 
      3530.5000 
        0.8200         0.7690         0.7340         0.7210         0.6580 
       15.4200       127.2475        24.6010        20.3786         8.6120 
       -0.0102         0.2877         1.7712         0.0080         2.0835 
        1.3220        24.9090         0.8820         1.3030 
      3531.0000 
        0.8200         0.7690         0.7550         0.7280         0.6520 
       15.4810       126.2494        23.5060        20.5105         8.6070 
       -0.0098         0.2919         1.7713         0.0080         2.0825 
        1.2870        25.1460         0.8820         1.1820 
      3531.5000 
        0.8050         0.7690         0.7550         0.7280         0.6400 
       15.3090       126.2498        22.2280        21.7167         8.6020 
       -0.0088         0.2949         1.7715         0.0080         2.0795 
        1.2750        24.7790         0.8820         1.1420 
      3532.0000 
        0.7980         0.7690         0.7550         0.7210         0.6400 
       14.6870       126.2504        21.8190        22.9229         8.6000 
       -0.0128         0.3009         1.7717         0.0080         2.0776 
        1.2630        24.4260         0.8820         1.1020 
      3532.5000 
        0.8120         0.7680         0.7410         0.7080         0.6580 
       14.5790       126.2506        21.2200        23.2243         8.6140 
       -0.0148         0.2997         1.7917         0.0090         2.0796 
        1.2980        23.9700         0.7620         1.1020 
      3533.0000 
        0.8200         0.7830         0.7620         0.7080         0.6580 
       14.6180       126.7507        20.0160        22.3192         8.6400 
       -0.0168         0.2949         1.6521         0.0080         2.0816 
        1.3350        23.6320         0.7210         1.0620 
      3533.5000 
        0.8280         0.7900         0.7760         0.7280         0.6580 
       14.9360       127.2504        19.5400        21.4142         8.6420 
       -0.0125         0.2891         1.5693         0.0080         2.0866 
        1.3350        22.9100         0.7210         1.0620 
