~Version Information Block
VERS .                 2.00:  CWLS LOG ASCII STANDARD - VERSION 2.00
WRAP .                  YES:  Multiple lines per depth step
~Well Information Block
#MNEM.UNIT        Data Type   Information
#---------- ----------------  -----------
STRT .F                 294:  START DEPTH
STOP .F              5041.5:  STOP DEPTH
STEP .F                 0.5:  STEP
NULL .              -999.25:  NULL VALUE
COMP .     TEXACO NORTH SEA LTD.:  COMPANY
WELL .              9/11A-9:  WELL
FLD  .              MARINER:  FIELD
LOC  .       X=390680.74mE Y=6606678.22mN:  LOCATION
PROV .                 UKCS:  PROVINCE
SRVC .         SCHLUMBERGER:  SERVICE COMPANY
DATE .     09-01-97 TO 27-01-97:  LOG DATE
UWI  .                25043:  UNIQUE WELL ID
~Curve Information Block
#MNEM.UNIT         API CODE   Curve Description
#---------- ----------------  -----------------
DEPTH.F                    :  Depth in Feet
AHT10.OHMM                 :  Edited AIT-H 10 Inch Investigation (AHT10)
AHT20.OHMM                 :  Edited AIT-H 20 Inch Investigation (AHT20)
AHT30.OHMM                 :  Edited AIT-H 30 Inch Investigation (AHT30)
AHT60.OHMM                 :  Edited AIT-H 60 Inch Investigation (AHT60)
AHT90.OHMM                 :  Edited AIT-H 90 Inch Investigation (AHT90)
CGR  .GAPI                 :  Edited Computed Gamma Ray from NGT
DT   .US/FT                 :  Merged Delta-T from SDT
GR   .GAPI                 :  Merged HILTB Gamma Ray
GRS  .GAPI                 :  Merged Gamma Ray from SDT
HCAL .IN                   :  Edited HILTB Caliper
HDRA .G/C3                 :  Edited Density Correction
NPHI .V/V                  :  Edited Neutron Porosity
PEFZ .B/E                  :  Edited Photo-electric
POTA .                     :  Edited Potassium from NGT
RHOZ .G/C3                 :  Edited Bulk Density Caliper
RXOZ .OHMM                 :  Edited Std. Res. Invaded Zone Resistivity
SGR  .GAPI                 :  Edited Spectral Gamma Ray from NGT
THOR .PPM                  :  Edited Thorium from NGT
URAN .PPM                  :  Edited Uranium from NGT
~Parameter Information Block
#MNEM.UNIT            Value   Description
#---------- ----------------  -----------
SET  .            COMP_WIRE:  
PROJ .             88TH_I_1:  
DATU .                  MSL:  
DMF  .          Drill Floor:  Drilling Measured From
TDD  .F                5055:  
EDF  .F                  82:  Elevation of Derrick Floor
EKB  .F                  82:  
EPD  .F                   0:  Elevation Of Perm. Datum
LATI .     59DEG 34' 57.497 N:  
LCC  .                  440:  Logging Company Code
LONG .     01DEG 03' 51.604:  
LMF  .          DRILL FLOOR:  
ORDU .                 FEET:  
PDAT .                  MSL:  
RIG_NAME.     BORGSTEN DOLPHIN:  
SURF .F                -355:  
~Other Information Block
~Ascii Log Data
# ...
      3196.5000 
        0.8430         0.7980         0.8200         0.8280         0.7010 
       34.0840       138.8864        33.0160        31.0188         8.5070 
       -0.0141         0.3506         1.5264         0.0180         2.0467 
        1.2400        36.2740         1.5230         0.3810 
      3197.0000 
        0.8510         0.8050         0.8200         0.8050         0.7080 
       34.7570       138.6476        32.1680        32.8266         8.5090 
       -0.0164         0.3458         1.4935         0.0180         2.0556 
        1.3100        37.0720         1.5230         0.3810 
      3197.5000 
        0.7690         0.7620         0.7480         0.7640         0.6760 
       35.0890       138.4087        30.9260        33.1287         8.5100 
       -0.0191         0.3339         1.3457         0.0190         2.0546 
        1.2290        38.4600         1.6030         0.4210 
      3198.0000 
        0.7410         0.7140         0.7210         0.7140         0.6400 
       35.3570       138.1699        30.9470        32.2258         8.5120 
       -0.0163         0.3333         1.1481         0.0190         2.0435 
        1.1520        39.9090         1.7640         0.5010 
      3198.5000 
        0.7280         0.6890         0.7010         0.7010         0.6280 
       35.2680       138.1027        31.0240        31.3228         8.5130 
       -0.0135         0.3303         1.1477         0.0190         2.0294 
        1.0700        41.2740         1.6830         0.5010 
      3199.0000 
        0.7340         0.6820         0.6940         0.7140         0.6220 
       35.6190       138.3731        31.0940        30.1189         8.5150 
       -0.0102         0.3310         1.3054         0.0180         2.0245 
        1.0410        36.4010         1.6830         0.3810 
      3199.5000 
        0.7410         0.6820         0.6910         0.7340         0.6240 
       36.0100       138.6435        31.3070        30.1195         8.5160 
       -0.0102         0.3340         1.4393         0.0180         2.0196 
        1.0800        33.8350         1.6030         0.3010 
      3200.0000 
        0.7410         0.7210         0.6890         0.7410         0.6260 
       36.2520       140.0000        34.9480        32.2288         8.5180 
       -0.0093         0.3377         1.5733         0.0190         2.0171 
        1.1740        33.8930         1.2830         0.1800 
      3200.5000 
        0.7480         0.7140         0.7080         0.7410         0.6280 
       35.9430       140.6997        37.2860        34.8774         8.5190 
       -0.0108         0.3488         1.7072         0.0190         2.0250 
        1.1310        37.1960         1.2020         0.1800 
      3201.0000 
        0.7480         0.7410         0.7140         0.7550         0.6340 
       35.3440       140.7998        38.4450        37.6484         8.5200 
       -0.0123         0.3575         1.7260         0.0190         2.0325 
        1.1630        38.0250         1.2020         0.2610 
      3201.5000 
        0.7550         0.7410         0.7140         0.7550         0.6400 
       35.3180       141.3831        37.9940        39.4548         8.5200 
       -0.0139         0.3701         1.7439         0.0200         2.0372 
        1.1950        41.4670         1.6030         0.3410 
      3202.0000 
        0.7690         0.7340         0.7080         0.7410         0.6340 
       35.3800       141.8000        36.0910        39.4538         8.5200 
       -0.0154         0.3671         1.5717         0.0190         2.0302 
        1.2170        41.4940         1.8440         0.3810 
      3202.5000 
        0.7480         0.7280         0.7010         0.7340         0.6220 
       35.5790       141.8007        33.0100        35.2354         8.5200 
       -0.0176         0.3610         1.3854         0.0180         2.0233 
        1.1210        41.7850         2.1640         0.3810 
      3203.0000 
        0.7280         0.7080         0.7210         0.7140         0.6280 
       35.2900       141.4664        32.2150        30.4149         8.5200 
       -0.0156         0.3580         1.2860         0.0180         2.0244 
        1.0800        39.8650         2.3250         0.3810 
      3203.5000 
        0.7210         0.7010         0.7280         0.7080         0.6400 
       35.0790       141.0008        32.6230        24.3888         8.5200 
       -0.0136         0.3442         1.2867         0.0170         2.0253 
        1.0900        38.4910         2.4050         0.3810 
      3204.0000 
        0.7210         0.6950         0.7210         0.7010         0.6280 
       34.1770       140.7812        32.4760        21.9780         8.5200 
       -0.0116         0.3370         1.3824         0.0170         2.0254 
        1.1110        37.0990         2.2440         0.3810 
      3204.5000 
        0.7550         0.6890         0.7010         0.7140         0.6220 
       33.3270       140.5617        31.4100        21.9769         8.5200 
       -0.0096         0.3361         1.4780         0.0160         2.0254 
        1.0800        33.8320         1.7640         0.3810 
      3205.0000 
        0.7620         0.7080         0.6950         0.7340         0.6340 
       32.0700       140.3421        29.5020        24.6864         8.5200 
       -0.0076         0.3352         1.5893         0.0160         2.0260 
        1.0700        34.5870         1.6830         0.3410 
      3205.5000 
        0.7550         0.7280         0.7280         0.7340         0.6460 
       30.9590       140.1225        28.6030        27.3965         8.5200 
       -0.0056         0.3447         1.5901         0.0160         2.0267 
        1.1310        34.4440         1.6030         0.3410 
      3206.0000 
        0.7480         0.7480         0.7480         0.7480         0.6580 
       29.9920       139.9029        28.9520        28.2998         8.5200 
       -0.0036         0.3579         1.5908         0.0160         2.0276 
        1.1110        33.6540         1.6030         0.3810 
      3206.5000 
        0.7480         0.7830         0.7620         0.8050         0.6890 
       29.2280       139.6833        30.0880        28.9002         8.5200 
       -0.0011         0.3558         1.5917         0.0150         2.0306 
        1.1420        33.9920         1.6030         0.5010 
      3207.0000 
        0.7550         0.7900         0.7550         0.8120         0.6700 
       29.4890       139.4637        31.6110        28.2962         8.5200 
       -0.0044         0.3536         1.5124         0.0150         2.0392 
        1.1740        33.7760         1.6030         0.6210 
      3207.5000 
        0.7340         0.7830         0.7620         0.8120         0.6460 
       30.2480       139.2441        32.3100        28.2957         8.5200 
       -0.0076         0.3513         1.3735         0.0150         2.0486 
        1.2290        34.8170         1.6830         0.7820 
      3208.0000 
        0.7280         0.7760         0.7690         0.7830         0.6400 
       30.6010       139.1048        32.4350        26.4862         8.5200 
       -0.0109         0.3555         1.3739         0.0150         2.0401 
        1.1740        35.7510         1.7640         0.8620 
      3208.5000 
        0.7210         0.7820         0.7760         0.7830         0.6400 
       29.7960       139.1050        31.3060        25.5814         8.5200 
       -0.0133         0.3614         1.4713         0.0150         2.0297 
        1.1630        36.2390         1.7640         0.8620 
      3209.0000 
        0.7340         0.7690         0.7550         0.7690         0.6520 
       28.3390       140.1044        30.5130        24.9779         8.5200 
       -0.0094         0.3614         1.5687         0.0140         2.0266 
        1.2290        34.8670         1.7640         0.8620 
      3209.5000 
        0.7340         0.7760         0.7480         0.7550         0.6580 
       27.5460       139.8048        29.3590        26.1814         8.5200 
       -0.0055         0.3557         1.6357         0.0140         2.0308 
        1.2520        34.2930         1.6030         0.8220 
