~Version Information Block
VERS .                 2.00:  CWLS LOG ASCII STANDARD - VERSION 2.00
WRAP .                  YES:  Multiple lines per depth step
~Well Information Block
#MNEM.UNIT        Data Type   Information
#---------- ----------------  -----------
STRT .F                 294:  START DEPTH
STOP .F              5041.5:  STOP DEPTH
STEP .F                 0.5:  STEP
NULL .              -999.25:  NULL VALUE
COMP .     TEXACO NORTH SEA LTD.:  COMPANY
WELL .              9/11A-9:  WELL
FLD  .              MARINER:  FIELD
LOC  .       X=390680.74mE Y=6606678.22mN:  LOCATION
PROV .                 UKCS:  PROVINCE
SRVC .         SCHLUMBERGER:  SERVICE COMPANY
DATE .     09-01-97 TO 27-01-97:  LOG DATE
UWI  .                25043:  UNIQUE WELL ID
~Curve Information Block
#MNEM.UNIT         API CODE   Curve Description
#---------- ----------------  -----------------
DEPTH.F                    :  Depth in Feet
AHT10.OHMM                 :  Edited AIT-H 10 Inch Investigation (AHT10)
AHT20.OHMM                 :  Edited AIT-H 20 Inch Investigation (AHT20)
AHT30.OHMM                 :  Edited AIT-H 30 Inch Investigation (AHT30)
AHT60.OHMM                 :  Edited AIT-H 60 Inch Investigation (AHT60)
AHT90.OHMM                 :  Edited AIT-H 90 Inch Investigation (AHT90)
CGR  .GAPI                 :  Edited Computed Gamma Ray from NGT
DT   .US/FT                 :  Merged Delta-T from SDT
GR   .GAPI                 :  Merged HILTB Gamma Ray
GRS  .GAPI                 :  Merged Gamma Ray from SDT
HCAL .IN                   :  Edited HILTB Caliper
HDRA .G/C3                 :  Edited Density Correction
NPHI .V/V                  :  Edited Neutron Porosity
PEFZ .B/E                  :  Edited Photo-electric
POTA .                     :  Edited Potassium from NGT
RHOZ .G/C3                 :  Edited Bulk Density Caliper
RXOZ .OHMM                 :  Edited Std. Res. Invaded Zone Resistivity
SGR  .GAPI                 :  Edited Spectral Gamma Ray from NGT
THOR .PPM                  :  Edited Thorium from NGT
URAN .PPM                  :  Edited Uranium from NGT
~Parameter Information Block
#MNEM.UNIT            Value   Description
#---------- ----------------  -----------
SET  .            COMP_WIRE:  
PROJ .             88TH_I_1:  
DATU .                  MSL:  
DMF  .          Drill Floor:  Drilling Measured From
TDD  .F                5055:  
EDF  .F                  82:  Elevation of Derrick Floor
EKB  .F                  82:  
EPD  .F                   0:  Elevation Of Perm. Datum
LATI .     59DEG 34' 57.497 N:  
LCC  .                  440:  Logging Company Code
LONG .     01DEG 03' 51.604:  
LMF  .          DRILL FLOOR:  
ORDU .                 FEET:  
PDAT .                  MSL:  
RIG_NAME.     BORGSTEN DOLPHIN:  
SURF .F                -355:  
~Other Information Block
~Ascii Log Data
# ...
      4506.0000 
        0.8120         1.0800         1.0700         1.0800         0.9330 
       39.7020       132.5009        48.8120        46.5760        10.8550 
        0.1424         0.5122         4.5764         0.0140         1.9630 
        0.6280        52.9260         4.8900         1.6630 
      4506.5000 
        0.8120         1.0800         1.0610         1.0680         0.9240 
       39.6440       132.9009        49.4270        47.2070        10.4850 
        0.1206         0.5020         4.4121         0.0140         1.9580 
        0.6700        51.7240         4.8100         1.6230 
      4507.0000 
        0.8120         1.1000         1.0700         1.0610         0.8990 
       39.6660       134.8007        49.9910        47.7747        10.5080 
        0.1045         0.4740         4.3922         0.0140         1.9363 
        0.6520        51.3650         4.8100         1.5030 
      4507.5000 
        0.8200         1.0410         1.0510         1.0610         0.8990 
       39.1770       135.9006        50.9030        47.1277        11.0520 
        0.1128         0.4558         4.3923         0.0140         1.9383 
        0.6820        50.7750         4.8100         1.3430 
      4508.0000 
        0.8120         1.0410         1.0410         1.0610         0.9070 
       39.8380       136.0006        52.3360        46.4806        10.5350 
        0.1211         0.4374         4.8005         0.0140         1.9313 
        0.6280        50.6630         4.8900         1.3030 
      4508.5000 
        0.7980         1.0610         1.0410         1.0700         0.9160 
       41.2020       135.2008        50.7830        45.9667        10.9220 
        0.1265         0.4368         5.3309         0.0140         1.9062 
        0.5680        51.5100         5.0500         1.3030 
      4509.0000 
        0.8290         1.0900         1.0900         1.0860         0.9330 
       41.2890       134.5010        49.5880        45.9661        11.4470 
        0.1205         0.4534         5.5306         0.0150         1.8714 
        0.4990        51.8570         5.1300         1.3030 
      4509.5000 
        0.8430         1.1000         1.1420         1.0900         0.9680 
       42.0840       133.6012        47.3190        46.8932        11.2330 
        0.1116         0.4571         5.4109         0.0150         1.8645 
        0.4860        51.4210         5.2100         1.3430 
      4510.0000 
        0.8480         1.0610         1.1160         1.0900         0.9680 
       43.6290       133.6013        46.2450        47.8202        12.1730 
        0.1133         0.4612         5.1714         0.0150         1.8675 
        0.4680        51.3040         5.2910         1.5430 
      4510.5000 
        0.8540         1.0800         1.1000         1.0790         0.9680 
       43.5220       134.7011        45.0490        48.6660        12.2560 
        0.1156         0.4761         5.1714         0.0150         1.8665 
        0.4810        51.8450         5.3710         1.5030 
      4511.0000 
        0.8590         1.1000         1.0700         1.0670         0.9410 
       43.1770       135.5010        45.7680        48.6653        11.6730 
        0.1075         0.5007         5.5309         0.0150         1.8312 
        0.4510        53.6550         5.3710         1.4230 
      4511.5000 
        0.8450         1.0410         1.0410         1.0470         0.9330 
       42.4770       136.5008        48.5840        46.9086        10.5450 
        0.0994         0.5157         6.2100         0.0150         1.7976 
        0.4640        53.6050         5.3710         1.3430 
      4512.0000 
        0.8290         0.9950         1.0040         1.0340         0.8910 
       42.2350       137.0007        50.4580        44.7532        12.0410 
        0.0877         0.5504         6.1302         0.0140         1.7877 
        0.4350        53.6450         5.4510         1.3430 
      4512.5000 
        0.8050         0.9950         0.9850         1.0280         0.8830 
       42.2370       137.3007        50.8000        43.5495        10.5750 
        0.0867         0.5436         5.4819         0.0150         1.8350 
        0.4880        53.2260         5.4510         1.3430 
      4513.0000 
        0.8050         1.0320         1.0130         1.0220         0.8910 
       42.1580       137.1007        49.7990        44.4694        10.8540 
        0.1075         0.5354         5.0133         0.0150         1.8773 
        0.4990        52.8440         5.4510         1.3030 
      4513.5000 
        0.8200         1.0130         1.0320         1.0560         0.9070 
       42.1060       136.1010        47.9730        45.3894        11.4540 
        0.1283         0.5042         4.7127         0.0150         1.9265 
        0.5470        51.7380         5.4510         1.1820 
      4514.0000 
        0.8430         1.0410         1.0510         1.1000         0.9070 
       43.9270       134.5015        46.9260        46.2506        11.9360 
        0.1416         0.4464         4.8326         0.0150         1.9405 
        0.5420        52.1890         5.4510         1.1020 
      4514.5000 
        0.8990         1.1110         1.0130         1.1110         0.9240 
       45.3490       133.9017        45.0690        46.0364        12.4260 
        0.1416         0.4344         5.4322         0.0160         1.9355 
        0.5680        53.1970         5.3710         1.0620 
      4515.0000 
        0.9240         1.1000         0.9900         1.0800         0.9240 
       45.1160       133.9018        45.0440        45.8222        13.3330 
        0.1417         0.4461         6.0319         0.0160         1.8746 
        0.4920        53.5360         5.3710         0.9420 
      4515.5000 
        0.9070         1.1210         0.9760         1.0700         0.9240 
       44.5400       133.9019        47.1210        45.6450        13.8520 
        0.1059         0.4659         6.7700         0.0160         1.8138 
        0.4600        53.0120         5.3710         0.9420 
      4516.0000 
        0.8590         1.0800         1.0130         1.1210         0.9590 
       44.2390       134.0019        48.5810        45.6444        12.6930 
        0.0880         0.4856         6.8500         0.0160         1.7708 
        0.4270        51.8530         5.3710         0.9420 
      4516.5000 
        0.8050         1.1420         1.1210         1.1150         1.1520 
       44.9430       134.7017        48.6540        46.6283        11.3450 
        0.0758         0.4989         6.7392         0.0160         1.7399 
        0.4190        51.4490         5.5310         0.9420 
      4517.0000 
        0.8280         1.1310         1.0700         1.1030         1.1840 
       44.9190       135.3016        48.0090        47.6121        11.8170 
        0.0678         0.5060         6.6283         0.0160         1.7510 
        0.4080        52.3110         5.6110         0.9420 
      4517.5000 
        0.8590         1.0900         1.0220         1.0700         1.1310 
       44.9900       135.3016        48.4950        48.9449        12.2520 
        0.0747         0.4893         6.5507         0.0160         1.7569 
        0.4230        52.8250         5.6110         1.0220 
      4518.0000 
        0.8740         1.0700         1.0700         1.0510         1.0700 
       45.0900       135.0018        50.0420        47.9606        12.5650 
        0.0815         0.4725         6.4709         0.0160         1.7738 
        0.4550        52.5660         5.6110         1.1020 
      4518.5000 
        0.8430         1.1310         1.0320         1.0510         1.1000 
       43.7270       134.1022        50.7020        46.9763        11.5280 
        0.0868         0.4610         6.0517         0.0160         1.8061 
        0.4900        51.9490         5.5310         1.0620 
      4519.0000 
        0.8200         1.1310         1.1000         1.1000         1.1420 
       43.0360       133.8023        49.7090        45.9919        10.9310 
        0.0926         0.4694         6.0716         0.0150         1.8384 
        0.4860        51.9380         5.4510         1.0620 
