~Version Information Block
VERS .                 2.00:  CWLS LOG ASCII STANDARD - VERSION 2.00
WRAP .                  YES:  Multiple lines per depth step
~Well Information Block
#MNEM.UNIT        Data Type   Information
#---------- ----------------  -----------
STRT .F                 294:  START DEPTH
STOP .F              5041.5:  STOP DEPTH
STEP .F                 0.5:  STEP
NULL .              -999.25:  NULL VALUE
COMP .     TEXACO NORTH SEA LTD.:  COMPANY
WELL .              9/11A-9:  WELL
FLD  .              MARINER:  FIELD
LOC  .       X=390680.74mE Y=6606678.22mN:  LOCATION
PROV .                 UKCS:  PROVINCE
SRVC .         SCHLUMBERGER:  SERVICE COMPANY
DATE .     09-01-97 TO 27-01-97:  LOG DATE
UWI  .                25043:  UNIQUE WELL ID
~Curve Information Block
#MNEM.UNIT         API CODE   Curve Description
#---------- ----------------  -----------------
DEPTH.F                    :  Depth in Feet
AHT10.OHMM                 :  Edited AIT-H 10 Inch Investigation (AHT10)
AHT20.OHMM                 :  Edited AIT-H 20 Inch Investigation (AHT20)
AHT30.OHMM                 :  Edited AIT-H 30 Inch Investigation (AHT30)
AHT60.OHMM                 :  Edited AIT-H 60 Inch Investigation (AHT60)
AHT90.OHMM                 :  Edited AIT-H 90 Inch Investigation (AHT90)
CGR  .GAPI                 :  Edited Computed Gamma Ray from NGT
DT   .US/FT                 :  Merged Delta-T from SDT
GR   .GAPI                 :  Merged HILTB Gamma Ray
GRS  .GAPI                 :  Merged Gamma Ray from SDT
HCAL .IN                   :  Edited HILTB Caliper
HDRA .G/C3                 :  Edited Density Correction
NPHI .V/V                  :  Edited Neutron Porosity
PEFZ .B/E                  :  Edited Photo-electric
POTA .                     :  Edited Potassium from NGT
RHOZ .G/C3                 :  Edited Bulk Density Caliper
RXOZ .OHMM                 :  Edited Std. Res. Invaded Zone Resistivity
SGR  .GAPI                 :  Edited Spectral Gamma Ray from NGT
THOR .PPM                  :  Edited Thorium from NGT
URAN .PPM                  :  Edited Uranium from NGT
~Parameter Information Block
#MNEM.UNIT            Value   Description
#---------- ----------------  -----------
SET  .            COMP_WIRE:  
PROJ .             88TH_I_1:  
DATU .                  MSL:  
DMF  .          Drill Floor:  Drilling Measured From
TDD  .F                5055:  
EDF  .F                  82:  Elevation of Derrick Floor
EKB  .F                  82:  
EPD  .F                   0:  Elevation Of Perm. Datum
LATI .     59DEG 34' 57.497 N:  
LCC  .                  440:  Logging Company Code
LONG .     01DEG 03' 51.604:  
LMF  .          DRILL FLOOR:  
ORDU .                 FEET:  
PDAT .                  MSL:  
RIG_NAME.     BORGSTEN DOLPHIN:  
SURF .F                -355:  
~Other Information Block
~Ascii Log Data
# ...
      2697.0000 
        1.3470         1.5180         1.4500         1.4770         1.1740 
     -999.2500       150.7837        45.3010        39.9074         8.9030 
        0.0847         0.4834         2.0542      -999.2500         2.0188 
        0.9590      -999.2500      -999.2500      -999.2500 
      2697.5000 
        1.2870         1.5320         1.5040         1.5320         1.1740 
     -999.2500       152.6808        47.1440        39.9076         8.9800 
        0.0773         0.5014         1.9544      -999.2500         2.0188 
        1.0220      -999.2500      -999.2500      -999.2500 
      2698.0000 
        1.2750         1.4900         1.5040         1.4370         1.1520 
     -999.2500       153.3798        48.9050        38.7033         9.6190 
        0.0736         0.4876         1.6951      -999.2500         2.0248 
        1.1840      -999.2500      -999.2500      -999.2500 
      2698.5000 
        1.2170         1.3720         1.4500         1.3720         1.1420 
     -999.2500       152.8806        48.7230        37.4987         9.3390 
        0.0636         0.4781         1.8011      -999.2500         2.0228 
        1.2290      -999.2500      -999.2500      -999.2500 
      2699.0000 
        1.1420         1.3100         1.3590         1.3590         1.1520 
     -999.2500       152.1817        47.1650        36.2943         9.0170 
        0.0596         0.4761         1.9070      -999.2500         2.0028 
        1.1840      -999.2500      -999.2500      -999.2500 
      2699.5000 
        1.1420         1.4230         1.3850         1.3850         1.0700 
     -999.2500       151.4827        44.1450        35.9935         9.5100 
        0.0656         0.4751         2.0339      -999.2500         2.0018 
        1.1310      -999.2500      -999.2500      -999.2500 
      2700.0000 
        1.2120         1.3780         1.4840         1.4370         1.1420 
     -999.2500       150.2846        44.2050        36.2951         9.6770 
        0.0745         0.4488         1.7779      -999.2500         2.0378 
        1.2400      -999.2500      -999.2500      -999.2500 
      2700.5000 
        1.3220         1.2750         1.5890         1.5040         1.2400 
     -999.2500       150.2846        45.2150        36.2955         9.9720 
        0.0788         0.4183         1.5219      -999.2500         2.0677 
        1.2290      -999.2500      -999.2500      -999.2500 
      2701.0000 
        1.3720         1.4370         1.4900         1.5040         1.2400 
     -999.2500       145.0924        47.5900        36.5968         9.2080 
        0.0815         0.4177         1.3546      -999.2500         2.0766 
        1.2870      -999.2500      -999.2500      -999.2500 
      2701.5000 
        1.2980         1.5040         1.4630         1.4770         1.2170 
     -999.2500       146.6900        48.8320        37.4506         9.2260 
        0.0645         0.4178         1.4934      -999.2500         2.0571 
        1.2520      -999.2500      -999.2500      -999.2500 
      2702.0000 
        1.3220         1.5320         1.5600         1.4900         1.2870 
     -999.2500       147.4888        49.4160        38.3043         9.1530 
        0.0685         0.4184         1.7578      -999.2500         2.0446 
        1.2060      -999.2500      -999.2500      -999.2500 
      2702.5000 
        1.3350         1.5180         1.5750         1.5750         1.3470 
     -999.2500       148.6871        50.3660        39.0078         9.0640 
        0.0725         0.4340         2.1218      -999.2500         2.0525 
        1.1840      -999.2500      -999.2500      -999.2500 
      2703.0000 
        1.4370         1.6950         1.5600         1.6490         1.3970 
     -999.2500       149.1864        51.5940        39.6104         8.9740 
        0.0775         0.4340         2.4087      -999.2500         2.0689 
        1.2400      -999.2500      -999.2500      -999.2500 
      2703.5000 
        1.4500         1.6490         1.6640         1.7260         1.4230 
     -999.2500       148.9995        53.4410        39.4662         8.8840 
        0.0749         0.4209         2.3282      -999.2500         2.0844 
        1.2630      -999.2500      -999.2500      -999.2500 
      2704.0000 
        1.2820         1.5600         1.6640         1.5460         1.2630 
     -999.2500       148.3876        54.3710        39.3220         8.7950 
        0.0655         0.4287         2.2074      -999.2500         2.1058 
        1.3470      -999.2500      -999.2500      -999.2500 
      2704.5000 
        1.2030         1.3970         1.5320         1.3430         1.0510 
     -999.2500       147.1894        52.2180        39.1778         8.7050 
        0.0396         0.4257         2.0165      -999.2500         2.1262 
        1.4230      -999.2500      -999.2500      -999.2500 
      2705.0000 
        1.1310         1.2690         1.2290         1.1420         0.8550 
     -999.2500       144.9926        47.8930        39.0336         8.6140 
        0.0066         0.3952         1.8255      -999.2500         2.1271 
        1.6260      -999.2500      -999.2500      -999.2500 
      2705.5000 
        0.9140         0.9950         0.9350         0.9500         0.7550 
     -999.2500       143.2951        39.0300        35.6971         8.6000 
       -0.0093         0.3575         1.6871      -999.2500         2.0799 
        1.3720      -999.2500      -999.2500      -999.2500 
      2706.0000 
        0.7500         0.8120         0.8050         0.7830         0.6700 
     -999.2500       142.4963        30.2680        27.8670         8.6000 
       -0.0323         0.3270         1.3924      -999.2500         2.0466 
        1.2520      -999.2500      -999.2500      -999.2500 
      2706.5000 
        0.6820         0.7340         0.7430         0.6950         0.6220 
     -999.2500       141.4978        21.4780        22.7476         8.6000 
       -0.0343         0.3144         1.1869      -999.2500         2.0053 
        1.1740      -999.2500      -999.2500      -999.2500 
      2707.0000 
        0.6520         0.7080         0.6950         0.6700         0.5940 
     -999.2500       146.0911        14.9820        17.6285         8.6000 
       -0.0313         0.3175         1.0864      -999.2500         2.0073 
        1.1520      -999.2500      -999.2500      -999.2500 
      2707.5000 
        0.6400         0.7010         0.6700         0.6640         0.5940 
     -999.2500       150.9839        13.6840        17.0264         8.6000 
       -0.0342         0.3226         1.1194      -999.2500         2.0052 
        1.1520      -999.2500      -999.2500      -999.2500 
      2708.0000 
        0.6400         0.7210         0.6580         0.6760         0.6110 
     -999.2500       154.3790        14.6890        16.4251         8.6010 
       -0.0352         0.3229         1.1523      -999.2500         2.0072 
        1.1420      -999.2500      -999.2500      -999.2500 
      2708.5000 
        0.6520         0.7210         0.6950         0.6950         0.6220 
     -999.2500       155.2777        16.0330        16.6104         8.6030 
       -0.0363         0.3146         1.1853      -999.2500         2.0029 
        1.1310      -999.2500      -999.2500      -999.2500 
      2709.0000 
        0.6580         0.7210         0.6820         0.6950         0.6280 
     -999.2500       155.0781        17.3290        16.7958         8.6040 
       -0.0373         0.3062         1.2227      -999.2500         2.0002 
        1.1210      -999.2500      -999.2500      -999.2500 
      2709.5000 
        0.6700         0.7280         0.6700         0.7340         0.6280 
     -999.2500       154.9782        17.6200        16.9811         8.6060 
       -0.0382         0.3062         1.2220      -999.2500         2.0041 
        1.1110      -999.2500      -999.2500      -999.2500 
      2710.0000 
        0.6760         0.7210         0.6920         0.7210         0.6220 
     -999.2500       154.5789        16.5920        15.5238         8.6070 
       -0.0394         0.3313         1.2210      -999.2500         2.0111 
        1.1520      -999.2500      -999.2500      -999.2500 
