~Version Information Block
VERS .                 2.00:  CWLS LOG ASCII STANDARD - VERSION 2.00
WRAP .                  YES:  Multiple lines per depth step
~Well Information Block
#MNEM.UNIT        Data Type   Information
#---------- ----------------  -----------
STRT .F                 294:  START DEPTH
STOP .F              5041.5:  STOP DEPTH
STEP .F                 0.5:  STEP
NULL .              -999.25:  NULL VALUE
COMP .     TEXACO NORTH SEA LTD.:  COMPANY
WELL .              9/11A-9:  WELL
FLD  .              MARINER:  FIELD
LOC  .       X=390680.74mE Y=6606678.22mN:  LOCATION
PROV .                 UKCS:  PROVINCE
SRVC .         SCHLUMBERGER:  SERVICE COMPANY
DATE .     09-01-97 TO 27-01-97:  LOG DATE
UWI  .                25043:  UNIQUE WELL ID
~Curve Information Block
#MNEM.UNIT         API CODE   Curve Description
#---------- ----------------  -----------------
DEPTH.F                    :  Depth in Feet
AHT10.OHMM                 :  Edited AIT-H 10 Inch Investigation (AHT10)
AHT20.OHMM                 :  Edited AIT-H 20 Inch Investigation (AHT20)
AHT30.OHMM                 :  Edited AIT-H 30 Inch Investigation (AHT30)
AHT60.OHMM                 :  Edited AIT-H 60 Inch Investigation (AHT60)
AHT90.OHMM                 :  Edited AIT-H 90 Inch Investigation (AHT90)
CGR  .GAPI                 :  Edited Computed Gamma Ray from NGT
DT   .US/FT                 :  Merged Delta-T from SDT
GR   .GAPI                 :  Merged HILTB Gamma Ray
GRS  .GAPI                 :  Merged Gamma Ray from SDT
HCAL .IN                   :  Edited HILTB Caliper
HDRA .G/C3                 :  Edited Density Correction
NPHI .V/V                  :  Edited Neutron Porosity
PEFZ .B/E                  :  Edited Photo-electric
POTA .                     :  Edited Potassium from NGT
RHOZ .G/C3                 :  Edited Bulk Density Caliper
RXOZ .OHMM                 :  Edited Std. Res. Invaded Zone Resistivity
SGR  .GAPI                 :  Edited Spectral Gamma Ray from NGT
THOR .PPM                  :  Edited Thorium from NGT
URAN .PPM                  :  Edited Uranium from NGT
~Parameter Information Block
#MNEM.UNIT            Value   Description
#---------- ----------------  -----------
SET  .            COMP_WIRE:  
PROJ .             88TH_I_1:  
DATU .                  MSL:  
DMF  .          Drill Floor:  Drilling Measured From
TDD  .F                5055:  
EDF  .F                  82:  Elevation of Derrick Floor
EKB  .F                  82:  
EPD  .F                   0:  Elevation Of Perm. Datum
LATI .     59DEG 34' 57.497 N:  
LCC  .                  440:  Logging Company Code
LONG .     01DEG 03' 51.604:  
LMF  .          DRILL FLOOR:  
ORDU .                 FEET:  
PDAT .                  MSL:  
RIG_NAME.     BORGSTEN DOLPHIN:  
SURF .F                -355:  
~Other Information Block
~Ascii Log Data
# ...
      4344.0000 
        2.0560         1.2870         1.2750         1.6490         2.2600 
       60.5730       137.8664        66.3690        63.1739         9.6660 
        0.0438         0.4615         2.1573         0.0200         2.1819 
        1.1520        69.4960         8.4170         0.8220 
      4344.5000 
        3.3650         1.2980         1.3220         1.8930         3.7020 
       63.1290       136.9031        64.5120        61.8842         9.7860 
        0.0378         0.4309         2.2142         0.0210         2.1749 
        1.1520        72.1510         8.2000         0.9820 
      4345.0000 
        4.8110         1.2870         1.3720         1.9640         5.3970 
       62.8130       137.9021        61.1870        60.5945         9.8760 
        0.0383         0.4297         2.2778         0.0210         2.1745 
        1.1790        73.5160         8.2650         0.9820 
      4345.5000 
        3.7020         1.4100         1.3350         1.8410         4.4040 
       62.6370       141.9980        60.6000        57.7613        10.1990 
        0.0388         0.4495         2.2573         0.0200         2.1739 
        1.2290        72.4270         8.3370         1.0220 
      4346.0000 
        2.2000         1.3970         1.3970         1.5750         1.7580 
       62.2310       145.2947        60.5280        57.4605        10.9310 
        0.0331         0.4494         2.2382         0.0210         2.1683 
        1.3220        70.7010         8.3370         1.0220 
      4346.5000 
        1.5890         1.4230         1.4500         1.3850         2.1130 
       63.1470       144.3956        60.4290        55.2546        10.5270 
        0.0273         0.4488         2.0785         0.0220         2.1639 
        1.3350        70.5850         8.3370         0.9820 
      4347.0000 
        1.4630         1.2980         1.3220         1.2980         3.1450 
       63.7330       142.3976        59.6060        53.0486         9.9970 
        0.0209         0.4254         1.8951         0.0220         2.1639 
        1.1740        70.1590         8.1760         0.8620 
      4347.5000 
        1.6490         1.3970         1.5920         1.5460         4.3300 
       63.9250       140.3996        58.2510        50.5433        10.9160 
        0.0299         0.4254         1.7117         0.0220         2.1561 
        1.1420        68.3210         8.1760         0.7410 
      4348.0000 
        2.0090         3.2420         3.6690         2.1950         5.9850 
       62.7690       139.0010        53.9480        35.5008        10.1060 
        0.0319         0.4422         1.4792         0.0210         2.1490 
        1.2360        63.9550         7.9360         0.5410 
      4348.5000 
        3.5690         4.4910         3.5690         5.9170         8.5320 
       61.1560       138.2018        49.3360        33.0809         9.5450 
        0.0659         0.4158         1.1194         0.0200         2.1660 
        2.4590        59.3590         7.5350         0.3410 
      4349.0000 
        4.7020         8.9480        10.1770         9.8100        19.0140 
       52.9860       145.4945        42.4730        30.6609        10.1910 
        0.0800         0.3843         1.2596         0.0180         2.0872 
        4.1340        53.5540         6.3330         0.2200 
      4349.5000 
        4.5740         9.3690        17.3440         9.4550        16.2630 
       45.2790       151.3580        35.7750        28.2410        10.6260 
        0.0816         0.3600         2.2599         0.0160         2.0213 
        2.3620        44.0080         6.0120         0.2200 
      4350.0000 
        2.7840         8.3140         6.0820         7.1770         6.6680 
       37.6280       157.4825        29.0960        25.8210        12.1550 
        0.0833         0.3600         3.2835         0.0130         1.9580 
        1.2520        35.7620         5.5310         0.2200 
      4350.5000 
        3.0650         4.8780         7.3770         4.9690         6.9180 
       29.7610       156.3021        26.3460        24.3706        11.9620 
        0.0850         0.4169         4.3072         0.0100         1.9069 
        0.9950        26.9370         4.3290         0.0600 
      4351.0000 
        4.8060        22.0140        21.1560         9.3210        21.8250 
       28.7020       155.9840        25.8310        23.7692        12.3660 
        0.0872         0.4488         5.6010         0.0100         1.8740 
        1.0510        27.6770         3.1260         0.0600 
      4351.5000 
        6.7290        38.2360        36.1840        48.2750        97.4730 
       27.4610       150.2897        26.3210        22.5659        11.7820 
        0.0894         0.4493         5.6010         0.0100         1.8681 
        1.2520        27.5670         2.8860         0.0200 
      4352.0000 
       95.9890       229.5670       156.8860       235.9860       557.0670 
       27.1050       141.0989        26.2420        23.2826        11.3130 
        0.0921         0.4498         5.3814         0.0110         1.8781 
        1.1420        28.2700         2.7250        -0.0020 
      4352.5000 
      336.7470       428.9110       465.9030       449.0840      1637.9080 
       26.7690       141.2987        26.2500        23.9993        10.8390 
        0.0888         0.4505         4.3221         0.0110         1.9011 
        1.3590        28.7990         2.6450        -0.0200 
      4353.0000 
      465.9030       207.4900       382.6940       333.1570      2267.2241 
       26.2290       141.6616        26.5480        24.7160        10.6680 
        0.0871         0.4403         3.9222         0.0110         1.9451 
        1.3220        28.2060         2.4050         0.0600 
      4353.5000 
      192.7800       229.8700       207.4900       201.8470      2849.1980 
       26.7150       141.9980        27.2100        25.4327         9.6910 
        0.0921         0.4181         3.0828         0.0110         2.0151 
        1.7200        28.0900         2.3250         0.0600 
      4354.0000 
      288.8750       261.0950       278.4470       328.5480      2551.6340 
       27.8670       141.2961        27.6730        25.8770         8.9510 
        0.0862         0.3857         2.8832         0.0110         2.0112 
        2.3820        27.5090         2.1640         0.1400 
      4354.5000 
      193.6420       193.1500       207.4900       200.0000       569.5300 
       27.7240       140.8991        25.5560        24.3728         9.4100 
        0.0672         0.3857         2.8966         0.0110         1.9612 
        1.6340        27.7880         2.0840         0.1400 
      4355.0000 
      141.1280       130.9430       135.9460       189.2680       370.2500 
       27.7890       140.4786        23.7750        24.9885         8.9650 
        0.0262         0.4175         2.8638         0.0110         1.9572 
        1.7750        27.6540         1.9640         0.1400 
      4355.5000 
       29.0400        26.9630       194.5600       123.1590       266.7040 
       25.5210       140.0581        22.1740        25.6041         9.2370 
        0.0192         0.4121         2.2044         0.0110         1.9702 
        1.9640        27.1500         1.7640         0.1400 
      4356.0000 
       11.0550        81.2480       111.0560        59.0430       112.5540 
       24.4670       135.7043        22.5240        26.2198         9.5070 
       -0.0025         0.3747         1.8447         0.0110         2.0422 
        6.1440        26.6440         1.6030         0.1400 
      4356.5000 
       19.7820        72.7630        82.7550        40.4040       120.6340 
       24.4330       134.8011        23.8730        27.9850         9.8420 
       -0.0097         0.3394         1.2253         0.0120         2.0443 
       13.1640        26.8250         1.5230         0.1400 
      4357.0000 
       46.8680        91.5610       151.7990       166.4140       341.2550 
       25.7540       134.0060        26.3000        27.3834         9.5560 
       -0.0127         0.3190         1.1456         0.0120         2.0324 
       11.0270        28.0370         1.6030         0.1800 
