~Version Information Block
VERS .                 2.00:  CWLS LOG ASCII STANDARD - VERSION 2.00
WRAP .                  YES:  Multiple lines per depth step
~Well Information Block
#MNEM.UNIT        Data Type   Information
#---------- ----------------  -----------
STRT .F                 294:  START DEPTH
STOP .F              5041.5:  STOP DEPTH
STEP .F                 0.5:  STEP
NULL .              -999.25:  NULL VALUE
COMP .     TEXACO NORTH SEA LTD.:  COMPANY
WELL .              9/11A-9:  WELL
FLD  .              MARINER:  FIELD
LOC  .       X=390680.74mE Y=6606678.22mN:  LOCATION
PROV .                 UKCS:  PROVINCE
SRVC .         SCHLUMBERGER:  SERVICE COMPANY
DATE .     09-01-97 TO 27-01-97:  LOG DATE
UWI  .                25043:  UNIQUE WELL ID
~Curve Information Block
#MNEM.UNIT         API CODE   Curve Description
#---------- ----------------  -----------------
DEPTH.F                    :  Depth in Feet
AHT10.OHMM                 :  Edited AIT-H 10 Inch Investigation (AHT10)
AHT20.OHMM                 :  Edited AIT-H 20 Inch Investigation (AHT20)
AHT30.OHMM                 :  Edited AIT-H 30 Inch Investigation (AHT30)
AHT60.OHMM                 :  Edited AIT-H 60 Inch Investigation (AHT60)
AHT90.OHMM                 :  Edited AIT-H 90 Inch Investigation (AHT90)
CGR  .GAPI                 :  Edited Computed Gamma Ray from NGT
DT   .US/FT                 :  Merged Delta-T from SDT
GR   .GAPI                 :  Merged HILTB Gamma Ray
GRS  .GAPI                 :  Merged Gamma Ray from SDT
HCAL .IN                   :  Edited HILTB Caliper
HDRA .G/C3                 :  Edited Density Correction
NPHI .V/V                  :  Edited Neutron Porosity
PEFZ .B/E                  :  Edited Photo-electric
POTA .                     :  Edited Potassium from NGT
RHOZ .G/C3                 :  Edited Bulk Density Caliper
RXOZ .OHMM                 :  Edited Std. Res. Invaded Zone Resistivity
SGR  .GAPI                 :  Edited Spectral Gamma Ray from NGT
THOR .PPM                  :  Edited Thorium from NGT
URAN .PPM                  :  Edited Uranium from NGT
~Parameter Information Block
#MNEM.UNIT            Value   Description
#---------- ----------------  -----------
SET  .            COMP_WIRE:  
PROJ .             88TH_I_1:  
DATU .                  MSL:  
DMF  .          Drill Floor:  Drilling Measured From
TDD  .F                5055:  
EDF  .F                  82:  Elevation of Derrick Floor
EKB  .F                  82:  
EPD  .F                   0:  Elevation Of Perm. Datum
LATI .     59DEG 34' 57.497 N:  
LCC  .                  440:  Logging Company Code
LONG .     01DEG 03' 51.604:  
LMF  .          DRILL FLOOR:  
ORDU .                 FEET:  
PDAT .                  MSL:  
RIG_NAME.     BORGSTEN DOLPHIN:  
SURF .F                -355:  
~Other Information Block
~Ascii Log Data
# ...
      4182.0000 
        1.0610         1.1310         1.0900         1.0700         0.9240 
       36.1400       144.6878        55.6830        45.9948        11.9500 
        0.0665         0.5085         3.1693         0.0100         2.0326 
        0.7980        46.9630         5.8520         1.3030 
      4182.5000 
        0.9950         1.0800         1.0220         1.0610         0.9240 
       35.0670       145.0870        58.2560        51.7064        11.3460 
        0.0475         0.4424         2.6724         0.0110         2.0646 
        0.8900        47.3360         6.0120         1.3030 
      4183.0000 
        1.0320         1.0510         1.0700         1.0800         0.9850 
       46.3100       145.6859        57.0850        52.3076        12.1870 
        0.0215         0.4076         2.3527         0.0130         2.0646 
        0.9760        52.2960         6.4930         1.3030 
      4183.5000 
        1.1740         1.1950         1.3100         1.2170         1.1110 
       49.7940       145.7858        57.0750        53.8106        10.8470 
        0.0245         0.3951         2.3130         0.0140         2.0656 
        1.1030        55.4960         7.2140         1.3030 
      4184.0000 
        1.2630         1.3590         1.3850         1.2290         1.1310 
       50.7090       140.3992        57.0850        60.7247         9.9160 
        0.0255         0.3836         1.9694         0.0150         2.0999 
        1.3860        58.8180         7.5350         1.3030 
      4184.5000 
        1.2630         1.4100         1.4500         1.1650         1.0900 
       50.1110       139.5010        57.6430        61.1139         9.3440 
        0.0506         0.4022         1.5935         0.0150         2.1407 
        1.9640        60.2860         7.7760         1.1820 
      4185.0000 
        1.1630         1.3100         1.2980         1.0800         1.0510 
       49.8430       139.8004        58.6790        61.5031         9.2660 
        0.0796         0.4280         1.3938         0.0150         2.1297 
        1.8410        60.3340         7.9360         1.1820 
      4185.5000 
        1.0220         1.0900         1.1840         1.0050         0.8590 
       49.6050       131.5168        58.6420        61.8923        10.1890 
        0.0866         0.4539         1.4539         0.0150         2.0776 
        1.2860        59.3380         7.5350         1.2220 
      4186.0000 
        0.9160         1.0410         1.0040         0.9430         0.8120 
       48.3760       134.7882        58.2750        60.4237        12.9020 
        0.1066         0.4574         2.0741         0.0150         2.0087 
        1.0220        58.9730         7.2140         1.2220 
      4186.5000 
        0.8910         1.0320         0.9240         0.9330         0.8510 
       47.4460       138.2593        55.4970        57.2691        11.9870 
        0.1136         0.4526         3.1542         0.0140         1.9837 
        0.8280        59.0240         7.2140         1.2630 
      4187.0000 
        0.9240         0.9950         1.0040         0.9410         0.8830 
       44.4380       142.3931        53.0640        51.1044        10.1190 
        0.1205         0.4466         3.2344         0.0130         1.9817 
        0.7760        56.5380         7.2140         1.3830 
      4187.5000 
        0.9850         0.9590         0.9410         0.9590         0.8830 
       43.1290       144.5888        51.5630        51.1044        10.7760 
        0.1275         0.4405         3.1547         0.0130         1.9947 
        0.8050        54.3180         7.2140         1.3830 
      4188.0000 
        1.0320         1.0130         0.9760         0.9680         0.8660 
       42.2440       144.4891        51.1760        51.1043        11.3950 
        0.1316         0.4344         3.1347         0.0130         1.9958 
        0.7210        52.1300         6.5730         1.3030 
      4188.5000 
        1.0320         1.0410         1.0130         0.9590         0.8590 
       42.2460       143.6908        51.7770        50.8308        11.0790 
        0.1387         0.4268         3.4351         0.0130         1.9878 
        0.7410        53.0300         6.6530         1.2630 
      4189.0000 
        1.0130         1.0320         0.9950         0.9850         0.8590 
       43.3860       142.5930        52.2400        50.5572        10.5500 
        0.1283         0.4802         4.0951         0.0140         1.9447 
        0.6890        53.7730         6.6530         1.2220 
      4189.5000 
        1.0130         1.0610         0.9850         1.0130         0.8990 
       44.1770       141.9943        52.0790        50.2021        11.6220 
        0.1207         0.4754         4.3554         0.0140         1.9267 
        0.6700        53.0670         6.6530         1.1420 
      4190.0000 
        1.0130         1.0700         1.0220         1.0130         0.9590 
       44.2610       142.2938        51.6050        50.2021        11.4840 
        0.1287         0.4502         4.1356         0.0130         1.9818 
        0.7080        52.2810         6.4930         1.0620 
      4190.5000 
        1.0220         1.0610         1.0410         0.9950         0.9590 
       43.3910       142.1940        50.5640        49.3002        11.5450 
        0.1297         0.4692         3.8907         0.0130         1.9778 
        0.8200        51.6240         6.3330         1.0620 
      4191.0000 
        1.0040         1.0700         0.9850         0.9850         0.8910 
       42.8750       142.1941        49.9760        48.0977        10.9380 
        0.1207         0.4856         3.6361         0.0130         1.9387 
        0.7460        51.5120         6.1720         1.0620 
      4191.5000 
        1.0040         0.9850         0.9590         0.9900         0.8660 
       42.2450       142.2940        50.6810        47.7970        10.5380 
        0.0738         0.5067         3.4363         0.0130         1.8378 
        0.5570        52.0760         6.1720         1.1420 
      4192.0000 
        1.0320         1.0610         1.0220         1.0130         0.9240 
       42.5470       143.1923        51.5270        48.3981        12.0390 
        0.0728         0.5278         2.9765         0.0140         1.8358 
        0.5420        52.5340         6.1720         1.1820 
      4192.5000 
        1.0610         1.0700         1.0900         1.0410         0.9760 
       43.7520       143.8910        51.5890        48.6986        12.8720 
        0.1018         0.5419         2.5567         0.0130         1.9338 
        0.7550        53.1230         6.3330         1.1820 
      4193.0000 
        1.0610         1.0510         1.0800         1.0510         0.9590 
       44.7680       144.7893        50.7490        47.4961        11.8270 
        0.1098         0.5467         1.9971         0.0130         1.9498 
        0.8590        53.9510         6.8140         1.2220 
      4193.5000 
        1.0510         1.0800         1.0610         1.0290         0.9410 
       45.2710       145.7874        49.7180        46.8948        13.3270 
        0.1049         0.5029         2.2972         0.0140         1.9148 
        0.6680        54.6310         7.0540         1.2220 
      4194.0000 
        1.0900         1.0700         1.1110         1.0220         0.9500 
       46.2170       145.6877        49.2310        47.1953        12.2960 
        0.1238         0.4654         2.8974         0.0140         1.9188 
        0.6110        55.5100         7.2140         1.1820 
      4194.5000 
        1.1520         1.1420         1.1310         1.0700         0.9850 
       47.1170       145.0889        48.4080        47.7965        11.8840 
        0.1308         0.4278         3.0700         0.0140         2.0019 
        0.8050        55.4870         7.2950         1.1420 
      4195.0000 
        1.1630         1.1210         1.1210         1.0510         0.9760 
       46.2390       143.8914        47.7350        48.3976        12.7470 
        0.1269         0.3919         3.2426         0.0130         2.0009 
        0.7340        52.9430         7.2950         0.9820 
