~Version Information Block
VERS .                 2.00:  CWLS LOG ASCII STANDARD - VERSION 2.00
WRAP .                  YES:  Multiple lines per depth step
~Well Information Block
#MNEM.UNIT        Data Type   Information
#---------- ----------------  -----------
STRT .F                 294:  START DEPTH
STOP .F              5041.5:  STOP DEPTH
STEP .F                 0.5:  STEP
NULL .              -999.25:  NULL VALUE
COMP .     TEXACO NORTH SEA LTD.:  COMPANY
WELL .              9/11A-9:  WELL
FLD  .              MARINER:  FIELD
LOC  .       X=390680.74mE Y=6606678.22mN:  LOCATION
PROV .                 UKCS:  PROVINCE
SRVC .         SCHLUMBERGER:  SERVICE COMPANY
DATE .     09-01-97 TO 27-01-97:  LOG DATE
UWI  .                25043:  UNIQUE WELL ID
~Curve Information Block
#MNEM.UNIT         API CODE   Curve Description
#---------- ----------------  -----------------
DEPTH.F                    :  Depth in Feet
AHT10.OHMM                 :  Edited AIT-H 10 Inch Investigation (AHT10)
AHT20.OHMM                 :  Edited AIT-H 20 Inch Investigation (AHT20)
AHT30.OHMM                 :  Edited AIT-H 30 Inch Investigation (AHT30)
AHT60.OHMM                 :  Edited AIT-H 60 Inch Investigation (AHT60)
AHT90.OHMM                 :  Edited AIT-H 90 Inch Investigation (AHT90)
CGR  .GAPI                 :  Edited Computed Gamma Ray from NGT
DT   .US/FT                 :  Merged Delta-T from SDT
GR   .GAPI                 :  Merged HILTB Gamma Ray
GRS  .GAPI                 :  Merged Gamma Ray from SDT
HCAL .IN                   :  Edited HILTB Caliper
HDRA .G/C3                 :  Edited Density Correction
NPHI .V/V                  :  Edited Neutron Porosity
PEFZ .B/E                  :  Edited Photo-electric
POTA .                     :  Edited Potassium from NGT
RHOZ .G/C3                 :  Edited Bulk Density Caliper
RXOZ .OHMM                 :  Edited Std. Res. Invaded Zone Resistivity
SGR  .GAPI                 :  Edited Spectral Gamma Ray from NGT
THOR .PPM                  :  Edited Thorium from NGT
URAN .PPM                  :  Edited Uranium from NGT
~Parameter Information Block
#MNEM.UNIT            Value   Description
#---------- ----------------  -----------
SET  .            COMP_WIRE:  
PROJ .             88TH_I_1:  
DATU .                  MSL:  
DMF  .          Drill Floor:  Drilling Measured From
TDD  .F                5055:  
EDF  .F                  82:  Elevation of Derrick Floor
EKB  .F                  82:  
EPD  .F                   0:  Elevation Of Perm. Datum
LATI .     59DEG 34' 57.497 N:  
LCC  .                  440:  Logging Company Code
LONG .     01DEG 03' 51.604:  
LMF  .          DRILL FLOOR:  
ORDU .                 FEET:  
PDAT .                  MSL:  
RIG_NAME.     BORGSTEN DOLPHIN:  
SURF .F                -355:  
~Other Information Block
~Ascii Log Data
# ...
      4681.5000 
        1.0320         1.1630         1.1630         1.1630         1.0410 
       47.2930       135.1851        47.5690        52.0873        12.1740 
        0.0772         0.4666         8.9852         0.0160         1.6643 
        0.4000        58.2060         6.4130         1.0620 
      4682.0000 
        1.0130         1.1110         1.2060         1.1210         0.9590 
       46.3800       137.3654        48.2000        51.5844        11.4730 
        0.0843         0.4966         8.8187         0.0160         1.6683 
        0.3930        57.6520         6.4130         1.0620 
      4682.5000 
        1.0320         1.1420         1.1740         1.0900         0.9330 
       46.0180       135.9432        48.4070        51.0757        12.3740 
        0.0803         0.5362         8.6060         0.0170         1.6883 
        0.4230        56.2350         6.3330         1.0620 
      4683.0000 
        0.9950         1.1630         1.1420         1.1210         0.9680 
       45.5440       134.5211        48.8830        52.2797        12.0770 
        0.0803         0.5560         7.9466         0.0160         1.7633 
        0.4640        55.4120         6.3330         0.9820 
      4683.5000 
        0.9330         1.1210         1.2170         1.1630         1.0410 
       46.0950       132.7693        49.3870        52.2780        14.8480 
        0.0903         0.5434         7.4669         0.0160         1.8673 
        0.5570        54.5530         6.3330         0.9820 
      4684.0000 
        0.9240         1.1630         1.2060         1.2290         1.0800 
       46.4240       135.3693        50.2760        52.2772        13.7500 
        0.0984         0.5434         7.5273         0.0160         1.8694 
        0.5230        54.5590         6.3330         0.9420 
      4684.5000 
        1.1310         1.0700         1.4230         1.3850         1.0320 
       46.9400       136.5697        51.2850        51.8559        12.0940 
        0.0844         0.5386         7.7632         0.0160         1.8034 
        0.4770        55.0550         6.3330         0.9420 
      4685.0000 
        1.0900         1.0800         1.2170         1.2400         0.9760 
       48.0190       138.2704        53.5260        51.4345        12.6560 
        0.0734         0.5363         7.9990         0.0160         1.7624 
        0.4510        57.0310         6.3330         0.9420 
      4685.5000 
        0.9200         1.0800         0.9680         0.9590         0.9590 
       48.2500       138.5416        55.3030        51.0132        11.8480 
        0.0695         0.5398         8.1484         0.0160         1.7564 
        0.4350        57.4310         6.3330         1.0620 
      4686.0000 
        0.8200         1.0900         1.0900         1.0410         0.9500 
       48.1780       138.3724        57.3460        50.7609        12.1210 
        0.0655         0.5379         8.0784         0.0160         1.7514 
        0.4120        57.0470         6.3330         1.1420 
      4686.5000 
        0.8050         1.1420         1.1110         1.1630         0.9850 
       47.9440       137.6734        59.0000        52.5676        12.5430 
        0.0605         0.5309         8.0491         0.0160         1.7315 
        0.4270        56.9550         6.4930         1.1820 
      4687.0000 
        0.9760         1.2060         1.3100         1.3490         1.2520 
       47.7010       134.8753        59.8120        53.6420        10.4230 
        0.0574         0.5235         7.9071         0.0160         1.6965 
        0.4080        57.9250         6.4930         1.1420 
      4687.5000 
        0.8990         1.0900         1.5320         1.5750         1.3100 
       47.9130       136.1757        59.7760        54.7164        11.1160 
        0.0535         0.5211         7.7650         0.0160         1.6845 
        0.4190        59.0340         6.4930         1.1420 
      4688.0000 
        0.9410         1.0900         1.3850         1.3800         1.2400 
       48.5000       136.3765        60.1710        55.8803        11.8810 
        0.0575         0.5193         7.6902         0.0160         1.6925 
        0.4120        59.8270         6.4130         1.1420 
      4688.5000 
        0.9760         1.1950         1.2400         1.1670         1.0410 
       48.5750       136.9776        59.2400        55.8795        12.7040 
        0.0615         0.5181         7.3181         0.0160         1.7013 
        0.4150        60.3640         6.4930         1.3030 
      4689.0000 
        0.9850         1.2060         1.1630         1.0610         0.9410 
       48.3120       137.4783        59.8120        55.6830        12.2470 
        0.0655         0.5144         6.9312         0.0160         1.7102 
        0.4430        60.5680         6.6530         1.3030 
      4689.5000 
        0.9500         1.1210         1.1920         1.0900         0.9410 
       48.2150       135.3799        60.0920        56.1773        10.9640 
        0.0695         0.5109         6.5300         0.0160         1.7166 
        0.4120        60.5260         6.7330         1.4630 
      4690.0000 
        0.9410         1.1520         1.2400         1.2740         1.1520 
       48.5230       134.2809        60.0850        57.8877        11.3380 
        0.0735         0.4991         6.1720         0.0160         1.7426 
        0.4770        60.2400         6.7330         1.5430 
      4690.5000 
        0.9240         1.1840         1.1950         1.4230         1.1950 
       49.0870       133.4818        59.1260        58.8887        10.8330 
        0.0756         0.4844         5.8326         0.0160         1.8206 
        0.4860        61.0730         6.7330         1.5430 
      4691.0000 
        0.9160         1.1110         1.1000         1.1840         1.0700 
       49.4240       135.5826        57.7420        58.2846        10.3620 
        0.1056         0.4670         5.8126         0.0160         1.8436 
        0.5420        61.2300         6.6530         1.5430 
      4691.5000 
        0.9070         1.0900         1.1110         0.9590         0.8740 
       49.7870       135.9833        58.5350        56.8473        11.5890 
        0.0923         0.4490         5.9639         0.0160         1.8367 
        0.4720        60.4840         6.4930         1.5030 
      4692.0000 
        0.9500         1.1630         1.0040         1.0410         0.8590 
       49.0000       136.0845        59.2860        55.4101        11.8330 
        0.0767         0.4556         6.0936         0.0160         1.7887 
        0.4720        58.7410         6.3330         1.4230 
      4692.5000 
        0.9160         1.1210         1.1740         1.1210         0.9240 
       48.3180       136.1853        59.1920        54.9588        10.9910 
        0.0812         0.4592         6.0340         0.0160         1.7637 
        0.4600        57.2270         6.0920         1.2220 
      4693.0000 
        0.9240         1.0900         1.2170         1.2290         1.1030 
       46.0730       135.8865        57.6480        55.2712        10.1340 
        0.0877         0.4706         5.6485         0.0160         1.7837 
        0.4990        57.8720         5.9320         1.2930 
      4693.5000 
        0.8990         1.1740         1.0900         1.3350         1.1740 
       44.8910       135.4873        55.3780        55.5836        11.7200 
        0.0957         0.4736         5.3147         0.0160         1.8207 
        0.5230        58.5160         5.8520         1.3980 
      4694.0000 
        0.9410         1.2170         1.1740         1.2290         1.0320 
       44.5960       135.2885        54.3260        55.8960        11.3560 
        0.1058         0.4627         4.7952         0.0160         1.8898 
        0.5180        59.4570         5.8520         1.5030 
      4694.5000 
        0.9590         1.1520         1.0320         0.9950         0.8740 
       44.8870       135.2893        54.9560        55.8561        11.0000 
        0.1048         0.4518         4.6154         0.0160         1.8988 
        0.6000        60.3490         5.9320         1.6080 
