~Version Information Block
VERS .                 2.00:  CWLS LOG ASCII STANDARD - VERSION 2.00
WRAP .                  YES:  Multiple lines per depth step
~Well Information Block
#MNEM.UNIT        Data Type   Information
#---------- ----------------  -----------
STRT .F                 294:  START DEPTH
STOP .F              5041.5:  STOP DEPTH
STEP .F                 0.5:  STEP
NULL .              -999.25:  NULL VALUE
COMP .     TEXACO NORTH SEA LTD.:  COMPANY
WELL .              9/11A-9:  WELL
FLD  .              MARINER:  FIELD
LOC  .       X=390680.74mE Y=6606678.22mN:  LOCATION
PROV .                 UKCS:  PROVINCE
SRVC .         SCHLUMBERGER:  SERVICE COMPANY
DATE .     09-01-97 TO 27-01-97:  LOG DATE
UWI  .                25043:  UNIQUE WELL ID
~Curve Information Block
#MNEM.UNIT         API CODE   Curve Description
#---------- ----------------  -----------------
DEPTH.F                    :  Depth in Feet
AHT10.OHMM                 :  Edited AIT-H 10 Inch Investigation (AHT10)
AHT20.OHMM                 :  Edited AIT-H 20 Inch Investigation (AHT20)
AHT30.OHMM                 :  Edited AIT-H 30 Inch Investigation (AHT30)
AHT60.OHMM                 :  Edited AIT-H 60 Inch Investigation (AHT60)
AHT90.OHMM                 :  Edited AIT-H 90 Inch Investigation (AHT90)
CGR  .GAPI                 :  Edited Computed Gamma Ray from NGT
DT   .US/FT                 :  Merged Delta-T from SDT
GR   .GAPI                 :  Merged HILTB Gamma Ray
GRS  .GAPI                 :  Merged Gamma Ray from SDT
HCAL .IN                   :  Edited HILTB Caliper
HDRA .G/C3                 :  Edited Density Correction
NPHI .V/V                  :  Edited Neutron Porosity
PEFZ .B/E                  :  Edited Photo-electric
POTA .                     :  Edited Potassium from NGT
RHOZ .G/C3                 :  Edited Bulk Density Caliper
RXOZ .OHMM                 :  Edited Std. Res. Invaded Zone Resistivity
SGR  .GAPI                 :  Edited Spectral Gamma Ray from NGT
THOR .PPM                  :  Edited Thorium from NGT
URAN .PPM                  :  Edited Uranium from NGT
~Parameter Information Block
#MNEM.UNIT            Value   Description
#---------- ----------------  -----------
SET  .            COMP_WIRE:  
PROJ .             88TH_I_1:  
DATU .                  MSL:  
DMF  .          Drill Floor:  Drilling Measured From
TDD  .F                5055:  
EDF  .F                  82:  Elevation of Derrick Floor
EKB  .F                  82:  
EPD  .F                   0:  Elevation Of Perm. Datum
LATI .     59DEG 34' 57.497 N:  
LCC  .                  440:  Logging Company Code
LONG .     01DEG 03' 51.604:  
LMF  .          DRILL FLOOR:  
ORDU .                 FEET:  
PDAT .                  MSL:  
RIG_NAME.     BORGSTEN DOLPHIN:  
SURF .F                -355:  
~Other Information Block
~Ascii Log Data
# ...
      5005.5000 
       14.6990        15.0410        14.3000        13.5320        12.8060 
     -999.2500      -999.2500       101.3060      -999.2500         8.6610 
        0.0101         0.2001         3.3760      -999.2500         2.6202 
       20.8450      -999.2500      -999.2500      -999.2500 
      5006.0000 
       14.3000        13.0440        12.8060        12.9140        11.7890 
     -999.2500      -999.2500       101.9160      -999.2500         8.6600 
        0.0111         0.1809         3.3759      -999.2500         2.6182 
       20.0920      -999.2500      -999.2500      -999.2500 
      5006.5000 
       13.6570        12.4580        11.8980        12.0840        11.0550 
     -999.2500      -999.2500       104.4230      -999.2500         8.6790 
        0.0228         0.1725         3.4159      -999.2500         2.6307 
       22.2300      -999.2500      -999.2500      -999.2500 
      5007.0000 
       13.0440        11.5750        11.1570        11.2600        10.7540 
     -999.2500      -999.2500       106.6990      -999.2500         8.7610 
        0.0346         0.1677         3.4158      -999.2500         2.6421 
       25.9900      -999.2500      -999.2500      -999.2500 
      5007.5000 
       11.6810        11.7890        12.0080        10.9540        12.0080 
     -999.2500      -999.2500       107.7230      -999.2500         8.7740 
        0.0450         0.1678         3.1381      -999.2500         2.6611 
       34.8780      -999.2500      -999.2500      -999.2500 
      5008.0000 
       11.1570        12.2310        11.5750        11.5750        11.3640 
     -999.2500      -999.2500       108.7750      -999.2500         8.7200 
        0.0528         0.1714         3.0561      -999.2500         2.6711 
       33.9290      -999.2500      -999.2500      -999.2500 
      5008.5000 
       11.1570        11.6810        11.0550        11.5750        12.1820 
     -999.2500      -999.2500       108.8580      -999.2500         8.6870 
        0.0607         0.1714         2.9962      -999.2500         2.6752 
       30.9490      -999.2500      -999.2500      -999.2500 
      5009.0000 
       11.4690        12.4580        12.1190        12.2310        13.0440 
     -999.2500      -999.2500       107.7940      -999.2500         8.6870 
        0.0699         0.1714         2.8763      -999.2500         2.6781 
       23.4500      -999.2500      -999.2500      -999.2500 
      5009.5000 
       12.0080        13.9110        14.5650        12.5730        13.6570 
     -999.2500      -999.2500       107.6120      -999.2500         8.6940 
        0.0711         0.1600         2.8563      -999.2500         2.6750 
       18.2030      -999.2500      -999.2500      -999.2500 
      5010.0000 
       12.2310        13.6230        13.9110        12.8060        12.3440 
     -999.2500      -999.2500       109.6510      -999.2500         8.7000 
        0.0729         0.1432         3.0138      -999.2500         2.6740 
       17.0280      -999.2500      -999.2500      -999.2500 
      5010.5000 
       12.3440        13.4080        13.2860        12.9240        13.1640 
     -999.2500      -999.2500       111.1040      -999.2500         8.7070 
        0.0729         0.1432         2.9760      -999.2500         2.6661 
       18.4720      -999.2500      -999.2500      -999.2500 
      5011.0000 
       14.3000        15.8460        12.6890        13.4080        15.0380 
     -999.2500      -999.2500      -999.2500      -999.2500         8.7130 
        0.0668         0.1432         3.0159      -999.2500         2.6620 
       20.8450      -999.2500      -999.2500      -999.2500 
      5011.5000 
       18.6680        17.8290        16.4140        16.4140        18.3280 
     -999.2500      -999.2500      -999.2500      -999.2500         8.7200 
        0.0629         0.1461         3.1357      -999.2500         2.6520 
       22.2300      -999.2500      -999.2500      -999.2500 
      5012.0000 
       21.4270        20.6540        20.2780        18.8400        17.5040 
     -999.2500      -999.2500      -999.2500      -999.2500         8.7240 
        0.0513         0.1486         3.1556      -999.2500         2.6462 
       21.0920      -999.2500      -999.2500      -999.2500 
      5012.5000 
       18.6680        17.0280        20.2780        15.6110        16.4140 
     -999.2500      -999.2500      -999.2500      -999.2500         8.7670 
        0.0397         0.1507         3.2154      -999.2500         2.6430 
       18.1600      -999.2500      -999.2500      -999.2500 
      5013.0000 
       16.7180        14.6420        15.8670        13.8280        15.2270 
     -999.2500      -999.2500      -999.2500      -999.2500         8.7710 
        0.0229         0.1534         3.2554      -999.2500         2.6369 
       12.3440      -999.2500      -999.2500      -999.2500 
      5013.5000 
       15.9670        11.5750        11.3640        12.0450        13.7600 
     -999.2500      -999.2500      -999.2500      -999.2500         8.7860 
        0.0199         0.1534         3.3983      -999.2500         2.6330 
       10.2710      -999.2500      -999.2500      -999.2500 
      5014.0000 
       13.4080        11.0550        10.8530        11.1570        12.6980 
     -999.2500      -999.2500      -999.2500      -999.2500         8.8640 
        0.0049         0.1534         3.5348      -999.2500         2.6230 
       10.1770      -999.2500      -999.2500      -999.2500 
      5014.5000 
       13.1640        12.2310        12.3440        11.5750        12.0990 
     -999.2500      -999.2500      -999.2500      -999.2500         8.8610 
        0.0049         0.1534         3.6147      -999.2500         2.6230 
       11.2600      -999.2500      -999.2500      -999.2500 
      5015.0000 
       12.4580        12.5730        11.4690        12.3440        11.0550 
     -999.2500      -999.2500      -999.2500      -999.2500         8.8670 
        0.0122         0.1510         3.6945      -999.2500         2.6310 
       10.6560      -999.2500      -999.2500      -999.2500 
      5015.5000 
       10.9540        13.0440        11.6810        10.4900        12.5730 
     -999.2500      -999.2500      -999.2500      -999.2500         8.9030 
        0.0195         0.1511         3.5147      -999.2500         2.6360 
        8.9060      -999.2500      -999.2500      -999.2500 
      5016.0000 
        9.0310        12.0640         8.5460         8.7850        11.3660 
     -999.2500      -999.2500      -999.2500      -999.2500         8.9100 
        0.0248         0.1511         3.3948      -999.2500         2.6469 
        7.1280      -999.2500      -999.2500      -999.2500 
      5016.5000 
        9.2830        11.8980         9.6310         8.6250        10.9540 
     -999.2500      -999.2500      -999.2500      -999.2500         8.9190 
        0.0292         0.1511         3.3349      -999.2500         2.6465 
        6.4270      -999.2500      -999.2500      -999.2500 
      5017.0000 
       10.8530        11.5750        12.6890        10.1770        13.9110 
     -999.2500      -999.2500      -999.2500      -999.2500         8.9220 
        0.0336         0.1505         3.2549      -999.2500         2.6459 
        9.6950      -999.2500      -999.2500      -999.2500 
      5017.5000 
       13.9110        13.9110        15.8210        13.1640        13.4080 
     -999.2500      -999.2500      -999.2500      -999.2500         8.9170 
        0.0387         0.1486         3.2349      -999.2500         2.6459 
       13.1640      -999.2500      -999.2500      -999.2500 
      5018.0000 
       16.4140        15.2500        14.9720        15.1100        12.8060 
     -999.2500      -999.2500      -999.2500      -999.2500         8.9010 
        0.0377         0.1468         3.2348      -999.2500         2.6499 
       11.7890      -999.2500      -999.2500      -999.2500 
      5018.5000 
       17.6660        13.9110        10.1770        13.4080        13.4080 
     -999.2500      -999.2500      -999.2500      -999.2500         8.9020 
        0.0307      -999.2500         3.2947      -999.2500         2.6445 
        9.1140      -999.2500      -999.2500      -999.2500 
