~Version Information Block
VERS .                 2.00:  CWLS LOG ASCII STANDARD - VERSION 2.00
WRAP .                  YES:  Multiple lines per depth step
~Well Information Block
#MNEM.UNIT        Data Type   Information
#---------- ----------------  -----------
STRT .F                 294:  START DEPTH
STOP .F              5041.5:  STOP DEPTH
STEP .F                 0.5:  STEP
NULL .              -999.25:  NULL VALUE
COMP .     TEXACO NORTH SEA LTD.:  COMPANY
WELL .              9/11A-9:  WELL
FLD  .              MARINER:  FIELD
LOC  .       X=390680.74mE Y=6606678.22mN:  LOCATION
PROV .                 UKCS:  PROVINCE
SRVC .         SCHLUMBERGER:  SERVICE COMPANY
DATE .     09-01-97 TO 27-01-97:  LOG DATE
UWI  .                25043:  UNIQUE WELL ID
~Curve Information Block
#MNEM.UNIT         API CODE   Curve Description
#---------- ----------------  -----------------
DEPTH.F                    :  Depth in Feet
AHT10.OHMM                 :  Edited AIT-H 10 Inch Investigation (AHT10)
AHT20.OHMM                 :  Edited AIT-H 20 Inch Investigation (AHT20)
AHT30.OHMM                 :  Edited AIT-H 30 Inch Investigation (AHT30)
AHT60.OHMM                 :  Edited AIT-H 60 Inch Investigation (AHT60)
AHT90.OHMM                 :  Edited AIT-H 90 Inch Investigation (AHT90)
CGR  .GAPI                 :  Edited Computed Gamma Ray from NGT
DT   .US/FT                 :  Merged Delta-T from SDT
GR   .GAPI                 :  Merged HILTB Gamma Ray
GRS  .GAPI                 :  Merged Gamma Ray from SDT
HCAL .IN                   :  Edited HILTB Caliper
HDRA .G/C3                 :  Edited Density Correction
NPHI .V/V                  :  Edited Neutron Porosity
PEFZ .B/E                  :  Edited Photo-electric
POTA .                     :  Edited Potassium from NGT
RHOZ .G/C3                 :  Edited Bulk Density Caliper
RXOZ .OHMM                 :  Edited Std. Res. Invaded Zone Resistivity
SGR  .GAPI                 :  Edited Spectral Gamma Ray from NGT
THOR .PPM                  :  Edited Thorium from NGT
URAN .PPM                  :  Edited Uranium from NGT
~Parameter Information Block
#MNEM.UNIT            Value   Description
#---------- ----------------  -----------
SET  .            COMP_WIRE:  
PROJ .             88TH_I_1:  
DATU .                  MSL:  
DMF  .          Drill Floor:  Drilling Measured From
TDD  .F                5055:  
EDF  .F                  82:  Elevation of Derrick Floor
EKB  .F                  82:  
EPD  .F                   0:  Elevation Of Perm. Datum
LATI .     59DEG 34' 57.497 N:  
LCC  .                  440:  Logging Company Code
LONG .     01DEG 03' 51.604:  
LMF  .          DRILL FLOOR:  
ORDU .                 FEET:  
PDAT .                  MSL:  
RIG_NAME.     BORGSTEN DOLPHIN:  
SURF .F                -355:  
~Other Information Block
~Ascii Log Data
# ...
      3358.5000 
        5.3970         4.7020         4.9230         5.0610         3.7710 
       19.1390       132.9918        40.1150        29.7382         8.6130 
        0.0342         0.3646         2.0983         0.0100         2.1402 
        3.4400        31.1760         0.8820         0.8220 
      3359.0000 
        6.6660         5.2550         5.4970         5.6510         4.4390 
       21.0490       131.2950        40.6490        34.2692         8.4960 
        0.0601         0.3685         1.9062         0.0100         2.1621 
        3.1380        34.7000         1.4430         0.9820 
      3359.5000 
       10.1830         7.0760         8.0310         9.5290         6.3550 
       24.2890       129.3988        37.1780        35.1748         8.5960 
        0.0607         0.3723         1.9854         0.0110         2.1331 
        2.9700        36.8260         1.8440         1.2220 
      3360.0000 
       13.8890        12.1190        11.8770        13.0440         8.3530 
       29.8190       130.5969        32.3650        31.8499         8.7860 
        0.0611         0.3761         2.1572         0.0120         2.0722 
        2.9420        40.9500         2.4050         1.5030 
      3360.5000 
       16.6450        15.1030        15.8880        15.2900         9.0310 
       27.6810       131.6952        28.3330        27.2353         8.9420 
        0.0537         0.3713         2.3835         0.0120         2.0512 
        3.0610        39.4240         2.6450         1.4630 
      3361.0000 
       19.1900        17.9940        18.1600        18.4970         9.5430 
       25.6270       132.7935        26.4140        22.4793         9.1470 
        0.0463         0.3587         2.3835         0.0120         2.0612 
        3.1090        35.5320         3.0460         0.9420 
      3361.5000 
       27.7170        23.2750        23.1560        23.7070         9.6310 
       24.5600       133.2928        26.5670        20.0613         9.1820 
        0.0388         0.3461         2.1096         0.0110         2.0771 
        3.2260        31.8370         2.8060         0.8220 
      3362.0000 
       45.5340        22.4350        30.7150        30.9490         9.9000 
       22.0700       133.6924        26.8040        19.4553         9.0630 
        0.0311         0.3360         1.8428         0.0100         2.0771 
        2.9970        28.0100         2.6450         0.7010 
      3362.5000 
       66.3720        19.9080        36.1840        35.8530        10.1770 
       20.7860       133.8923        27.0410        20.3607         9.0620 
        0.0321         0.3360         1.7318         0.0090         2.0631 
        2.8360        26.0040         2.4050         0.5810 
      3363.0000 
       68.2280        21.8250        34.2420        36.5180        10.2710 
       20.3370       134.3917        27.1210        20.9635         9.2000 
        0.0361         0.3378         1.6622         0.0080         2.0641 
        2.8100        25.1280         2.2440         0.5410 
      3363.5000 
       61.6670        19.1900        26.6800        23.7070         9.3690 
       20.9410       134.7912        25.8520        19.7531         9.3420 
        0.0330         0.3343         1.8012         0.0090         2.0595 
        2.9970        25.1710         1.9240         0.5410 
      3364.0000 
       43.8880        17.1850        17.8290        19.9080         9.0310 
       21.3140       135.3904        25.2640        19.1476         9.5580 
        0.0299         0.3367         2.1720         0.0090         2.0600 
        3.1960        26.1570         1.8440         0.4610 
      3364.5000 
       19.0140        19.7260        18.1600        20.6540         9.9920 
       21.8880       135.5902        23.9290        19.4488         9.6630 
        0.0290         0.3367         2.4592         0.0100         2.0605 
        3.3770        27.6120         1.8440         0.4610 
      3365.0000 
       37.7530        23.4900        21.6250        32.5420        11.3640 
       21.3990       135.6903        23.9520        21.2604         9.3920 
        0.0490         0.3433         2.3764         0.0100         2.0610 
        3.3770        26.9680         1.9240         0.5410 
      3365.5000 
       76.1850        17.6660        26.4720        51.3110         8.6320 
       20.9730       134.6924        24.7710        21.8637         9.3700 
        0.0460         0.3535         2.2983         0.0100         2.0615 
        3.2550        26.0330         1.8440         0.5810 
      3366.0000 
      104.5800        13.9110        28.6720        93.9820         7.1770 
       20.8190       134.4930        25.5850        20.9555         9.2470 
        0.0430         0.3691         2.0122         0.0110         2.0619 
        3.2850        26.0140         1.2020         0.5810 
      3366.5000 
      175.8500        22.2300        32.4790       127.8720         9.7500 
       21.0310       134.8926        25.7360        20.3500         9.7160 
        0.0300         0.3913         1.7261         0.0110         2.0784 
        2.6110        26.2330         1.1220         0.5810 
      3367.0000 
      198.1700        34.5590        41.6490       157.4840        12.6890 
       20.0390       135.2921        25.2900        20.9528        10.0940 
        0.0230         0.3906         1.4777         0.0110         2.0848 
        2.6110        24.8970         1.0420         0.5810 
      3367.5000 
      179.1120        36.8550        45.1150       139.7470        11.8980 
       20.2490       136.4902        25.4440        21.8584         9.7580 
        0.0295         0.3901         1.9760         0.0110         2.0848 
        2.6350        24.2420         0.8820         0.5410 
      3368.0000 
      119.2490        29.2890        32.7040       105.4440        10.8530 
       19.8820       136.8897        26.2250        23.6707         9.7020 
        0.0329         0.3711         2.4553         0.0110         2.0758 
        2.8890        24.2170         0.7210         0.5410 
      3368.5000 
       86.5160        25.5160        26.5270        67.4600        10.3660 
       19.7130       136.7901        28.7340        26.6914         9.5050 
        0.0249         0.3476         2.2349         0.0110         2.0747 
        2.8890        24.3390         0.7210         0.6210 
      3369.0000 
       53.7830        32.1080        23.9260        40.1910        13.7830 
       19.7210       134.9937        28.3570        27.5971         9.1640 
        0.0319         0.3290         2.1545         0.0110         2.0844 
        3.1850        25.6500         0.8020         0.6610 
      3369.5000 
       28.2310        27.3940        23.4900        22.8510        11.7560 
       20.2280       133.0974        27.1960        27.8978         9.1240 
        0.0388         0.3332         1.8309         0.0110         2.0897 
        3.8060        26.4610         0.8020         0.7410 
      3370.0000 
       38.6290        15.9740        33.5240        36.8550         8.4680 
       20.5440       130.0035        24.8960        24.8744         9.2590 
        0.0458         0.3429         1.5938         0.0110         2.0866 
        3.6520        27.3590         0.9620         0.8220 
      3370.5000 
       42.6940        12.2310        35.5250        34.7740         8.7850 
       20.5390       128.0074        22.0210        24.2684         9.3440 
        0.0488         0.3531         1.6335         0.0110         2.0619 
        3.3770        28.7580         1.1220         0.8220 
      3371.0000 
       32.8850        15.4770        23.4900        27.1430        10.8870 
       21.0750       127.1093        22.5280        24.2673         9.5420 
        0.0464         0.3537         1.9402         0.0110         2.0356 
        3.8760        27.8720         1.2020         0.8220 
      3371.5000 
       19.5460        32.1080        19.9080        20.5800        17.8290 
       20.5700       130.4035        23.3010        24.5685         9.7190 
        0.0448         0.3537         2.2514         0.0100         2.0356 
        4.4950        26.0840         1.2020         0.8220 
