~Version Information Section
VERS.          2.0                                     : CWLS LOG ASCII Standard
WRAP.          NO                                      : One line per depth step
CREA.          03/14/14                                : LAS Creation Date
~Well Information Section
STRT.ft        400.9999                                : Start Depth
STOP.ft        12974.4999                              : Stop Depth
STEP.ft        0.5000                                  : Step
NULL.          -999.2500                               : Null Value
COMP.          Mobil                                   : Company
WELL.          9/13a-39                                : Well
FLD .          Appraisal                               : Field
LOC .          Northern North Sea                      : Location
LOC1.          6 600 501Mn 412 180mE                   : Location (UTM
PROV.          UKCS                                    : Province
UWI .          5483                                    : UWI Number
API .                                                  : API Number
SECT.                                                  : Section
TOWN.                                                  : Township
RNGE.                                                  : Range
PDAT.          MSL                                     : Perm Datum
EPD .ft        0.00                                    : Elevation
LMF .          KB                                      : Log Measured From
DMF .          KB                                      : Drill Measured From
APD .ft        85.00                                   : Above Perm Datum
EKB .ft        85.00                                   : Elev-Kelly Bushing
EDF .ft        84.00                                   : Elev-Drill Floor
EGL .ft        -363.00                                 : Elev-Ground Level (Water Depth)
SRVC.          Atlas Wireline                          : Service Company
DATE.          Mar-Apr-1988                            : Logging Date
PROJ.          UKCS                                    : Project
SET .          COMP WIRE                               : Set
~Curve Information Section
DEPTH.ft                                               : Depth Curve
A2F.                                                   : 
A2N.                                                   : 
AC.us/ft                                               : Acoustic Travel Time
CALI.in                                                : Caliper
D2EC.                                                  : 
GR.gAPI                                                : Gamma Ray
R2AT.                                                  : 
R2SL.                                                  : 
RILD.ohmm                                              : Deep Induction Resistivity
RILM.ohmm                                              : Medium Induction Resistivity
~ASCII Log Data Section
# ...
11866.9999         0.1432         0.3015       100.3035        12.7936        16.5383       226.8974         0.4749         5.7613         7.3463         7.3606     
11867.4999         0.1412         0.2825       100.5902        12.7963        15.9897       225.3543         0.4998         6.5190         7.3882         7.3936     
11867.9999         0.1417         0.3020       100.7520        12.7990        17.3023       223.6330         0.4692         5.5142         7.4127         7.3751     
11868.4999         0.1429         0.3020       100.7881        12.8017        17.1796       219.5857         0.4731         5.6251         7.4202         7.3456     
11868.9999         0.1424         0.3020       100.6514        12.8043        16.7971       210.8846         0.4714         5.6384         7.4202         7.3468     
11869.4999         0.1428         0.3005       100.4711        12.8070        16.9721       203.1591         0.4752         5.7069         7.4313         7.3733     
11869.9999         0.1342         0.3005       100.3539        12.8097        17.7356       201.7893         0.4468         4.9611         7.4530         7.4056     
11870.4999         0.1393         0.3010       100.3530        12.8123        17.2340       205.7131         0.4628         5.3755         7.4930         7.4472     
11870.9999         0.1363         0.3005       100.5731        12.8150        17.6544       211.5760         0.4536         5.1170         7.5532         7.4941     
11871.4999         0.1388         0.3015       101.0370        12.8177        16.6070       218.0697         0.4602         5.3977         7.6043         7.5295     
11871.9999         0.1401         0.2995       101.6252        12.8301        17.3526       222.0222         0.4677         5.4719         7.6330         7.5532     
11872.4999         0.1369         0.3020       102.0853        12.8493        17.5615       220.7592         0.4534         5.1243         7.6553         7.5790     
11872.9999         0.1389         0.3025       102.1132        12.8686        16.7505       217.6024         0.4591         5.3531         7.6815         7.6046     
11873.4999         0.1381         0.3020       101.6152        12.8878        16.6204       215.8901         0.4574         5.3308         7.7295         7.6271     
11873.9999         0.1426         0.3040       100.6851        12.8994        16.9570       215.2048         0.4692         5.5611         7.8015         7.6705     
11874.4999         0.1394         0.3015        99.4708        12.8942        17.2252       214.2512         0.4625         5.3685         7.8629         7.7522     
11874.9999         0.1391         0.3030        98.4474        12.8890        17.3975       212.3727         0.4590         5.2664         7.9042         7.8387     
11875.4999         0.1438         0.3020        98.1103        12.8838        16.7805       209.3287         0.4762         5.7580         7.9600         7.8896     
11875.9999         0.1406         0.3010        98.3886        12.8787        17.5105       207.5726         0.4670         5.4355         8.0324         7.9114     
11876.4999         0.1424         0.3005        98.8739        12.8735        16.7245       207.3576         0.4738         5.7064         8.0790         7.9060     
11876.9999         0.1409         0.3035        99.1185        12.8683        17.6650       206.8692         0.4644         5.3553         8.0706         7.8618     
11877.4999         0.1426         0.3050        98.8541        12.8655        17.6570       206.0743         0.4676         5.4313         8.0154         7.8028     
11877.9999         0.1472         0.3045        98.4113        12.8661        16.7301       205.7688         0.4834         5.9480         7.9229         7.7456     
11878.4999         0.1481         0.3015        98.4394        12.8667        17.5853       206.2980         0.4913         6.0268         7.8083         7.6592     
11878.9999         0.1572         0.3040        99.1088        12.8673        15.9917       210.9484         0.5171         7.0458         7.7194         7.5506     
11879.4999         0.1590         0.2995       100.3566        12.8679        14.6746       220.7084         0.5309         7.7984         7.6902         7.4806     
11879.9999         0.1447         0.2955       101.8678        12.8685        15.4108       230.5876         0.4896         6.3309         7.6922         7.4815     
11880.4999         0.1432         0.3010       102.8697        12.8691        17.9362       238.2774         0.4757         5.5856         7.6913         7.5487     
11880.9999         0.1396         0.3000       103.0245        12.8697        17.7346       244.4851         0.4654         5.3703         7.7096         7.6550     
11881.4999         0.1423         0.3020       102.7808        12.8703        17.6077       248.6983         0.4710         5.5176         7.7824         7.7482     
11881.9999         0.1392         0.3025       102.5149        12.8709        18.2712       249.2580         0.4603         5.1899         7.8916         7.7962     
11882.4999         0.1429         0.3025       102.2884        12.8723        16.7373       245.9933         0.4725         5.6732         7.9736         7.8076     
11882.9999         0.1402         0.2990       102.2405        12.8765        17.0356       241.4763         0.4689         5.5430         7.9799         7.7901     
11883.4999         0.1384         0.3010       102.2776        12.8808        17.6360       238.8520         0.4597         5.2537         7.9284         7.7511     
11883.9999         0.1402         0.3025       102.1261        12.8850        16.8649       236.4017         0.4636         5.4430         7.8746         7.7157     
11884.4999         0.1431         0.3030       101.7116        12.8892        16.8189       229.9089         0.4724         5.6577         7.8324         7.6888     
11884.9999         0.1423         0.3020       101.1112        12.8934        16.9206       218.4381         0.4712         5.6160         7.7820         7.6515     
11885.4999         0.1416         0.3010       100.4989        12.8976        16.8179       207.0804         0.4705         5.6130         7.7410         7.6033     
11885.9999         0.1382         0.3015       100.1860        12.9018        16.9522       201.6939         0.4585         5.3141         7.7416         7.5691     
11886.4999         0.1414         0.3035       100.3280        12.9061        17.0049       203.6702         0.4658         5.4752         7.7715         7.5709     
11886.9999         0.1442         0.3020       100.7271        12.9103        16.3852       209.5980         0.4774         5.8477         7.8075         7.6191     
11887.4999         0.1400         0.3005       101.0192        12.9145        16.7917       215.1596         0.4659         5.5059         7.8542         7.7069     
11887.9999         0.1407         0.3020       101.0159        12.9163        16.7102       217.4255         0.4661         5.5211         7.9286         7.8141     
11888.4999         0.1422         0.3000       100.9185        12.9093        16.9420       217.0656         0.4740         5.6794         8.0275         7.9156     
11888.9999         0.1399         0.3000       101.0439        12.9023        16.9724       216.7809         0.4663         5.4898         8.1191         7.9920     
11889.4999         0.1415         0.3015       101.3560        12.8954        16.5759       216.5429         0.4693         5.6182         8.1752         8.0355     
11889.9999         0.1421         0.3010       101.5951        12.8884        16.7242       216.2341         0.4720         5.6616         8.2124         8.0579     
11890.4999         0.1393         0.3005       101.6459        12.8814        17.2097       216.1214         0.4636         5.3964         8.2610         8.0820     
11890.9999         0.1400         0.3010       101.6745        12.8744        17.2038       218.4555         0.4651         5.4323         8.3317         8.1353     
