~Version Information Section
VERS.          2.0                                     : CWLS LOG ASCII Standard
WRAP.          NO                                      : One line per depth step
CREA.          03/14/14                                : LAS Creation Date
~Well Information Section
STRT.ft        400.9999                                : Start Depth
STOP.ft        12974.4999                              : Stop Depth
STEP.ft        0.5000                                  : Step
NULL.          -999.2500                               : Null Value
COMP.          Mobil                                   : Company
WELL.          9/13a-39                                : Well
FLD .          Appraisal                               : Field
LOC .          Northern North Sea                      : Location
LOC1.          6 600 501Mn 412 180mE                   : Location (UTM
PROV.          UKCS                                    : Province
UWI .          5483                                    : UWI Number
API .                                                  : API Number
SECT.                                                  : Section
TOWN.                                                  : Township
RNGE.                                                  : Range
PDAT.          MSL                                     : Perm Datum
EPD .ft        0.00                                    : Elevation
LMF .          KB                                      : Log Measured From
DMF .          KB                                      : Drill Measured From
APD .ft        85.00                                   : Above Perm Datum
EKB .ft        85.00                                   : Elev-Kelly Bushing
EDF .ft        84.00                                   : Elev-Drill Floor
EGL .ft        -363.00                                 : Elev-Ground Level (Water Depth)
SRVC.          Atlas Wireline                          : Service Company
DATE.          Mar-Apr-1988                            : Logging Date
PROJ.          UKCS                                    : Project
SET .          COMP WIRE                               : Set
~Curve Information Section
DEPTH.ft                                               : Depth Curve
A2F.                                                   : 
A2N.                                                   : 
AC.us/ft                                               : Acoustic Travel Time
CALI.in                                                : Caliper
D2EC.                                                  : 
GR.gAPI                                                : Gamma Ray
R2AT.                                                  : 
R2SL.                                                  : 
RILD.ohmm                                              : Deep Induction Resistivity
RILM.ohmm                                              : Medium Induction Resistivity
~ASCII Log Data Section
# ...
11401.4999         0.0612         0.2391        92.5927        13.2568        24.6181        75.7436         0.2562         1.9681         1.3745         1.4714     
11401.9999         0.0724         0.2343        92.4847        13.2612        16.6144        76.9812         0.3091         2.8255         1.3676         1.4649     
11402.4999         0.0829         0.2585        92.7350        13.2655        18.6635        77.6166         0.3208         2.8633         1.3589         1.4570     
11402.9999         0.0791         0.2605        93.3277        13.2569        17.2572        77.0987         0.3037         2.7253         1.3530         1.4522     
11403.4999         0.0846         0.2875        94.1863        13.2477        19.3200        75.8166         0.2941         2.5189         1.3558         1.4509     
11403.9999         0.1067         0.2970        94.1587        13.2384        14.2452        74.1507         0.3592         3.7062         1.3670         1.4568     
11404.4999         0.1125         0.2985        92.7796        13.2291        14.4909        73.2095         0.3769         3.9800         1.3779         1.4709     
11404.9999         0.1412         0.2945        91.3632        13.2410        13.7476        72.7222         0.4794         6.3455         1.3819         1.4826     
11405.4999         0.1062         0.2935        90.9121        13.2631        20.9341        74.6863         0.3620         3.2688         1.3813         1.4833     
11405.9999         0.0861         0.2525        91.6974        13.4056        16.6862        76.9565         0.3408         3.2428         1.3807         1.4780     
11406.4999         0.0821         0.2452        93.5108        13.4170        17.2188        78.1830         0.3346         3.1229         1.3790         1.4704     
11406.9999         0.0803         0.2445        95.0958        13.4069        18.0046        77.8574         0.3285         2.9955         1.3698         1.4574     
11407.4999         0.0801         0.2418        95.4786        13.3968        17.5661        77.1950         0.3312         3.0562         1.3522         1.4396     
11407.9999         0.0819         0.2407        95.3311        13.3868        17.2713        77.5114         0.3402         3.1955         1.3328         1.4212     
11408.4999         0.0841         0.2447        95.4135        13.3806        16.9194        77.2363         0.3436         3.2654         1.3164         1.4032     
11408.9999         0.0859         0.2545        95.6318        13.3747        16.5558        77.2693         0.3374         3.2036         1.3024         1.3850     
11409.4999         0.0808         0.2665        95.8215        13.3689        15.2156        77.4415         0.3032         2.8269         1.2885         1.3692     
11409.9999         0.0799         0.2930        95.9448        13.3630        13.1526        77.5293         0.2728         2.5521         1.2740         1.3569     
11410.4999         0.0673         0.3020        96.0012        13.3571        11.1403        77.5175         0.2229         2.0501         1.2607         1.3476     
11410.9999         0.0595         0.2650        96.0424        13.3513        17.4732        77.5869         0.2245         1.8682         1.2512         1.3412     
11411.4999         0.0683         0.2366        96.1283        13.3465        21.2094        78.1325         0.2884         2.3830         1.2450         1.3380     
11411.9999         0.0816         0.2395        96.1844        13.3466        18.5534        78.8087         0.3406         3.1222         1.2426         1.3377     
11412.4999         0.0901         0.2460        96.1284        13.3466        17.5140        79.1086         0.3661         3.5521         1.2457         1.3411     
11412.9999         0.0904         0.2485        95.9153        13.3467        17.1830        79.0498         0.3639         3.5438         1.2529         1.3489     
11413.4999         0.0897         0.2495        95.5650        13.3467        16.6544        78.2958         0.3595         3.5158         1.2593         1.3580     
11413.9999         0.0917         0.2595        95.2671        13.3468        16.9275        77.0144         0.3533         3.4050         1.2617         1.3637     
11414.4999         0.0960         0.2960        95.2690        13.3468        15.1314        75.9555         0.3243         3.1142         1.2621         1.3642     
11414.9999         0.0754         0.2980        95.5612        13.3469        10.1056        75.2965         0.2529         2.4554         1.2630         1.3623     
11415.4999         0.0630         0.2965        95.8494        13.3531         6.7702        75.5051         0.2125         2.0973         1.2637         1.3607     
11415.9999         0.0634         0.2975        95.8990        13.3610         9.3182        76.1382         0.2132         2.0070         1.2622         1.3597     
11416.4999         0.0599         0.2615        95.6216        13.3689        17.1933        76.4483         0.2290         1.9184         1.2592         1.3604     
11416.9999         0.0686         0.2392        95.1462        13.3768        19.3652        76.1655         0.2866         2.4347         1.2581         1.3643     
11417.4999         0.0788         0.2423        94.6938        13.3846        18.6022        74.4336         0.3250         2.9183         1.2625         1.3712     
11417.9999         0.0858         0.2505        94.3450        13.3826        17.6345        72.5661         0.3426         3.2055         1.2719         1.3813     
11418.4999         0.0889         0.2515        94.1296        13.3761        17.3669        72.9588         0.3536         3.3788         1.2823         1.3946     
11418.9999         0.0917         0.2530        94.1406        13.3696        17.2547        74.9290         0.3624         3.5155         1.2925         1.4092     
11419.4999         0.0957         0.2695        94.2934        13.3631        16.5885        75.9202         0.3551         3.4547         1.3055         1.4247     
11419.9999         0.0892         0.2960        94.3716        13.3565        16.2198        77.3443         0.3015         2.7509         1.3240         1.4446     
11420.4999         0.0699         0.2725        94.3194        13.3500        16.4554        77.6840         0.2567         2.2235         1.3481         1.4712     
11420.9999         0.0738         0.2520        94.0021        13.3553        19.3394        76.2179         0.2929         2.5045         1.3768         1.5039     
11421.4999         0.0855         0.2540        93.2372        13.3681        17.4704        73.0886         0.3366         3.1346         1.4101         1.5424     
11421.9999         0.0904         0.2660        92.2260        13.3809        16.8200        69.0975         0.3398         3.2188         1.4502         1.5860     
11422.4999         0.0829         0.2630        91.3372        13.3938        16.5436        64.9651         0.3151         2.9054         1.4999         1.6317     
11422.9999         0.0847         0.2560        90.6096        13.4066        18.3442        61.8368         0.3311         3.0097         1.5567         1.6785     
11423.4999         0.0944         0.2620        89.8667        13.4194        16.9679        61.1961         0.3602         3.5038         1.6086         1.7241     
11423.9999         0.0995         0.2800        89.1974        13.3778        16.1391        61.4532         0.3554         3.4924         1.6422         1.7576     
11424.4999         0.0932         0.2890        88.8478        13.2712        15.2578        64.0488         0.3224         3.0801         1.6552         1.7673     
11424.9999         0.0904         0.2710        88.9878        13.2855        18.9354        65.8634         0.3337         3.0110         1.6566         1.7557     
11425.4999         0.0917         0.2610        89.5593        13.2998        17.1602        66.4878         0.3513         3.3594         1.6501         1.7341     
