~Version Information Section
VERS.          2.0                                     : CWLS LOG ASCII Standard
WRAP.          NO                                      : One line per depth step
CREA.          03/14/14                                : LAS Creation Date
~Well Information Section
STRT.ft        400.9999                                : Start Depth
STOP.ft        12974.4999                              : Stop Depth
STEP.ft        0.5000                                  : Step
NULL.          -999.2500                               : Null Value
COMP.          Mobil                                   : Company
WELL.          9/13a-39                                : Well
FLD .          Appraisal                               : Field
LOC .          Northern North Sea                      : Location
LOC1.          6 600 501Mn 412 180mE                   : Location (UTM
PROV.          UKCS                                    : Province
UWI .          5483                                    : UWI Number
API .                                                  : API Number
SECT.                                                  : Section
TOWN.                                                  : Township
RNGE.                                                  : Range
PDAT.          MSL                                     : Perm Datum
EPD .ft        0.00                                    : Elevation
LMF .          KB                                      : Log Measured From
DMF .          KB                                      : Drill Measured From
APD .ft        85.00                                   : Above Perm Datum
EKB .ft        85.00                                   : Elev-Kelly Bushing
EDF .ft        84.00                                   : Elev-Drill Floor
EGL .ft        -363.00                                 : Elev-Ground Level (Water Depth)
SRVC.          Atlas Wireline                          : Service Company
DATE.          Mar-Apr-1988                            : Logging Date
PROJ.          UKCS                                    : Project
SET .          COMP WIRE                               : Set
~Curve Information Section
DEPTH.ft                                               : Depth Curve
A2F.                                                   : 
A2N.                                                   : 
AC.us/ft                                               : Acoustic Travel Time
CALI.in                                                : Caliper
D2EC.                                                  : 
GR.gAPI                                                : Gamma Ray
R2AT.                                                  : 
R2SL.                                                  : 
RILD.ohmm                                              : Deep Induction Resistivity
RILM.ohmm                                              : Medium Induction Resistivity
~ASCII Log Data Section
# ...
12209.9999         0.1118         0.2860        91.1750        12.7629        17.6013       106.5373         0.3910         3.9367         2.1742         2.3789     
12210.4999         0.1079         0.2960        90.2908        12.7578        16.1421       108.4953         0.3644         3.6314         2.1745         2.4035     
12210.9999         0.1054         0.2920        90.1404        12.7528        18.5650       109.0140         0.3609         3.4016         2.1960         2.3950     
12211.4999         0.1046         0.3030        90.8004        12.7477        16.2073       106.3188         0.3453         3.3389         2.2418         2.3621     
12211.9999         0.0853         0.2925        91.7143        12.7426        18.4707       101.9424         0.2917         2.5274         2.2691         2.3277     
12212.4999         0.0887         0.2730        92.4594        12.7375        20.6821        98.3247         0.3249         2.8116         2.2578         2.2966     
12212.9999         0.0990         0.2975        93.2999        12.7325        17.8480        96.3134         0.3328         3.0607         2.2352         2.2629     
12213.4999         0.0914         0.2930        93.6573        12.7274        18.6415        95.7966         0.3121         2.7574         2.1817         2.2339     
12213.9999         0.0972         0.2700        92.9099        12.7223        18.7753        96.1835         0.3602         3.3779         2.0745         2.1794     
12214.4999         0.0933         0.2735        91.7193        12.7585        17.0363        97.5305         0.3412         3.2246         1.9629         2.0782     
12214.9999         0.1042         0.2975        90.8585        12.7986        18.3050       100.1358         0.3502         3.2685         1.8964         1.9792     
12215.4999         0.0931         0.2720        90.1473        12.8387        19.7774       100.9749         0.3421         3.0727         1.8733         1.9271     
12215.9999         0.0971         0.2735        89.9017        13.0224        18.5400        98.3987         0.3551         3.3218         1.8546         1.9063     
12216.4999         0.1121         0.2970        90.1192        13.1564        17.4778        95.8388         0.3773         3.7271         1.8344         1.9075     
12216.9999         0.1031         0.2700        90.3546        12.8884        18.0396        96.0426         0.3819         3.7558         1.8383         1.9413     
12217.4999         0.1283         0.3055        90.4774        12.7590        16.7653        97.0279         0.4200         4.5329         1.8621         1.9808     
12217.9999         0.1175         0.3065        90.5084        12.7586        19.3300        97.7401         0.3834         3.6803         1.8710         1.9836     
12218.4999         0.0878         0.2955        90.5366        12.7582        18.9559        98.3966         0.2972         2.5686         1.8546         1.9431     
12218.9999         0.0874         0.2670        90.7904        12.7578        18.4437        99.8955         0.3275         2.9583         1.8208         1.8902     
12219.4999         0.0951         0.2925        91.1127        12.7574        18.7649       102.6830         0.3252         2.9124         1.7863         1.8868     
12219.9999         0.0944         0.3045        90.9307        12.7570        17.0207       103.4488         0.3101         2.8163         1.8069         1.9837     
12220.4999         0.0783         0.2895        89.7878        12.7566        22.3796        99.5250         0.2705         2.1634         1.9121         2.1567     
12220.9999         0.0986         0.2520        87.8446        12.7562        18.9728        94.7393         0.3914         3.8320         2.0617         2.3464     
12221.4999         0.1639         0.3000        86.0950        12.7558        12.4059        94.2059         0.5462         9.0336         2.2149         2.5280     
12221.9999         0.1246         0.2955        85.4061        12.7554        19.5487        97.2478         0.4215         4.2907         2.4192         2.7186     
12222.4999         0.1041         0.3010        85.4649        12.7550        16.9812        99.9241         0.3457         3.2920         2.7057         2.9022     
12222.9999         0.0982         0.3065        85.5604        12.7546        16.9529        99.1944         0.3204         2.9499         2.9946         3.0324     
12223.4999         0.1011         0.2960        85.1295        12.7542        20.9184        95.4799         0.3416         3.0047         3.1702         3.1268     
12223.9999         0.1094         0.2905        83.5180        12.7538        17.0278        90.1446         0.3765         3.7502         3.2569         3.2657     
12224.4999         0.1241         0.2950        80.7560        12.7676        19.3368        83.4505         0.4208         4.2960         3.3391         3.4994     
12224.9999         0.1569         0.2615        77.9851        12.7914         8.3310        78.2137         0.5999        14.2509         3.4745         3.8000     
12225.4999         0.2142         0.2970        76.4165        12.8154        13.9177        78.8181         0.7214        26.4552         3.7372         4.0689     
12225.9999         0.1311         0.2980        76.5385        12.8232        15.8447        85.0015         0.4398         5.0420         4.1163         4.2267     
12226.4999         0.1211         0.2875        78.0521        12.7942        15.8814        92.5740         0.4211         4.6509         4.3705         4.2573     
12226.9999         0.1237         0.2915        79.9079        12.7652        15.0493        97.0417         0.4245         4.8191         4.2813         4.1125     
12227.4999         0.1742         0.3005        81.2276        12.7510        10.2287        97.2129         0.5797        11.6499         3.9341         3.7906     
12227.9999         0.1223         0.2965        82.0108        12.7951        20.1960        95.4013         0.4123         4.0765         3.5234         3.4364     
12228.4999         0.0988         0.2935        82.4653        13.0102        18.1544        93.7727         0.3367         3.0942         3.1424         3.1292     
12228.9999         0.1041         0.2770        82.5874        13.0685        18.1691        92.2657         0.3759         3.6521         2.8262         2.8761     
12229.4999         0.1427         0.2810        82.3054        12.7513        11.3549        92.4843         0.5078         7.8118         2.6366         2.7339     
12229.9999         0.1158         0.3005        81.5186        12.7583        18.0831        94.9372         0.3854         3.8071         2.6010         2.7542     
12230.4999         0.1121         0.2715        79.6481        12.7652        15.3937        97.5618         0.4128         4.5426         2.7035         2.9125     
12230.9999         0.1193         0.2995        77.2589        12.7722        20.2870        95.8513         0.3984         3.8426         2.9372         3.1796     
12231.4999         0.1049         0.2540        76.0179        12.7791        17.9331        87.7392         0.4131         4.2889         3.3350         3.6265     
12231.9999         0.2053         0.2515        76.0168        12.7861         9.1843        80.0794         0.8164       227.8584         3.8613         4.2859     
12232.4999         0.1610         0.2975        75.8418        12.7931         8.5537        81.0417         0.5412        10.3203         4.2866         4.8888     
12232.9999         0.1317         0.2975        76.2849        12.8000        17.8501        88.4914         0.4429         4.8673         4.5357         5.0746     
12233.4999         0.1190         0.3005        78.5963        12.8070        15.7190        94.1266         0.3960         4.1962         4.7721         4.9391     
12233.9999         0.1049         0.3010        80.9637        12.8140        20.8605        94.6341         0.3486         3.0967         5.0132         4.7189     
