~Version Information Section
VERS.          2.0                                     : CWLS LOG ASCII Standard
WRAP.          NO                                      : One line per depth step
CREA.          03/14/14                                : LAS Creation Date
~Well Information Section
STRT.ft        400.9999                                : Start Depth
STOP.ft        12974.4999                              : Stop Depth
STEP.ft        0.5000                                  : Step
NULL.          -999.2500                               : Null Value
COMP.          Mobil                                   : Company
WELL.          9/13a-39                                : Well
FLD .          Appraisal                               : Field
LOC .          Northern North Sea                      : Location
LOC1.          6 600 501Mn 412 180mE                   : Location (UTM
PROV.          UKCS                                    : Province
UWI .          5483                                    : UWI Number
API .                                                  : API Number
SECT.                                                  : Section
TOWN.                                                  : Township
RNGE.                                                  : Range
PDAT.          MSL                                     : Perm Datum
EPD .ft        0.00                                    : Elevation
LMF .          KB                                      : Log Measured From
DMF .          KB                                      : Drill Measured From
APD .ft        85.00                                   : Above Perm Datum
EKB .ft        85.00                                   : Elev-Kelly Bushing
EDF .ft        84.00                                   : Elev-Drill Floor
EGL .ft        -363.00                                 : Elev-Ground Level (Water Depth)
SRVC.          Atlas Wireline                          : Service Company
DATE.          Mar-Apr-1988                            : Logging Date
PROJ.          UKCS                                    : Project
SET .          COMP WIRE                               : Set
~Curve Information Section
DEPTH.ft                                               : Depth Curve
A2F.                                                   : 
A2N.                                                   : 
AC.us/ft                                               : Acoustic Travel Time
CALI.in                                                : Caliper
D2EC.                                                  : 
GR.gAPI                                                : Gamma Ray
R2AT.                                                  : 
R2SL.                                                  : 
RILD.ohmm                                              : Deep Induction Resistivity
RILM.ohmm                                              : Medium Induction Resistivity
~ASCII Log Data Section
# ...
12454.9999         0.1212         0.3040        85.2094        12.5445        15.5962       103.0865         0.3986         4.2560         4.3416         4.2375     
12455.4999         0.1161         0.3035        86.3892        12.5332        15.5583       104.5281         0.3826         3.9778         4.2581         4.2106     
12455.9999         0.1138         0.2920        86.3535        12.5434        15.1342       105.6828         0.3898         4.1430         4.2055         4.2461     
12456.4999         0.1231         0.2970        85.6936        12.5536        15.3180       106.3999         0.4144         4.5823         4.2214         4.3398     
12456.9999         0.1247         0.3010        84.6441        12.5625        15.1432       105.3601         0.4142         4.6002         4.3240         4.4915     
12457.4999         0.1301         0.2990        83.1687        12.5622        17.0923       102.4078         0.4350         4.7921         4.5131         4.7182     
12457.9999         0.1202         0.2910        81.1835        12.5618        15.6685        97.8011         0.4132         4.5213         4.7792         5.0326     
12458.4999         0.1558         0.2980        78.1102        12.5444        16.9206        90.9817         0.5229         7.0562         5.1082         5.4048     
12458.9999         0.1326         0.2980        73.8384        12.5258        16.8534        82.9720         0.4451         5.0293         5.4601         5.7689     
12459.4999         0.1659         0.2880        69.7670        12.5382        14.7505        76.5108         0.5760         9.6877         5.7437         5.9965     
12459.9999         0.2039         0.2975        67.8837        12.5506         8.2979        75.3868         0.6853        24.9081         5.8749         5.9933     
12460.4999         0.1704         0.2970        69.3809        12.5674        15.5395        81.8538         0.5739         9.3590         5.8807         5.8072     
12460.9999         0.1461         0.3030        73.5051        12.5994        15.0873        92.8068         0.4823         6.1830         5.8364         5.5461     
12461.4999         0.1326         0.3015        77.6974        12.6314        15.7559       100.7136         0.4397         5.0505         5.7518         5.2813     
12461.9999         0.1244         0.3030        79.2497        12.8224        17.2543       100.8257         0.4105         4.3058         5.5984         5.0775     
12462.4999         0.1232         0.2905        77.6465        12.5341        16.0615        94.4718         0.4241         4.6893         5.3725         4.9691     
12462.9999         0.1237         0.2815        74.9640        12.5847        14.9480        88.0974         0.4394         5.1505         5.1250         4.9139     
12463.4999         0.2012         0.2885        73.9149        12.5980         8.5614        88.8177         0.6976        27.0851         4.9364         4.8459     
12463.9999         0.1494         0.2970        75.6256        12.7869        17.4370        97.0397         0.5029         6.3673         4.8700         4.7658     
12464.4999         0.1372         0.3080        79.2295        12.7136        15.1174       104.8164         0.4454         5.2625         4.9146         4.7076     
12464.9999         0.1183         0.3045        82.8664        12.5174        16.4985       106.7968         0.3883         3.9893         4.9731         4.6649     
12465.4999         0.1220         0.3000        85.0082        12.5170        15.9246       106.0571         0.4067         4.3696         4.9495         4.6005     
12465.9999         0.1241         0.3045        85.7850        12.6098        16.0825       105.6777         0.4074         4.3674         4.8642         4.5102     
12466.4999         0.1238         0.3055        86.2607        12.6762        16.1399       106.4369         0.4053         4.3219         4.7921         4.4230     
12466.9999         0.1212         0.3075        86.9005        12.5160        16.6272       108.3847         0.3941         4.0760         4.7517         4.3515     
12467.4999         0.1186         0.3000        87.4639        12.5301        15.2597       110.3238         0.3954         4.2318         4.7315         4.2918     
12467.9999         0.1254         0.3080        87.6676        12.7302        15.5893       110.9968         0.4071         4.4124         4.7226         4.2418     
12468.4999         0.1167         0.3050        87.5373        13.0400        14.8095       110.8087         0.3826         4.0482         4.7157         4.1993     
12468.9999         0.1126         0.2910        87.0917        13.0157        14.8109       110.3047         0.3870         4.1265         4.6771         4.1605     
12469.4999         0.1148         0.2925        86.4267        12.8614        15.6772       110.7103         0.3925         4.1383         4.5744         4.1147     
12469.9999         0.1081         0.2865        85.8619        12.6611        15.5153       112.4727         0.3772         3.8899         4.4583         4.0617     
12470.4999         0.1168         0.2960        85.6154        12.7805        14.1146       113.1478         0.3946         4.3391         4.4103         4.0403     
12470.9999         0.1132         0.3025        85.6382        12.9115        16.3352       110.9391         0.3742         3.7697         4.4413         4.1006     
12471.4999         0.1074         0.2790        85.8509        12.6831        15.2059       107.2771         0.3849         4.0495         4.5368         4.2524     
12471.9999         0.1436         0.3020        85.7032        12.5923        16.2533       103.1817         0.4754         5.8151         4.7199         4.4954     
12472.4999         0.1224         0.2955        85.5596        12.5920        15.6119        98.3887         0.4141         4.5449         4.9975         4.8677     
12472.9999         0.1414         0.2905        87.3322        12.5917        20.0636        95.0195         0.4867         5.5776         5.3292         5.3338     
12473.4999         0.1736         0.2955        90.7540        12.5913         8.8181        95.9450         0.5876        12.9785         5.7025         5.7464     
12473.9999         0.1578         0.2945        93.3153        12.5910        17.3909        99.4712         0.5359         7.4000         6.1931         6.0528     
12474.4999         0.1225         0.2935        93.7596        12.5907        16.8575       100.8466         0.4174         4.4732         6.7914         6.3599     
12474.9999         0.1135         0.2775        90.8515        12.5903        15.7867        99.7524         0.4090         4.4280         7.2811         6.6365     
12475.4999         0.1733         0.2875        84.0576        12.5900        13.5997       100.4399         0.6028        11.5897         7.4116         6.7480     
12475.9999         0.1226         0.2965        75.4411        12.5897        14.5207       105.1418         0.4134         4.6561         7.3598         6.7751     
12476.4999         0.1212         0.3060        64.5289        12.5893        16.6165       109.1048         0.3962         4.1140         7.4689         6.8983     
12476.9999         0.1311         0.3000        51.4534        12.5890        14.5439       105.6018         0.4369         5.1500         7.7804         7.1294     
12477.4999         0.1407         0.2735        42.7999        12.5887        13.4615        94.8048         0.5144         7.4993         7.9783         7.3412     
12477.9999         0.1897         0.2760        45.2705        12.6433         7.9191        82.8099         0.6873        25.8684         7.8597         7.4874     
12478.4999         0.2336         0.2955        54.7471        12.7397         8.6184        75.9272         0.7904        91.9901         7.7393         7.6692     
12478.9999         0.1473         0.3005        62.6203        12.6910        10.4733        74.8587         0.4902         7.4375         7.8748         7.8775     
