~Version Information Section
VERS.          2.0                                     : CWLS LOG ASCII Standard
WRAP.          NO                                      : One line per depth step
CREA.          03/14/14                                : LAS Creation Date
~Well Information Section
STRT.ft        400.9999                                : Start Depth
STOP.ft        12974.4999                              : Stop Depth
STEP.ft        0.5000                                  : Step
NULL.          -999.2500                               : Null Value
COMP.          Mobil                                   : Company
WELL.          9/13a-39                                : Well
FLD .          Appraisal                               : Field
LOC .          Northern North Sea                      : Location
LOC1.          6 600 501Mn 412 180mE                   : Location (UTM
PROV.          UKCS                                    : Province
UWI .          5483                                    : UWI Number
API .                                                  : API Number
SECT.                                                  : Section
TOWN.                                                  : Township
RNGE.                                                  : Range
PDAT.          MSL                                     : Perm Datum
EPD .ft        0.00                                    : Elevation
LMF .          KB                                      : Log Measured From
DMF .          KB                                      : Drill Measured From
APD .ft        85.00                                   : Above Perm Datum
EKB .ft        85.00                                   : Elev-Kelly Bushing
EDF .ft        84.00                                   : Elev-Drill Floor
EGL .ft        -363.00                                 : Elev-Ground Level (Water Depth)
SRVC.          Atlas Wireline                          : Service Company
DATE.          Mar-Apr-1988                            : Logging Date
PROJ.          UKCS                                    : Project
SET .          COMP WIRE                               : Set
~Curve Information Section
DEPTH.ft                                               : Depth Curve
A2F.                                                   : 
A2N.                                                   : 
AC.us/ft                                               : Acoustic Travel Time
CALI.in                                                : Caliper
D2EC.                                                  : 
GR.gAPI                                                : Gamma Ray
R2AT.                                                  : 
R2SL.                                                  : 
RILD.ohmm                                              : Deep Induction Resistivity
RILM.ohmm                                              : Medium Induction Resistivity
~ASCII Log Data Section
# ...
11621.9999         0.0907         0.2695        87.4833        13.2255        18.7364        78.6903         0.3365         3.0582         1.7918         1.9505     
11622.4999         0.0959         0.2715        86.9344        13.2258        18.3489        77.4132         0.3531         3.3063         1.8099         1.9821     
11622.9999         0.0998         0.2690        86.3860        13.2262        18.1536        75.8085         0.3711         3.5796         1.8373         2.0149     
11623.4999         0.1028         0.2700        86.0188        13.2451        17.1475        74.6310         0.3806         3.8052         1.8735         2.0469     
11623.9999         0.1049         0.2685        85.7630        13.2666        17.7813        74.4415         0.3908         3.9195         1.9145         2.0777     
11624.4999         0.1111         0.2670        85.5147        13.2670        17.0337        74.4174         0.4160         4.4285         1.9531         2.1034     
11624.9999         0.1206         0.2770        85.3328        13.2673        16.4070        73.6011         0.4355         4.8812         1.9828         2.1190     
11625.4999         0.1208         0.2825        85.3261        13.2676        16.6896        72.6071         0.4274         4.6858         1.9997         2.1233     
11625.9999         0.1173         0.2840        85.5599        13.2679        16.6268        72.6991         0.4131         4.4162         2.0044         2.1201     
11626.4999         0.1119         0.2810        86.0033        13.2679        17.1369        74.0604         0.3981         4.0987         2.0059         2.1152     
11626.9999         0.1112         0.2755        86.3692        13.2561        17.6133        75.3956         0.4038         4.1537         2.0136         2.1167     
11627.4999         0.1152         0.2815        86.2607        13.2444        16.8965        74.8934         0.4092         4.3175         2.0325         2.1341     
11627.9999         0.1177         0.2955        85.5821        13.2326        16.6983        71.8102         0.3985         4.1454         2.0606         2.1696     
11628.4999         0.1124         0.3000        84.6349        13.2217        16.0351        68.4060         0.3746         3.8016         2.0927         2.2149     
11628.9999         0.1142         0.3025        83.9066        13.2110        16.6094        66.6710         0.3775         3.8001         2.1253         2.2595     
11629.4999         0.1024         0.2990        83.7198        13.2003        16.8605        65.7554         0.3424         3.2530         2.1547         2.2944     
11629.9999         0.1001         0.2940        83.9880        13.1909        18.5428        64.8547         0.3403         3.1201         2.1738         2.3090     
11630.4999         0.1044         0.2730        84.2984        13.1912        18.1487        64.6088         0.3823         3.7533         2.1767         2.2981     
11630.9999         0.1129         0.2725        84.3804        13.1916        17.8323        65.1808         0.4142         4.3179         2.1619         2.2675     
11631.4999         0.1226         0.2775        84.3165        13.1919        16.2828        67.1164         0.4417         5.0269         2.1273         2.2257     
11631.9999         0.1274         0.2885        84.4191        13.1922        16.4076        70.4726         0.4415         5.0081         2.0727         2.1750     
11632.4999         0.1259         0.3025        84.9974        13.1926        16.7342        73.8088         0.4163         4.4660         2.0080         2.1136     
11632.9999         0.1143         0.2990        86.0591        13.1929        18.0076        76.7157         0.3823         3.7642         1.9401         2.0456     
11633.4999         0.0979         0.3000        87.2693        13.1932        17.8423        79.0489         0.3265         2.9786         1.8811         1.9797     
11633.9999         0.0891         0.2955        88.2354        13.1935        16.4717        80.7607         0.3016         2.7390         1.8296         1.9227     
11634.4999         0.0903         0.3020        88.7064        13.1951        16.2870        81.8387         0.2988         2.7144         1.7834         1.8798     
11634.9999         0.0928         0.3020        88.7327        13.2011        18.2422        81.4053         0.3073         2.7199         1.7455         1.8508     
11635.4999         0.1030         0.3050        88.6221        13.2070        16.9512        79.8435         0.3377         3.1819         1.7207         1.8329     
11635.9999         0.0878         0.2960        88.6236        13.2130        17.6398        79.7931         0.2967         2.6222         1.7075         1.8234     
11636.4999         0.0910         0.2635        88.7400        13.2189        19.3407        80.7404         0.3454         3.1396         1.7001         1.8189     
11636.9999         0.1079         0.2760        88.8857        13.2249        17.2389        80.1138         0.3911         3.9699         1.6955         1.8165     
11637.4999         0.1112         0.3060        88.9645        13.2308        17.4008        78.3017         0.3636         3.5222         1.6931         1.8154     
11637.9999         0.0953         0.3040        88.8762        13.2353        16.8373        77.1015         0.3135         2.8688         1.6911         1.8164     
11638.4999         0.0938         0.3050        88.6743        13.2311        16.6624        77.1181         0.3076         2.8033         1.6863         1.8165     
11638.9999         0.0977         0.3055        88.4764        13.2268        17.6045        78.7090         0.3198         2.9061         1.6773         1.8112     
11639.4999         0.1032         0.3025        88.4732        13.2226        16.5219        81.5101         0.3413         3.2605         1.6683         1.8031     
11639.9999         0.1013         0.2985        88.7775        13.2184        15.0279        82.4890         0.3394         3.3370         1.6648         1.7991     
11640.4999         0.1093         0.2930        89.3242        13.2141        18.2785        80.4801         0.3729         3.5979         1.6667         1.8016     
11640.9999         0.1064         0.3045        89.7767        13.2099        16.5578        77.8364         0.3495         3.3760         1.6711         1.8098     
11641.4999         0.0883         0.3015        89.7311        13.2056        16.8752        76.4839         0.2929         2.6139         1.6776         1.8234     
11641.9999         0.0888         0.2790        89.1679        13.2014        17.5195        75.4602         0.3183         2.8925         1.6884         1.8409     
11642.4999         0.0941         0.2760        88.4856        13.1991        17.9916        74.2134         0.3410         3.1624         1.7048         1.8590     
11642.9999         0.0949         0.2700        87.9911        13.1994        17.9389        72.5429         0.3516         3.3118         1.7260         1.8770     
11643.4999         0.0954         0.2660        87.6556        13.1997        17.8830        71.4012         0.3586         3.4144         1.7486         1.8966     
11643.9999         0.0994         0.2640        87.4108        13.1573        17.3479        72.7732         0.3764         3.7233         1.7689         1.9181     
11644.4999         0.1050         0.2700        87.2107        13.1208        17.4763        75.4524         0.3889         3.9133         1.7864         1.9412     
11644.9999         0.1054         0.2675        86.9677        13.1211        17.3461        76.5456         0.3939         4.0083         1.8046         1.9675     
11645.4999         0.1079         0.2700        86.5355        13.1214        17.2417        75.5722         0.3998         4.1175         1.8257         1.9955     
11645.9999         0.1124         0.2835        85.7262        13.1218        16.8468        72.9446         0.3964         4.0951         1.8506         2.0195     
