~Version Information Section
VERS.          2.0                                     : CWLS LOG ASCII Standard
WRAP.          NO                                      : One line per depth step
CREA.          03/14/14                                : LAS Creation Date
~Well Information Section
STRT.ft        400.9999                                : Start Depth
STOP.ft        12974.4999                              : Stop Depth
STEP.ft        0.5000                                  : Step
NULL.          -999.2500                               : Null Value
COMP.          Mobil                                   : Company
WELL.          9/13a-39                                : Well
FLD .          Appraisal                               : Field
LOC .          Northern North Sea                      : Location
LOC1.          6 600 501Mn 412 180mE                   : Location (UTM
PROV.          UKCS                                    : Province
UWI .          5483                                    : UWI Number
API .                                                  : API Number
SECT.                                                  : Section
TOWN.                                                  : Township
RNGE.                                                  : Range
PDAT.          MSL                                     : Perm Datum
EPD .ft        0.00                                    : Elevation
LMF .          KB                                      : Log Measured From
DMF .          KB                                      : Drill Measured From
APD .ft        85.00                                   : Above Perm Datum
EKB .ft        85.00                                   : Elev-Kelly Bushing
EDF .ft        84.00                                   : Elev-Drill Floor
EGL .ft        -363.00                                 : Elev-Ground Level (Water Depth)
SRVC.          Atlas Wireline                          : Service Company
DATE.          Mar-Apr-1988                            : Logging Date
PROJ.          UKCS                                    : Project
SET .          COMP WIRE                               : Set
~Curve Information Section
DEPTH.ft                                               : Depth Curve
A2F.                                                   : 
A2N.                                                   : 
AC.us/ft                                               : Acoustic Travel Time
CALI.in                                                : Caliper
D2EC.                                                  : 
GR.gAPI                                                : Gamma Ray
R2AT.                                                  : 
R2SL.                                                  : 
RILD.ohmm                                              : Deep Induction Resistivity
RILM.ohmm                                              : Medium Induction Resistivity
~ASCII Log Data Section
# ...
12675.4999         0.1380         0.3055        80.2834        12.7225        18.0030       110.7547         0.4517         5.0350         7.7210         7.5826     
12675.9999         0.1488         0.3060        80.6942        12.7097        17.4355       109.6061         0.4863         5.9192         7.4053         7.2495     
12676.4999         0.1391         0.3000        81.0784        12.6956        16.9487       106.5658         0.4635         5.4295         7.1278         6.9936     
12676.9999         0.1438         0.3015        81.8694        12.6815        16.6238       105.1166         0.4768         5.7955         6.9481         6.8370     
12677.4999         0.1388         0.3025        83.3100        12.6852        17.9625       107.4467         0.4587         5.1905         6.8682         6.7587     
12677.9999         0.1392         0.3050        85.2181        12.6898        15.9132       112.5535         0.4564         5.4032         6.8441         6.7353     
12678.4999         0.1361         0.3020        87.2729        12.6944        16.5699       118.1861         0.4505         5.1839         6.8628         6.7645     
12678.9999         0.1351         0.3035        89.0611        12.6989        16.5979       122.3825         0.4452         5.0643         6.9758         6.8624     
12679.4999         0.1348         0.3025        90.2437        12.7035        16.1313       123.5744         0.4455         5.1281         7.1842         7.0458     
12679.9999         0.1333         0.3015        90.7140        12.7081        16.6425       119.7433         0.4422         4.9934         7.3699         7.2680     
12680.4999         0.1493         0.3035        90.7165        12.7127        15.4195       112.6741         0.4920         6.3952         7.4581         7.4177     
12680.9999         0.1380         0.2955        90.8353        12.6779        16.0544       109.0888         0.4670         5.6368         7.5174         7.4692     
12681.4999         0.1254         0.2995        91.3755        12.5249        17.4337       111.1172         0.4186         4.4376         7.6331         7.5091     
12681.9999         0.1339         0.3045        92.0905        12.6424        17.3656       113.8442         0.4399         4.8604         7.8007         7.5791     
12682.4999         0.1424         0.3015        92.8301        12.7302        14.8619       114.7519         0.4724         5.9587         7.9410         7.6581     
12682.9999         0.1415         0.3035        93.5938        12.7534        17.8424       116.3257         0.4662         5.3752         8.0078         7.7678     
12683.4999         0.1467         0.3020        94.4245        12.7528        16.7817       119.6260         0.4857         6.0013         8.0485         7.9255     
12683.9999         0.1404         0.3010        95.2024        12.6493        16.5518       122.9093         0.4666         5.5553         8.1254         8.0798     
12684.4999         0.1349         0.3030        95.6273        12.5559        15.9092       123.6090         0.4451         5.1497         8.2194         8.1684     
12684.9999         0.1452         0.3040        95.5348        12.5647        16.3933       121.4037         0.4778         5.8555         8.2491         8.1525     
12685.4999         0.1469         0.3010        94.9295        12.5736        15.0904       118.5447         0.4880         6.3401         8.1539         8.0040     
12685.9999         0.1370         0.2970        93.9455        12.5825        15.9968       118.0693         0.4613         5.5073         7.9855         7.7726     
12686.4999         0.1328         0.3035        92.8018        12.5913        17.1684       121.2300         0.4376         4.8366         7.8400         7.5781     
12686.9999         0.1349         0.3065        91.7486        12.6002        16.6695       126.2675         0.4400         4.9455         7.7260         7.4742     
12687.4999         0.1373         0.3070        90.9515        12.6091        16.9525       130.5916         0.4471         5.0605         7.6058         7.4377     
12687.9999         0.1438         0.3040        90.4658        12.6180        15.9061       133.7766         0.4731         5.8094         7.5198         7.4581     
12688.4999         0.1398         0.3025        90.1236        12.6268        17.1745       135.3054         0.4622         5.3685         7.5561         7.5564     
12688.9999         0.1416         0.3050        89.8264        12.6357        16.7536       134.6090         0.4643         5.4746         7.7051         7.7120     
12689.4999         0.1442         0.3035        89.5848        12.6446        16.7546       134.2852         0.4751         5.7340         7.8565         7.8528     
12689.9999         0.1474         0.3015        89.4093        12.6534        16.2640       135.6180         0.4890         6.1706         7.9407         7.9327     
12690.4999         0.1486         0.3000        89.3850        12.6623        16.4778       134.8436         0.4952         6.3059         7.9945         7.9670     
12690.9999         0.1374         0.3000        89.3918        12.6641        17.0281       130.9829         0.4581         5.2948         8.0581         7.9944     
12691.4999         0.1426         0.3050        89.2475        12.6635        16.6628       126.8320         0.4676         5.5650         8.0550         7.9991     
12691.9999         0.1431         0.3050        88.9126        12.6629        16.3150       122.2903         0.4691         5.6491         7.9036         7.8991     
12692.4999         0.1461         0.3000        88.3071        12.6623        15.7660       115.9684         0.4871         6.1998         7.6597         7.6683     
12692.9999         0.1442         0.3005        87.2199        12.6618        15.9832       109.9752         0.4800         5.9764         7.4225         7.3835     
12693.4999         0.1366         0.3035        85.6325        12.6612        17.7339       106.9368         0.4500         5.0289         7.2073         7.1097     
12693.9999         0.1449         0.3025        83.8383        12.7172        14.5684       106.6406         0.4789         6.1822         6.9578         6.8335     
12694.4999         0.1361         0.3045        82.4040        12.8004        17.0390       107.9079         0.4470         5.0494         6.6230         6.5186     
12694.9999         0.1482         0.3060        81.7761        12.7476        14.8532       108.5990         0.4845         6.2848         6.2304         6.1585     
12695.4999         0.1377         0.2975        81.8098        12.6943        16.8875       106.9180         0.4628         5.4208         5.8583         5.8020     
12695.9999         0.1280         0.3040        82.0145        12.6784        16.7103       104.7673         0.4211         4.5588         5.5973         5.5252     
12696.4999         0.1327         0.2995        82.0179        12.7264        16.4936       104.5764         0.4430         5.0300         5.4639         5.3809     
12696.9999         0.1354         0.3055        81.8423        12.7170        15.7684       105.8981         0.4431         5.1239         5.4412         5.3806     
12697.4999         0.1354         0.3040        81.8222        12.6374        16.5139       107.3819         0.4453         5.0766         5.4969         5.5139     
12697.9999         0.1504         0.3070        82.1000        12.4975        16.5789       107.9829         0.4900         6.1474         5.6157         5.7613     
12698.4999         0.1414         0.3005        82.4780        12.5151        16.2220       106.8898         0.4705         5.6972         5.8189         6.0795     
12698.9999         0.1478         0.3050        82.7159        12.5339        16.7155       104.8519         0.4846         5.9829         6.1432         6.3871     
12699.4999         0.1537         0.3020        82.6292        12.5527        15.6364       102.5950         0.5089         6.8568         6.5460         6.5947     
