~Version Information Section
VERS.          2.0                                     : CWLS LOG ASCII Standard
WRAP.          NO                                      : One line per depth step
CREA.          03/14/14                                : LAS Creation Date
~Well Information Section
STRT.ft        400.9999                                : Start Depth
STOP.ft        12974.4999                              : Stop Depth
STEP.ft        0.5000                                  : Step
NULL.          -999.2500                               : Null Value
COMP.          Mobil                                   : Company
WELL.          9/13a-39                                : Well
FLD .          Appraisal                               : Field
LOC .          Northern North Sea                      : Location
LOC1.          6 600 501Mn 412 180mE                   : Location (UTM
PROV.          UKCS                                    : Province
UWI .          5483                                    : UWI Number
API .                                                  : API Number
SECT.                                                  : Section
TOWN.                                                  : Township
RNGE.                                                  : Range
PDAT.          MSL                                     : Perm Datum
EPD .ft        0.00                                    : Elevation
LMF .          KB                                      : Log Measured From
DMF .          KB                                      : Drill Measured From
APD .ft        85.00                                   : Above Perm Datum
EKB .ft        85.00                                   : Elev-Kelly Bushing
EDF .ft        84.00                                   : Elev-Drill Floor
EGL .ft        -363.00                                 : Elev-Ground Level (Water Depth)
SRVC.          Atlas Wireline                          : Service Company
DATE.          Mar-Apr-1988                            : Logging Date
PROJ.          UKCS                                    : Project
SET .          COMP WIRE                               : Set
~Curve Information Section
DEPTH.ft                                               : Depth Curve
A2F.                                                   : 
A2N.                                                   : 
AC.us/ft                                               : Acoustic Travel Time
CALI.in                                                : Caliper
D2EC.                                                  : 
GR.gAPI                                                : Gamma Ray
R2AT.                                                  : 
R2SL.                                                  : 
RILD.ohmm                                              : Deep Induction Resistivity
RILM.ohmm                                              : Medium Induction Resistivity
~ASCII Log Data Section
# ...
12577.4999         0.1979         0.2940        97.9807        13.0905        11.3044       107.8208         0.6733        19.6233         4.4264         4.6566     
12577.9999         0.1611         0.2945        97.7238        13.1926        13.7816       104.6290         0.5471         8.6604         4.4396         4.6757     
12578.4999         0.1492         0.2825        97.4108        13.0263        12.1144       102.4840         0.5281         8.3646         4.4745         4.6696     
12578.9999         0.1937         0.2865        97.3205        12.9516         8.7872       101.6447         0.6760        22.5950         4.5242         4.6536     
12579.4999         0.2144         0.2990        97.2440        12.9567         9.5556       100.4884         0.7172        30.5601         4.5831         4.6677     
12579.9999         0.2154         0.2955        97.0911        13.1015        11.5432       100.0172         0.7291        31.3390         4.6462         4.7372     
12580.4999         0.1774         0.3005        96.5401        12.7595        15.6205       101.5556         0.5903        10.1588         4.7063         4.8457     
12580.9999         0.2197         0.3000        95.2192        12.7724        11.0047       104.7632         0.7323        33.1977         4.7502         4.9465     
12581.4999         0.2286         0.2985        93.7616        12.7853        10.1915       108.3079         0.7659        53.0196         4.7920         5.0129     
12581.9999         0.2233         0.2950        93.2027        12.7944        11.9246       111.8895         0.7570        43.0351         4.8780         5.0719     
12582.4999         0.2225         0.2950        93.6801        12.7938        13.5259       115.7092         0.7542        38.9408         5.0224         5.1714     
12582.9999         0.1529         0.2955        94.2825        12.7741        11.3913       119.8880         0.5173         8.1593         5.1864         5.3199     
12583.4999         0.2405         0.3030        94.4129        12.7590        11.2739       123.6700         0.7937        87.3975         5.3586         5.4930     
12583.9999         0.1744         0.3065        94.0788        12.7677        12.7991       126.3996         0.5689         9.9703         5.5813         5.6981     
12584.4999         0.1450         0.3015        93.4917        12.7764        16.0868       128.0709         0.4809         5.9835         5.8628         5.9638     
12584.9999         0.1249         0.3035        93.0008        12.7852        12.9789       128.8547         0.4117         4.8173         6.1287         6.2467     
12585.4999         0.1294         0.2955        92.8769        12.7902        14.8258       129.2501         0.4380         5.1370         6.3038         6.4438     
12585.9999         0.1388         0.2935        92.8117        12.7910        15.4421       130.1878         0.4727         5.8731         6.3875         6.5171     
12586.4999         0.1250         0.2920        92.2608        12.7958        16.8414       131.2852         0.4281         4.6818         6.3797         6.4896     
12586.9999         0.1654         0.3000        91.1127        12.8006        10.4404       131.4771         0.5515         9.9901         6.2690         6.3742     
12587.4999         0.1365         0.2960        89.4290        12.8054        16.8888       130.7282         0.4611         5.3821         6.0984         6.1961     
12587.9999         0.1228         0.3015        87.8044        12.8102        13.8981       129.5288         0.4073         4.6107         5.9371         6.0032     
12588.4999         0.1171         0.2900        86.9041        12.8150        13.8532       129.4954         0.4037         4.5431         5.8140         5.8397     
12588.9999         0.1333         0.2895        86.7406        12.8198        17.4803       131.8128         0.4605         5.2906         5.7409         5.7384     
12589.4999         0.1318         0.3010        86.9014        12.8246        13.1570       135.7965         0.4379         5.3775         5.6879         5.6967     
12589.9999         0.1384         0.2985        87.0181        12.8304        16.1436       139.4931         0.4638         5.5460         5.5914         5.6418     
12590.4999         0.1383         0.3040        87.0083        12.8364        13.5859       141.9939         0.4550         5.7235         5.4439         5.5151     
12590.9999         0.1416         0.3020        86.9584        12.8424        14.6525       140.8980         0.4687         5.8977         5.3091         5.3567     
12591.4999         0.1344         0.3015        86.9348        12.8483        14.9587       136.2652         0.4457         5.2909         5.2297         5.2362     
12591.9999         0.1258         0.2980        86.8537        12.8543        15.5223       131.1448         0.4220         4.7102         5.1662         5.1631     
12592.4999         0.1359         0.3040        86.5837        12.8603        16.3439       126.2538         0.4470         5.1339         5.0592         5.1175     
12592.9999         0.1398         0.3030        86.0832        12.8501        16.2543       121.6840         0.4614         5.4746         4.9324         5.1023     
12593.4999         0.1404         0.3030        85.6917        12.8360        15.6278       120.5357         0.4633         5.6088         4.8532         5.1210     
12593.9999         0.1297         0.3020        85.6225        12.8219        16.3573       122.4949         0.4294         4.7633         4.8387         5.1419     
12594.4999         0.1338         0.3050        85.6819        12.8193        16.0703       123.6642         0.4387         4.9906         4.8825         5.1457     
12594.9999         0.1378         0.3035        85.9134        12.8187        16.0230       123.5769         0.4541         5.3357         4.9937         5.1835     
12595.4999         0.1350         0.3050        86.7590        12.8181        17.0039       123.3910         0.4426         4.9598         5.1692         5.3144     
12595.9999         0.1409         0.3060        88.5878        12.8175        16.4883       124.7051         0.4606         5.4226         5.3637         5.5123     
12596.4999         0.1446         0.3040        91.1817        12.8169        16.7272       128.7556         0.4757         5.7543         5.5093         5.6850     
12596.9999         0.1508         0.3015        93.5026        12.8163        16.2049       133.3699         0.5002         6.4939         5.5696         5.7557     
12597.4999         0.1423         0.3010        94.5202        12.8157        15.5211       133.5994         0.4726         5.8568         5.5571         5.6952     
12597.9999         0.1391         0.3040        94.1809        12.8133        16.7997       129.2256         0.4576         5.3137         5.5010         5.5217     
12598.4999         0.1284         0.3005        93.1060        12.8069        17.2570       124.9529         0.4272         4.6194         5.4339         5.3125     
12598.9999         0.1242         0.3020        91.8247        12.8005        17.4146       123.7985         0.4112         4.3037         5.3722         5.1545     
12599.4999         0.1219         0.2985        90.7263        12.7942        16.6872       124.5995         0.4083         4.3219         5.2795         5.0783     
12599.9999         0.1186         0.2850        89.9352        12.7878        16.1154       125.0612         0.4162         4.5300         5.1183         5.0523     
12600.4999         0.1341         0.2980        89.2554        12.7814        15.9536       125.0984         0.4499         5.2495         4.9527         5.0298     
12600.9999         0.1412         0.3015        88.5080        12.7750        15.7921       126.1647         0.4683         5.7070         4.8962         5.0079     
12601.4999         0.1324         0.2990        87.8595        12.7711        16.3185       128.8436         0.4429         5.0497         4.9750         5.0208     
