~Version Information Section
VERS.          2.0                                     : CWLS LOG ASCII Standard
WRAP.          NO                                      : One line per depth step
CREA.          03/14/14                                : LAS Creation Date
~Well Information Section
STRT.ft        400.9999                                : Start Depth
STOP.ft        12974.4999                              : Stop Depth
STEP.ft        0.5000                                  : Step
NULL.          -999.2500                               : Null Value
COMP.          Mobil                                   : Company
WELL.          9/13a-39                                : Well
FLD .          Appraisal                               : Field
LOC .          Northern North Sea                      : Location
LOC1.          6 600 501Mn 412 180mE                   : Location (UTM
PROV.          UKCS                                    : Province
UWI .          5483                                    : UWI Number
API .                                                  : API Number
SECT.                                                  : Section
TOWN.                                                  : Township
RNGE.                                                  : Range
PDAT.          MSL                                     : Perm Datum
EPD .ft        0.00                                    : Elevation
LMF .          KB                                      : Log Measured From
DMF .          KB                                      : Drill Measured From
APD .ft        85.00                                   : Above Perm Datum
EKB .ft        85.00                                   : Elev-Kelly Bushing
EDF .ft        84.00                                   : Elev-Drill Floor
EGL .ft        -363.00                                 : Elev-Ground Level (Water Depth)
SRVC.          Atlas Wireline                          : Service Company
DATE.          Mar-Apr-1988                            : Logging Date
PROJ.          UKCS                                    : Project
SET .          COMP WIRE                               : Set
~Curve Information Section
DEPTH.ft                                               : Depth Curve
A2F.                                                   : 
A2N.                                                   : 
AC.us/ft                                               : Acoustic Travel Time
CALI.in                                                : Caliper
D2EC.                                                  : 
GR.gAPI                                                : Gamma Ray
R2AT.                                                  : 
R2SL.                                                  : 
RILD.ohmm                                              : Deep Induction Resistivity
RILM.ohmm                                              : Medium Induction Resistivity
~ASCII Log Data Section
# ...
12087.4999         0.1265         0.3020        88.4951        12.9076        16.9060       116.6923         0.4189         4.4965         3.1330         3.3582     
12087.9999         0.1339         0.3060        88.6217        12.9033        16.9895       117.9003         0.4375         4.8550         3.1959         3.3939     
12088.4999         0.1292         0.3055        89.0841        12.9197        17.2178       117.4297         0.4231         4.5440         3.2343         3.4271     
12088.9999         0.1224         0.3000        89.4212        12.9360        17.2643       115.1823         0.4081         4.2625         3.2283         3.4409     
12089.4999         0.1225         0.3065        89.6854        12.9523        18.8552       112.1621         0.3997         3.9760         3.1991         3.4277     
12089.9999         0.1212         0.3060        90.1723        12.9613        18.8637       110.3059         0.3960         3.9158         3.1809         3.4043     
12090.4999         0.1166         0.3045        91.0040        12.9263        18.2616       111.0611         0.3828         3.7520         3.1768         3.3797     
12090.9999         0.1155         0.2985        91.9685        12.8913        19.6150       113.9760         0.3869         3.7142         3.1645         3.3498     
12091.4999         0.1126         0.2940        92.6502        12.8855        19.2227       116.9642         0.3831         3.6839         3.1415         3.3259     
12091.9999         0.1147         0.2925        92.8312        12.8851        17.6445       118.3817         0.3921         3.9520         3.1284         3.3242     
12092.4999         0.1156         0.2970        92.6396        12.8847        18.0401       117.4793         0.3891         3.8700         3.1396         3.3470     
12092.9999         0.1156         0.2890        92.2464        12.8843        18.4024       115.1559         0.4001         4.0207         3.1634         3.3857     
12093.4999         0.1180         0.2895        91.5939        12.9730        17.6086       114.3390         0.4076         4.2206         3.1808         3.4252     
12093.9999         0.1238         0.2955        90.6344        12.9971        17.6711       115.6680         0.4190         4.4210         3.1963         3.4532     
12094.4999         0.1219         0.2970        89.5458        12.8890        18.1140       116.7785         0.4104         4.2225         3.2342         3.4790     
12094.9999         0.1251         0.2905        88.6369        12.8893        18.5295       116.8192         0.4305         4.5517         3.2904         3.5232     
12095.4999         0.1230         0.2910        88.0840        12.8959        18.0151       115.8233         0.4227         4.4554         3.3266         3.5777     
12095.9999         0.1314         0.3005        87.8228        12.9025        16.5498       114.1615         0.4374         4.9043         3.3328         3.6153     
12096.4999         0.1346         0.3045        87.8367        12.9090        17.7402       113.9241         0.4421         4.8644         3.3458         3.6371     
12096.9999         0.1305         0.3060        88.1555        12.9156        18.7273       116.5815         0.4265         4.4565         3.3871         3.6689     
12097.4999         0.1250         0.3050        88.5726        12.9222        19.3054       118.5596         0.4098         4.1086         3.4300         3.7128     
12097.9999         0.1239         0.3045        88.7751        12.9288        18.4541       116.5815         0.4068         4.1304         3.4345         3.7472     
12098.4999         0.1214         0.2965        88.6358        12.9354        18.2181       112.5199         0.4094         4.1956         3.3880         3.7540     
12098.9999         0.1268         0.3020        88.2808        12.9420        17.7458       109.4102         0.4199         4.4306         3.3064         3.7140     
12099.4999         0.1208         0.3025        87.9998        12.9485        17.5391       107.5451         0.3992         4.0804         3.2251         3.6201     
12099.9999         0.1291         0.3025        87.4986        12.9551        18.0999       106.2283         0.4269         4.5255         3.1963         3.5136     
12100.4999         0.1131         0.3000        85.8327        12.9579        17.1439       103.0750         0.3771         3.7500         3.2497         3.4737     
12100.9999         0.1168         0.2820        83.3210        12.9560        17.7871        97.4051         0.4142         4.3223         3.3451         3.5430     
12101.4999         0.1286         0.2865        81.5229        12.9540        18.6412        93.5813         0.4487         4.9006         3.4155         3.6868     
12101.9999         0.1701         0.2980        81.1890        12.9521        11.4500        95.5854         0.5707        10.5740         3.4580         3.8289     
12102.4999         0.1389         0.2955        82.3488        12.9502        19.2275       100.3098         0.4700         5.2907         3.5158         3.9258     
12102.9999         0.1253         0.3025        84.8582        12.9482        16.9774       102.2812         0.4143         4.4025         3.5880         3.9606     
12103.4999         0.1277         0.3055        87.4779        12.9463        17.1950       100.6120         0.4182         4.4534         3.6177         3.9115     
12103.9999         0.1254         0.3045        88.8656        12.9444        18.0233        97.9798         0.4117         4.2554         3.5581         3.7968     
12104.4999         0.1228         0.3035        89.1039        12.9424        17.7801        96.4481         0.4047         4.1532         3.4345         3.6720     
12104.9999         0.1249         0.3030        88.9376        12.9405        18.3118        96.4190         0.4121         4.2358         3.3094         3.5677     
12105.4999         0.1252         0.3045        88.7541        12.9386        18.4695        97.4963         0.4113         4.2074         3.2185         3.4836     
12105.9999         0.1258         0.3060        88.7038        12.9366        18.8813        98.9328         0.4112         4.1677         3.1629         3.4221     
12106.4999         0.1278         0.3055        88.7639        12.9347        18.5636       100.8167         0.4184         4.3239         3.1242         3.3833     
12106.9999         0.1282         0.3040        88.8028        12.9328        17.7115       102.7294         0.4217         4.4668         3.0860         3.3539     
12107.4999         0.1282         0.3050        88.7073        12.9284        18.1211       103.2016         0.4203         4.4008         3.0543         3.3232     
12107.9999         0.1270         0.3060        88.4598        12.9223        19.0107       101.5972         0.4150         4.2239         3.0367         3.2922     
12108.4999         0.1251         0.3055        88.3267        12.9161        19.0616        98.9687         0.4096         4.1250         3.0268         3.2593     
12108.9999         0.1221         0.3030        88.5074        12.9100        19.1643        96.9628         0.4031         4.0065         3.0223         3.2248     
12109.4999         0.1093         0.3010        88.8457        12.9038        17.2797        96.6356         0.3630         3.5220         3.0205         3.2021     
12109.9999         0.1158         0.2845        89.1376        12.8977        21.4176        97.8908         0.4069         3.8929         2.9881         3.1930     
12110.4999         0.1201         0.2960        89.2079        12.8983        19.3016        99.7414         0.4056         4.0378         2.9099         3.1550     
12110.9999         0.1188         0.3005        89.0123        12.8992        19.3608       101.2482         0.3954         3.8658         2.8415         3.0718     
12111.4999         0.1105         0.3035        88.8219        12.9002        18.1821       102.5583         0.3641         3.4742         2.8351         3.0078     
