~Version Information Section
VERS.          2.0                                     : CWLS LOG ASCII Standard
WRAP.          NO                                      : One line per depth step
CREA.          03/14/14                                : LAS Creation Date
~Well Information Section
STRT.ft        400.9999                                : Start Depth
STOP.ft        12974.4999                              : Stop Depth
STEP.ft        0.5000                                  : Step
NULL.          -999.2500                               : Null Value
COMP.          Mobil                                   : Company
WELL.          9/13a-39                                : Well
FLD .          Appraisal                               : Field
LOC .          Northern North Sea                      : Location
LOC1.          6 600 501Mn 412 180mE                   : Location (UTM
PROV.          UKCS                                    : Province
UWI .          5483                                    : UWI Number
API .                                                  : API Number
SECT.                                                  : Section
TOWN.                                                  : Township
RNGE.                                                  : Range
PDAT.          MSL                                     : Perm Datum
EPD .ft        0.00                                    : Elevation
LMF .          KB                                      : Log Measured From
DMF .          KB                                      : Drill Measured From
APD .ft        85.00                                   : Above Perm Datum
EKB .ft        85.00                                   : Elev-Kelly Bushing
EDF .ft        84.00                                   : Elev-Drill Floor
EGL .ft        -363.00                                 : Elev-Ground Level (Water Depth)
SRVC.          Atlas Wireline                          : Service Company
DATE.          Mar-Apr-1988                            : Logging Date
PROJ.          UKCS                                    : Project
SET .          COMP WIRE                               : Set
~Curve Information Section
DEPTH.ft                                               : Depth Curve
A2F.                                                   : 
A2N.                                                   : 
AC.us/ft                                               : Acoustic Travel Time
CALI.in                                                : Caliper
D2EC.                                                  : 
GR.gAPI                                                : Gamma Ray
R2AT.                                                  : 
R2SL.                                                  : 
RILD.ohmm                                              : Deep Induction Resistivity
RILM.ohmm                                              : Medium Induction Resistivity
~ASCII Log Data Section
# ...
12332.4999         0.1643         0.3010        78.3439        12.5552        13.2369        27.9896         0.5457         8.7555         2.2013         2.6803     
12332.9999         0.1571         0.2995        77.8299        12.5484        13.7547        25.4543         0.5244         7.7834         2.2334         2.6807     
12333.4999         0.1614         0.3055        77.2227        12.5416        13.4416        25.2556         0.5282         8.0032         2.2557         2.6606     
12333.9999         0.1655         0.3050        76.8284        12.5348        14.0918        28.5919         0.5426         8.3922         2.2445         2.6119     
12334.4999         0.1656         0.3010        76.9293        12.5294        14.2044        34.3824         0.5500         8.6664         2.2077         2.5593     
12334.9999         0.1534         0.3000        77.3987        12.5293        14.0587        40.1454         0.5115         7.2626         2.1735         2.5271     
12335.4999         0.1523         0.2990        77.8947        12.5292        14.5666        46.5020         0.5094         7.0862         2.1601         2.5184     
12335.9999         0.1524         0.2950        78.1555        12.5292        13.4285        56.4256         0.5167         7.5888         2.1670         2.5272     
12336.4999         0.1745         0.3010        78.2818        12.5303        13.9647        68.5657         0.5797        10.1277         2.1797         2.5464     
12336.9999         0.1828         0.2960        78.6359        12.5329        13.6021        74.3459         0.6176        12.5893         2.1764         2.5644     
12337.4999         0.1456         0.3005        79.3379        12.5356        12.1487        67.8374         0.4846         6.8307         2.1445         2.5616     
12337.9999         0.1454         0.2975        80.0592        12.5383        13.4464        54.4159         0.4887         6.6738         2.0936         2.5221     
12338.4999         0.1474         0.3035        80.1975        12.5409        14.7614        43.1506         0.4858         6.3379         2.0313         2.4504     
12338.9999         0.1551         0.3040        79.4492        12.5436        12.9327        36.4897         0.5103         7.4847         1.9440         2.3569     
12339.4999         0.1534         0.3035        78.2634        12.5462        13.2904        32.7345         0.5054         7.2335         1.8329         2.2394     
12339.9999         0.1565         0.3030        77.3734        12.5489        12.5657        30.6742         0.5165         7.7982         1.7200         2.1021     
12340.4999         0.1599         0.3015        77.0362        12.5516        14.4308        29.3130         0.5303         7.8333         1.6230         1.9693     
12340.9999         0.1580         0.3020        77.0611        12.5542        15.0941        28.1964         0.5232         7.4317         1.5521         1.8642     
12341.4999         0.1666         0.3045        77.2242        12.5569        13.8931        27.8320         0.5470         8.6248         1.5092         1.7995     
12341.9999         0.1748         0.3030        77.4386        12.5596        12.4370        28.3371         0.5769        10.5228         1.4885         1.7694     
12342.4999         0.1717         0.3030        77.6186        12.5622        11.7070        30.3625         0.5666        10.2557         1.4817         1.7647     
12342.9999         0.1706         0.2980        77.3953        12.5649        13.1366        34.9697         0.5726        10.0380         1.4816         1.7773     
12343.4999         0.1649         0.3020        76.8742        12.5675        12.5487        40.9841         0.5462         8.9841         1.4828         1.7986     
12343.9999         0.1822         0.2995        76.8033        12.5584        14.6606        45.0251         0.6083        11.5334         1.4839         1.8206     
12344.4999         0.1775         0.2940        77.6175        12.5468        15.3015        45.6017         0.6037        11.0241         1.4882         1.8427     
12344.9999         0.1463         0.3025        79.0053        12.5352        14.2762        44.3948         0.4837         6.3669         1.4986         1.8683     
12345.4999         0.1517         0.3045        80.3739        12.5279        13.0757        43.7566         0.4984         7.0544         1.5119         1.8949     
12345.9999         0.1582         0.3060        81.2167        12.5279        13.5462        44.3566         0.5170         7.5680         1.5239         1.9154     
12346.4999         0.1684         0.3005        81.3667        12.5278        16.5184        43.9554         0.5603         8.5091         1.5379         1.9315     
12346.9999         0.1430         0.3010        81.0108        12.5278        11.7118        40.3396         0.4751         6.6386         1.5612         1.9528     
12347.4999         0.1677         0.3005        80.2417        12.5277        12.9041        35.0827         0.5580         9.4063         1.5944         1.9872     
12347.9999         0.1659         0.3020        79.2860        12.5276        13.5885        31.7833         0.5493         8.8056         1.6311         2.0331     
12348.4999         0.1645         0.3030        78.6842        12.5276        13.5668        32.4452         0.5429         8.5458         1.6706         2.0879     
12348.9999         0.1507         0.3025        78.8047        12.5275        14.8653        36.5183         0.4983         6.6829         1.7240         2.1511     
12349.4999         0.1587         0.3055        79.3516        12.5274        15.3469        41.5353         0.5194         7.2520         1.7989         2.2241     
12349.9999         0.1521         0.2990        79.6046        12.5274        11.8349        45.3781         0.5086         7.7071         1.8854         2.3092     
12350.4999         0.1526         0.3000        79.1728        12.5273        13.9648        50.2527         0.5085         7.1870         1.9680         2.4068     
12350.9999         0.1448         0.3005        78.3034        12.5272        14.9982        57.1120         0.4819         6.1886         2.0430         2.5134     
12351.4999         0.1735         0.3035        77.3065        12.5272        17.6176        60.7567         0.5717         8.7355         2.1142         2.6150     
12351.9999         0.1419         0.2995        76.3049        12.5271        11.1376        58.2664         0.4739         6.7351         2.1669         2.6894     
12352.4999         0.1758         0.3040        75.7206        12.5270        12.5966        52.9535         0.5783        10.5378         2.1821         2.7143     
12352.9999         0.2052         0.2960        76.0614        12.5270        14.4801        46.6541         0.6932        20.2464         2.1641         2.6868     
12353.4999         0.1316         0.2950        77.1721        12.5269        11.4255        39.2487         0.4462         5.8842         2.1248         2.6225     
12353.9999         0.1471         0.3020        78.3889        12.5268        13.8411        33.1198         0.4872         6.5504         2.0716         2.5319     
12354.4999         0.1552         0.3030        79.0659        12.5268        13.9560        29.2423         0.5122         7.3092         2.0116         2.4199     
12354.9999         0.1633         0.3050        79.0695        12.5267        13.5237        26.4649         0.5355         8.2587         1.9365         2.2972     
12355.4999         0.1684         0.3045        78.8082        12.5266        12.5807        24.2408         0.5532         9.2870         1.8450         2.1810     
12355.9999         0.1732         0.2990        78.6239        12.5266        12.5389        22.4787         0.5794        10.6202         1.7473         2.0872     
12356.4999         0.1652         0.2975        78.4577        12.5265        12.6832        21.6140         0.5553         9.3496         1.6590         2.0215     
