~Version Information Section
VERS.          2.0                                     : CWLS LOG ASCII Standard
WRAP.          NO                                      : One line per depth step
CREA.          03/14/14                                : LAS Creation Date
~Well Information Section
STRT.ft        400.9999                                : Start Depth
STOP.ft        12974.4999                              : Stop Depth
STEP.ft        0.5000                                  : Step
NULL.          -999.2500                               : Null Value
COMP.          Mobil                                   : Company
WELL.          9/13a-39                                : Well
FLD .          Appraisal                               : Field
LOC .          Northern North Sea                      : Location
LOC1.          6 600 501Mn 412 180mE                   : Location (UTM
PROV.          UKCS                                    : Province
UWI .          5483                                    : UWI Number
API .                                                  : API Number
SECT.                                                  : Section
TOWN.                                                  : Township
RNGE.                                                  : Range
PDAT.          MSL                                     : Perm Datum
EPD .ft        0.00                                    : Elevation
LMF .          KB                                      : Log Measured From
DMF .          KB                                      : Drill Measured From
APD .ft        85.00                                   : Above Perm Datum
EKB .ft        85.00                                   : Elev-Kelly Bushing
EDF .ft        84.00                                   : Elev-Drill Floor
EGL .ft        -363.00                                 : Elev-Ground Level (Water Depth)
SRVC.          Atlas Wireline                          : Service Company
DATE.          Mar-Apr-1988                            : Logging Date
PROJ.          UKCS                                    : Project
SET .          COMP WIRE                               : Set
~Curve Information Section
DEPTH.ft                                               : Depth Curve
A2F.                                                   : 
A2N.                                                   : 
AC.us/ft                                               : Acoustic Travel Time
CALI.in                                                : Caliper
D2EC.                                                  : 
GR.gAPI                                                : Gamma Ray
R2AT.                                                  : 
R2SL.                                                  : 
RILD.ohmm                                              : Deep Induction Resistivity
RILM.ohmm                                              : Medium Induction Resistivity
~ASCII Log Data Section
# ...
11278.9999         0.0587         0.3005        93.7613        13.2797         9.1964        84.2718         0.1953         1.8112         1.4522         1.5683     
11279.4999         0.0561         0.2795        94.1210        13.2926        16.2614        85.5023         0.2006         1.6765         1.4415         1.5572     
11279.9999         0.0595         0.2427        94.4002        13.3055        23.5202        84.6006         0.2452         1.8987         1.4350         1.5476     
11280.4999         0.0667         0.2361        94.5058        13.3452        21.8269        82.4941         0.2827         2.3018         1.4289         1.5411     
11280.9999         0.0743         0.2380        94.3717        13.4258        19.6232        80.1501         0.3122         2.7124         1.4239         1.5384     
11281.4999         0.0827         0.2394        93.8711        13.4262        19.3899        77.8055         0.3453         3.1366         1.4235         1.5412     
11281.9999         0.0931         0.2470        93.0663        13.4191        18.3102        75.7741         0.3770         3.6587         1.4272         1.5501     
11282.4999         0.0976         0.2530        92.3054        13.4119        16.2127        75.5852         0.3856         3.9690         1.4316         1.5608     
11282.9999         0.1060         0.2610        91.9168        13.4048        17.1052        76.5124         0.4061         4.2421         1.4400         1.5708     
11283.4999         0.1159         0.2675        91.9684        13.3977        16.5568        77.3954         0.4332         4.8164         1.4584         1.5848     
11283.9999         0.1183         0.2700        92.1998        13.3834        16.4428        76.8089         0.4382         4.9337         1.4843         1.6060     
11284.4999         0.1244         0.2800        92.2710        13.3294        16.1454        76.0500         0.4444         5.1037         1.5076         1.6297     
11284.9999         0.1261         0.2965        92.0822        13.2966        16.4008        75.2892         0.4252         4.6731         1.5237         1.6505     
11285.4999         0.1114         0.2975        91.8589        13.2743        16.3889        75.1771         0.3744         3.7684         1.5378         1.6678     
11285.9999         0.0781         0.2940        91.8419        13.2711        17.0724        75.4528         0.2655         2.2956         1.5538         1.6805     
11286.4999         0.0692         0.2800        91.9553        13.2825        14.8345        75.7277         0.2471         2.1808         1.5698         1.6877     
11286.9999         0.0727         0.2439        92.0254        13.4267        20.1271        74.6474         0.2982         2.5307         1.5825         1.6923     
11287.4999         0.0842         0.2433        92.0116        13.4172        17.5848        72.9498         0.3464         3.2611         1.5893         1.6971     
11287.9999         0.0927         0.2530        91.9491        13.4077        17.8077        71.6206         0.3664         3.5343         1.5900         1.6995     
11288.4999         0.0946         0.2600        91.9444        13.3981        16.8571        73.7928         0.3639         3.5683         1.5883         1.6974     
11288.9999         0.0841         0.2555        92.1562        13.3896        17.5578        76.8002         0.3293         3.0313         1.5862         1.6920     
11289.4999         0.0804         0.2441        92.5525        13.3894        17.7220        78.9723         0.3296         3.0260         1.5821         1.6843     
11289.9999         0.0844         0.2470        92.9235        13.3892        16.9755        79.6760         0.3419         3.2379         1.5746         1.6744     
11290.4999         0.0886         0.2550        93.1255        13.3890        17.1548        80.3352         0.3473         3.3028         1.5647         1.6640     
11290.9999         0.0953         0.2885        93.1267        13.3492        16.6049        80.7281         0.3304         3.1035         1.5540         1.6554     
11291.4999         0.0810         0.2975        92.9894        13.2289        13.4464        81.0745         0.2723         2.5307         1.5446         1.6498     
11291.9999         0.0700         0.2955        92.8183        13.2287        14.9075        81.0777         0.2369         2.0693         1.5373         1.6473     
11292.4999         0.0694         0.2665        92.7269        13.2167        17.0970        80.8788         0.2603         2.2389         1.5317         1.6464     
11292.9999         0.0774         0.2665        92.7913        13.2027        17.1475        80.6805         0.2903         2.5710         1.5283         1.6454     
11293.4999         0.0815         0.2795        92.9440        13.1886        16.5818        80.4819         0.2916         2.6122         1.5277         1.6447     
11293.9999         0.0749         0.2955        93.0594        13.1746        13.9140        80.3271         0.2536         2.2890         1.5295         1.6455     
11294.4999         0.0657         0.2690        93.0489        13.1605        16.5520        80.4469         0.2442         2.0897         1.5341         1.6487     
11294.9999         0.0707         0.2436        92.9270        13.1505        20.1193        80.6137         0.2905         2.4463         1.5428         1.6561     
11295.4999         0.0814         0.2412        92.7862        13.1805        18.6304        80.8197         0.3373         3.0748         1.5560         1.6698     
11295.9999         0.0910         0.2480        92.6900        13.2106        17.5974        81.0134         0.3669         3.5584         1.5726         1.6898     
11296.4999         0.0961         0.2540        92.5200        13.2178        17.0515        80.8411         0.3782         3.7753         1.5912         1.7145     
11296.9999         0.1017         0.2620        92.1064        13.1973        16.7612        80.3763         0.3881         3.9622         1.6128         1.7416     
11297.4999         0.1017         0.2730        91.4464        13.1769        17.0437        79.1547         0.3725         3.6856         1.6400         1.7681     
11297.9999         0.1019         0.2880        90.6479        13.1565        17.3718        78.6230         0.3537         3.3800         1.6718         1.7926     
11298.4999         0.1070         0.2965        89.8384        13.1497        18.7585        78.9685         0.3609         3.3888         1.6981         1.8123     
11298.9999         0.1391         0.3000        89.3498        13.1561        17.0783        79.4428         0.4635         5.4123         1.7090         1.8202     
11299.4999         0.1488         0.2990        89.4725        13.1626        16.8186        80.5139         0.4975         6.3139         1.7079         1.8120     
11299.9999         0.1339         0.3005        90.0476        13.1690        14.0121        82.3965         0.4455         5.4250         1.7059         1.7946     
11300.4999         0.0875         0.2830        90.7724        13.1755        17.6560        84.4554         0.3092         2.7716         1.7034         1.7779     
11300.9999         0.0820         0.2455        91.4542        13.1819        19.7039        85.4622         0.3340         2.9730         1.6911         1.7631     
11301.4999         0.0909         0.2510        91.9267        13.1894        17.8164        84.7120         0.3623         3.4737         1.6685         1.7479     
11301.9999         0.0984         0.2655        92.2108        13.1977        17.0630        82.9835         0.3708         3.6573         1.6490         1.7354     
11302.4999         0.1076         0.2800        92.8208        13.2059        17.9493        81.5809         0.3844         3.8014         1.6414         1.7309     
11302.9999         0.1303         0.2995        93.5442        13.2142        17.6277        81.8503         0.4351         4.7350         1.6421         1.7336     
