~Version Information Section
VERS.          2.0                                     : CWLS LOG ASCII Standard
WRAP.          NO                                      : One line per depth step
CREA.          03/14/14                                : LAS Creation Date
~Well Information Section
STRT.ft        400.9999                                : Start Depth
STOP.ft        12974.4999                              : Stop Depth
STEP.ft        0.5000                                  : Step
NULL.          -999.2500                               : Null Value
COMP.          Mobil                                   : Company
WELL.          9/13a-39                                : Well
FLD .          Appraisal                               : Field
LOC .          Northern North Sea                      : Location
LOC1.          6 600 501Mn 412 180mE                   : Location (UTM
PROV.          UKCS                                    : Province
UWI .          5483                                    : UWI Number
API .                                                  : API Number
SECT.                                                  : Section
TOWN.                                                  : Township
RNGE.                                                  : Range
PDAT.          MSL                                     : Perm Datum
EPD .ft        0.00                                    : Elevation
LMF .          KB                                      : Log Measured From
DMF .          KB                                      : Drill Measured From
APD .ft        85.00                                   : Above Perm Datum
EKB .ft        85.00                                   : Elev-Kelly Bushing
EDF .ft        84.00                                   : Elev-Drill Floor
EGL .ft        -363.00                                 : Elev-Ground Level (Water Depth)
SRVC.          Atlas Wireline                          : Service Company
DATE.          Mar-Apr-1988                            : Logging Date
PROJ.          UKCS                                    : Project
SET .          COMP WIRE                               : Set
~Curve Information Section
DEPTH.ft                                               : Depth Curve
A2F.                                                   : 
A2N.                                                   : 
AC.us/ft                                               : Acoustic Travel Time
CALI.in                                                : Caliper
D2EC.                                                  : 
GR.gAPI                                                : Gamma Ray
R2AT.                                                  : 
R2SL.                                                  : 
RILD.ohmm                                              : Deep Induction Resistivity
RILM.ohmm                                              : Medium Induction Resistivity
~ASCII Log Data Section
# ...
11989.4999         0.1227         0.3055        96.9250        12.8320        18.3708       211.6681         0.4018         4.0522         5.1246         5.2065     
11989.9999         0.1290         0.3045        96.4778        12.8326        18.2730       216.2729         0.4236         4.4481         5.0779         5.1878     
11990.4999         0.1282         0.3045        95.9472        12.8346        18.2343       216.8539         0.4210         4.4025         5.0312         5.1970     
11990.9999         0.1298         0.3025        96.0718        12.8367        18.3511       213.2096         0.4291         4.5434         4.9980         5.2033     
11991.4999         0.1245         0.3010        97.9267        12.8388        18.3156       209.9827         0.4136         4.2618         4.9829         5.1795     
11991.9999         0.1264         0.3035       100.0461        12.8409        17.7743       209.1747         0.4166         4.3667         4.9797         5.1355     
11992.4999         0.1230         0.3045        99.9440        12.8429        17.4812       209.5565         0.4039         4.1681         4.9711         5.0920     
11992.9999         0.1227         0.3060        97.9460        12.8450        18.5802       211.3931         0.4011         4.0234         4.9461         5.0648     
11993.4999         0.1223         0.3035        96.2288        12.8471        17.3501       215.7813         0.4028         4.1603         4.9130         5.0643     
11993.9999         0.1201         0.2970        95.2311        12.8492        18.3647       217.9338         0.4043         4.0943         4.8959         5.0830     
11994.4999         0.1316         0.3025        94.5620        12.8513        17.8969       215.2886         0.4351         4.7064         4.9168         5.1087     
11994.9999         0.1261         0.3020        94.2061        12.8533        18.8103       210.2667         0.4174         4.2843         4.9702         5.1490     
11995.4999         0.1277         0.3035        93.8497        12.8554        17.8687       204.6471         0.4209         4.4372         5.0294         5.2087     
11995.9999         0.1378         0.3060        93.0499        12.8575        18.1454       196.9355         0.4504         4.9900         5.0817         5.2780     
11996.4999         0.1331         0.3055        91.8676        12.8596        17.4689       188.6812         0.4358         4.7656         5.1409         5.3521     
11996.9999         0.1427         0.3050        90.9095        12.8616        16.8389       183.4760         0.4678         5.5455         5.2139         5.4273     
11997.4999         0.1351         0.3030        90.6538        12.8637        16.4829       183.0944         0.4458         5.0900         5.2755         5.4812     
11997.9999         0.1346         0.3000        91.1596        12.8658        16.4301       186.1310         0.4485         5.1577         5.2954         5.4920     
11998.4999         0.1420         0.3030        92.0874        12.8679        16.6875       189.3529         0.4686         5.5862         5.2678         5.4535     
11998.9999         0.1312         0.3010        92.9703        12.8700        17.6940       190.3929         0.4358         4.7425         5.1951         5.3629     
11999.4999         0.1302         0.3045        93.6194        12.8720        17.4074       191.0073         0.4278         4.6141         5.0915         5.2307     
11999.9999         0.1259         0.3045        94.0281        12.8741        18.3076       192.1703         0.4134         4.2583         4.9894         5.0956     
12000.4999         0.1239         0.3065        94.2431        12.8762        17.8085       190.7975         0.4042         4.1421         4.8918         4.9924     
12000.9999         0.1239         0.3040        94.4904        12.8779        17.6501       186.7893         0.4075         4.2147         4.7945         4.9171     
12001.4999         0.1269         0.3065        94.8765        12.8775        18.4646       184.2844         0.4139         4.2540         4.7353         4.8676     
12001.9999         0.1236         0.3035        95.0889        12.8771        18.3793       182.6349         0.4073         4.1459         4.7386         4.8606     
12002.4999         0.1236         0.2930        95.0094        12.8767        18.1210       179.8569         0.4217         4.4271         4.7687         4.8994     
12002.9999         0.1426         0.3010        94.8786        12.8763        17.4131       179.7219         0.4738         5.6110         4.7786         4.9460     
12003.4999         0.1340         0.3020        95.0004        12.8759        18.7299       183.1291         0.4437         4.7889         4.7783         4.9692     
12003.9999         0.1298         0.3055        95.5582        12.8716        18.0334       186.4031         0.4247         4.4917         4.8199         4.9884     
12004.4999         0.1259         0.3035        96.1683        12.8611        18.3528       187.6929         0.4147         4.2784         4.9050         5.0255     
12004.9999         0.1277         0.3045        96.2284        12.8506        16.9653       188.1555         0.4193         4.4991         4.9656         5.0673     
12005.4999         0.1325         0.3040        95.5548        12.8402        16.0300       190.1133         0.4359         4.9347         4.9711         5.0944     
12005.9999         0.1290         0.3015        95.0708        12.8367        18.6323       194.8247         0.4279         4.4916         4.9774         5.1184     
12006.4999         0.1250         0.3055        95.9125        12.8418        18.3499       199.7116         0.4092         4.1803         5.0274         5.1588     
12006.9999         0.1291         0.3055        97.7002        12.8469        17.8787       202.0815         0.4227         4.4688         5.1142         5.2098     
12007.4999         0.1194         0.3035        98.7657        12.8520        18.9046       203.4323         0.3933         3.8687         5.2152         5.2672     
12007.9999         0.1189         0.3030        98.3620        12.8571        18.0777       204.9716         0.3925         3.9228         5.2909         5.3345     
12008.4999         0.1267         0.3035        97.3065        12.8622        18.6780       205.4166         0.4176         4.3000         5.3011         5.3772     
12008.9999         0.1343         0.3030        96.3469        12.8673        16.0707       203.8596         0.4433         5.0883         5.2542         5.3420     
12009.4999         0.1211         0.2980        95.7766        12.8706        18.8609       202.2052         0.4065         4.0891         5.1926         5.2423     
12009.9999         0.1123         0.3050        95.6199        12.8674        19.1347       201.1174         0.3682         3.4693         5.1217         5.1256     
12010.4999         0.1191         0.3060        95.7253        12.8643        17.8618       198.4055         0.3893         3.8878         5.0043         5.0020     
12010.9999         0.1192         0.3045        95.8257        12.8611        17.6729       194.0855         0.3916         3.9418         4.8260         4.8613     
12011.4999         0.1270         0.3055        95.8148        12.8580        17.7906       188.8963         0.4157         4.3489         4.6372         4.7128     
12011.9999         0.1283         0.2990        95.7682        12.8548        17.9822       183.3030         0.4289         4.5769         4.5029         4.5755     
12012.4999         0.1092         0.2955        95.7716        12.8517        17.1944       180.5673         0.3695         3.6276         4.4312         4.4760     
12012.9999         0.1048         0.3040        96.0271        12.8485        22.7939       183.2246         0.3448         2.9491         4.3945         4.4244     
12013.4999         0.1038         0.3050        96.7817        12.8454        19.6864       189.0755         0.3404         3.0549         4.3797         4.4089     
