~Version Information Section
VERS.          2.0                                     : CWLS LOG ASCII Standard
WRAP.          NO                                      : One line per depth step
CREA.          03/14/14                                : LAS Creation Date
~Well Information Section
STRT.ft        400.9999                                : Start Depth
STOP.ft        12974.4999                              : Stop Depth
STEP.ft        0.5000                                  : Step
NULL.          -999.2500                               : Null Value
COMP.          Mobil                                   : Company
WELL.          9/13a-39                                : Well
FLD .          Appraisal                               : Field
LOC .          Northern North Sea                      : Location
LOC1.          6 600 501Mn 412 180mE                   : Location (UTM
PROV.          UKCS                                    : Province
UWI .          5483                                    : UWI Number
API .                                                  : API Number
SECT.                                                  : Section
TOWN.                                                  : Township
RNGE.                                                  : Range
PDAT.          MSL                                     : Perm Datum
EPD .ft        0.00                                    : Elevation
LMF .          KB                                      : Log Measured From
DMF .          KB                                      : Drill Measured From
APD .ft        85.00                                   : Above Perm Datum
EKB .ft        85.00                                   : Elev-Kelly Bushing
EDF .ft        84.00                                   : Elev-Drill Floor
EGL .ft        -363.00                                 : Elev-Ground Level (Water Depth)
SRVC.          Atlas Wireline                          : Service Company
DATE.          Mar-Apr-1988                            : Logging Date
PROJ.          UKCS                                    : Project
SET .          COMP WIRE                               : Set
~Curve Information Section
DEPTH.ft                                               : Depth Curve
A2F.                                                   : 
A2N.                                                   : 
AC.us/ft                                               : Acoustic Travel Time
CALI.in                                                : Caliper
D2EC.                                                  : 
GR.gAPI                                                : Gamma Ray
R2AT.                                                  : 
R2SL.                                                  : 
RILD.ohmm                                              : Deep Induction Resistivity
RILM.ohmm                                              : Medium Induction Resistivity
~ASCII Log Data Section
# ...
12919.9999         0.1543         0.2955        80.0609        12.4514        14.1765        26.8815         0.5222         7.6036         1.1398         1.4064     
12920.4999         0.1489         0.3000        82.3423        12.4503        14.4252        28.9835         0.4963         6.7052         1.2913         1.5717     
12920.9999         0.1472         0.2950        88.2050        12.4492        14.4053        35.8555         0.4992         6.7972         1.4797         1.7470     
12921.4999         0.1582         0.2850        95.1165        12.4482        14.0495        50.1100         0.5550         8.9236         1.6811         1.8974     
12921.9999         0.2208         0.2845        99.4782        12.4471         8.7941        65.7362         0.7761        67.7385         1.8477         1.9611     
12922.4999         0.1924         0.2995        99.0748        12.4460        10.1227        72.5885         0.6423        16.7829         1.9247         1.9036     
12922.9999         0.1781         0.2950        93.8495        12.4449        14.1266        67.8110         0.6038        11.4482         1.8836         1.7588     
12923.4999         0.1136         0.2980        86.5439        12.4439        11.4184        57.9425         0.3813         4.4001         1.7613         1.5825     
12923.9999         0.1173         0.2815        81.1797        12.4428         9.9870        49.9031         0.4167         5.4038         1.6223         1.4178     
12924.4999         0.1076         0.2695        79.4052        12.4417        12.0680        45.7190         0.3994         4.6822         1.5069         1.2894     
12924.9999         0.1221         0.2680        79.6724        12.4419        15.0964        43.4295         0.4555         5.4989         1.4225         1.1997     
12925.4999         0.1488         0.3005        79.9504        12.4433        15.2797      -999.2500         0.4950         6.5073         1.3469         1.1375     
12925.9999         0.1271         0.2985        79.6998        12.4446        13.7972      -999.2500         0.4257         5.0063         1.2246         1.0912     
12926.4999         0.1106         0.3005        79.1243        12.4460        11.5433      -999.2500         0.3679         4.1277         1.0638         1.0542     
12926.9999         0.1057         0.2830        78.3133        12.4473        12.0757      -999.2500         0.3737         4.1746         0.9381         1.0239     
12927.4999         0.1049         0.2655        77.7000        12.4487        14.4685      -999.2500         0.3950         4.3074         0.8695         0.9997     
12927.9999         0.1187         0.2735        77.8873        12.4501        14.5479      -999.2500         0.4342         5.0900         0.8311         0.9811     
12928.4999         0.1319         0.3075        78.8451        12.4514        14.4774      -999.2500         0.4291         4.9880         0.8011         0.9675     
12928.9999         0.1231         0.3060        80.0510        12.4528        13.5508      -999.2500         0.4022         4.5499         0.7775         0.9495     
12929.4999         0.1286         0.3075        80.9940        12.4541        11.8503      -999.2500         0.4183         5.1262         0.7575         0.9180     
12929.9999         0.1242         0.3025        81.2416        12.4555        13.6006      -999.2500         0.4107         4.7168         0.7389         0.8826     
12930.4999         0.1129         0.2755        80.8676        12.4569        13.6480      -999.2500         0.4097         4.6896         0.7238         0.8587     
12930.9999         0.1189         0.2740        80.5424        12.4582        13.6455      -999.2500         0.4341         5.2148         0.7133         0.8478     
12931.4999         0.1344         0.3055        80.5755        12.4596        14.7951      -999.2500         0.4399         5.1818         0.7061         0.8419     
12931.9999         0.1244         0.3080        80.7285        12.4609        13.3615      -999.2500         0.4038         4.6061         0.7015         0.8375     
12932.4999         0.1242         0.3065        80.8305        12.4623        12.3222      -999.2500         0.4054         4.7741         0.6983         0.8324     
12932.9999         0.1294         0.3040        80.8621        12.4637        12.6359      -999.2500         0.4258         5.1764         0.6953         0.8261     
12933.4999         0.1256         0.2885        80.7679        12.4650        13.8880      -999.2500         0.4354         5.2105         0.6917         0.8205     
12933.9999         0.1325         0.2835        80.6705        12.4664        14.4174      -999.2500         0.4674         5.9010         0.6881         0.8176     
12934.4999         0.1426         0.3055        80.7550        12.4677        14.0795      -999.2500         0.4667         5.9393         0.6850         0.8164     
12934.9999         0.1302         0.3055        80.8646        12.4691        13.3253      -999.2500         0.4261         5.0830         0.6828         0.8153     
12935.4999         0.1249         0.3040        80.6785        12.4705        13.3965      -999.2500         0.4108         4.7436         0.6820         0.8147     
12935.9999         0.1211         0.2875        80.2777        12.4718        13.2473      -999.2500         0.4211         4.9828         0.6837         0.8164     
12936.4999         0.1339         0.2900        79.9217        12.4732        14.5180      -999.2500         0.4616         5.7386         0.6877         0.8205     
12936.9999         0.1434         0.2960        79.6365        12.4745        13.6290      -999.2500         0.4846         6.5167         0.6918         0.8255     
12937.4999         0.1459         0.2990        79.5490        12.4759        13.5068      -999.2500         0.4879         6.6381         0.6952         0.8307     
12937.9999         0.1475         0.3045        79.9746        12.4773        13.2002      -999.2500         0.4844         6.5975         0.6990         0.8363     
12938.4999      -999.2500         0.3020        80.7037        12.4786        13.4952      -999.2500         0.4946         6.8452         0.7048         0.8427     
12938.9999      -999.2500      -999.2500        81.0718        12.4800      -999.2500      -999.2500      -999.2500      -999.2500         0.7125         0.8505     
12939.4999      -999.2500      -999.2500        80.7332        12.4813      -999.2500      -999.2500      -999.2500      -999.2500         0.7210         0.8589     
12939.9999      -999.2500      -999.2500        79.9241        12.4827      -999.2500      -999.2500      -999.2500      -999.2500         0.7286         0.8664     
12940.4999      -999.2500      -999.2500        79.0112        12.4841      -999.2500      -999.2500      -999.2500      -999.2500         0.7348         0.8729     
12940.9999      -999.2500      -999.2500        78.2604        12.4854      -999.2500      -999.2500      -999.2500      -999.2500         0.7396         0.8791     
12941.4999      -999.2500      -999.2500        77.8456        12.4860      -999.2500      -999.2500      -999.2500      -999.2500         0.7438         0.8854     
12941.9999      -999.2500      -999.2500        77.7680        12.4862      -999.2500      -999.2500      -999.2500      -999.2500         0.7486         0.8908     
12942.4999      -999.2500      -999.2500        77.7664        12.4864      -999.2500      -999.2500      -999.2500      -999.2500         0.7534         0.8948     
12942.9999      -999.2500      -999.2500        77.6425        12.4866      -999.2500      -999.2500      -999.2500      -999.2500         0.7563         0.8973     
12943.4999      -999.2500      -999.2500        77.4843        12.4869      -999.2500      -999.2500      -999.2500      -999.2500         0.7576         0.8989     
12943.9999      -999.2500      -999.2500        77.4523        12.4871      -999.2500      -999.2500      -999.2500      -999.2500         0.7589         0.9005     
