~Version Information Section
VERS.          2.0                                     : CWLS LOG ASCII Standard
WRAP.          NO                                      : One line per depth step
CREA.          03/14/14                                : LAS Creation Date
~Well Information Section
STRT.ft        400.9999                                : Start Depth
STOP.ft        12974.4999                              : Stop Depth
STEP.ft        0.5000                                  : Step
NULL.          -999.2500                               : Null Value
COMP.          Mobil                                   : Company
WELL.          9/13a-39                                : Well
FLD .          Appraisal                               : Field
LOC .          Northern North Sea                      : Location
LOC1.          6 600 501Mn 412 180mE                   : Location (UTM
PROV.          UKCS                                    : Province
UWI .          5483                                    : UWI Number
API .                                                  : API Number
SECT.                                                  : Section
TOWN.                                                  : Township
RNGE.                                                  : Range
PDAT.          MSL                                     : Perm Datum
EPD .ft        0.00                                    : Elevation
LMF .          KB                                      : Log Measured From
DMF .          KB                                      : Drill Measured From
APD .ft        85.00                                   : Above Perm Datum
EKB .ft        85.00                                   : Elev-Kelly Bushing
EDF .ft        84.00                                   : Elev-Drill Floor
EGL .ft        -363.00                                 : Elev-Ground Level (Water Depth)
SRVC.          Atlas Wireline                          : Service Company
DATE.          Mar-Apr-1988                            : Logging Date
PROJ.          UKCS                                    : Project
SET .          COMP WIRE                               : Set
~Curve Information Section
DEPTH.ft                                               : Depth Curve
A2F.                                                   : 
A2N.                                                   : 
AC.us/ft                                               : Acoustic Travel Time
CALI.in                                                : Caliper
D2EC.                                                  : 
GR.gAPI                                                : Gamma Ray
R2AT.                                                  : 
R2SL.                                                  : 
RILD.ohmm                                              : Deep Induction Resistivity
RILM.ohmm                                              : Medium Induction Resistivity
~ASCII Log Data Section
# ...
11744.4999         0.1061         0.3000       101.7648        12.9011        18.2235       192.8428         0.3535         3.3202         3.0402         3.1583     
11744.9999         0.1059         0.3040       101.8058        12.9004        18.0752       192.1355         0.3485         3.2591         3.0284         3.1504     
11745.4999         0.1023         0.2940       101.7652        12.8997        18.3911       190.7121         0.3480         3.2326         3.0214         3.1516     
11745.9999         0.1088         0.2995       101.6194        12.8989        17.8620       190.9356         0.3633         3.4854         3.0163         3.1530     
11746.4999         0.1074         0.2985       101.4281        12.8982        18.1756       192.0763         0.3597         3.4112         3.0160         3.1570     
11746.9999         0.1069         0.2905       101.3499        12.8975        18.1599       192.2883         0.3679         3.5321         3.0169         3.1667     
11747.4999         0.1108         0.2945       101.4985        12.8967        17.7994       191.6840         0.3761         3.6825         3.0161         3.1743     
11747.9999         0.1112         0.3010       101.8179        12.8960        18.1388       192.0161         0.3696         3.5589         3.0238         3.1793     
11748.4999         0.1088         0.2935       102.1732        12.8952        18.0930       194.6596         0.3707         3.5794         3.0516         3.1992     
11748.9999         0.1091         0.2900       102.3990        12.8945        18.4221       197.4601         0.3763         3.6392         3.0958         3.2429     
11749.4999         0.1122         0.2935       102.3379        12.8938        17.4923       198.9471         0.3822         3.8041         3.1428         3.2999     
11749.9999         0.1142         0.3005       101.9989        12.8930        18.3371       198.7398         0.3800         3.7024         3.1875         3.3573     
11750.4999         0.1137         0.2965       101.6326        12.8923        17.8186       197.9735         0.3834         3.7968         3.2383         3.4080     
11750.9999         0.1153         0.3035       101.4812        12.8916        17.7717       197.3508         0.3799         3.7453         3.2957         3.4460     
11751.4999         0.1165         0.3045       101.5484        12.8908        18.3005       198.5089         0.3826         3.7457         3.3395         3.4704     
11751.9999         0.1161         0.3065       101.7612        12.8901        17.5419       200.7333         0.3789         3.7466         3.3518         3.4808     
11752.4999         0.1129         0.3060       102.0751        12.8893        18.1161       203.5567         0.3691         3.5527         3.3457         3.4738     
11752.9999         0.1122         0.3010       102.2337        12.8885        18.4710       204.9123         0.3729         3.5847         3.3497         3.4608     
11753.4999         0.1103         0.2905       101.9507        12.8877        17.7166       200.6523         0.3797         3.7463         3.3698         3.4592     
11753.9999         0.1114         0.2905       101.4130        12.8869        17.4543       193.7179         0.3836         3.8291         3.3851         3.4655     
11754.4999         0.1147         0.2875       101.0422        12.8861        16.4009       190.4678         0.3989         4.1813         3.3759         3.4620     
11754.9999         0.1237         0.2960       101.1516        12.8853        18.0954       191.4659         0.4181         4.3627         3.3433         3.4410     
11755.4999         0.1229         0.2935       101.7655        12.8844        17.3520       193.8616         0.4189         4.4506         3.2901         3.3982     
11755.9999         0.1220         0.2940       102.5533        12.8836        17.6301       196.1059         0.4150         4.3509         3.2189         3.3272     
11756.4999         0.1233         0.3020       103.0565        12.8828        17.7174       195.2782         0.4081         4.2196         3.1505         3.2429     
11756.9999         0.1165         0.3075       103.2014        12.8820        17.9148       192.6785         0.3789         3.7172         3.1053         3.1789     
11757.4999         0.1063         0.3025       103.1227        12.8812        17.1203       192.2785         0.3514         3.3643         3.0807         3.1555     
11757.9999         0.1018         0.3010       102.8863        12.8804        17.7876       191.5597         0.3380         3.1344         3.0609         3.1664     
11758.4999         0.1036         0.3030       102.5846        12.8795        17.6055       187.1852         0.3420         3.1995         3.0421         3.1908     
11758.9999         0.1066         0.3015       102.3746        12.8787        17.5004       182.7878         0.3534         3.3670         3.0376         3.2082     
11759.4999         0.1082         0.2855       102.3739        12.8779        17.4053       181.4597         0.3789         3.7585         3.0537         3.2077     
11759.9999         0.1147         0.2875       102.5187        12.8771        17.8508       180.6680         0.3989         4.0484         3.0719         3.1909     
11760.4999         0.1143         0.2840       102.7142        12.8763        17.4683       178.5630         0.4023         4.1405         3.0716         3.1695     
11760.9999         0.1139         0.2850       102.8857        12.8755        17.5153       177.5677         0.3998         4.0929         3.0460         3.1540     
11761.4999         0.1161         0.2925       102.9915        12.8747        17.7275       179.5315         0.3968         4.0234         3.0084         3.1440     
11761.9999         0.1151         0.3075       103.0360        12.8738        17.2547       181.3007         0.3742         3.6956         2.9889         3.1372     
11762.4999         0.1028         0.3055       103.0004        12.8730        18.6888       180.0056         0.3365         3.0614         3.0055         3.1415     
11762.9999         0.1017         0.3035       102.7296        12.8722        17.4839       175.7327         0.3350         3.1127         3.0418         3.1661     
11763.4999         0.0987         0.2945       101.9957        12.8714        17.6322       168.8119         0.3351         3.1044         3.0720         3.2050     
11763.9999         0.0994         0.2800       100.7894        12.8706        18.4334       159.5539         0.3549         3.3258         3.0913         3.2435     
11764.4999         0.1111         0.2815        99.8122        12.8686        18.1063       151.8662         0.3945         3.9534         3.1147         3.2775     
11764.9999         0.1189         0.2970        99.4022        12.8659        16.8524       150.6265         0.4003         4.1620         3.1528         3.3082     
11765.4999         0.1200         0.3045        99.1391        12.8632        17.5814       155.6925         0.3941         3.9906         3.2023         3.3350     
11765.9999         0.1101         0.3010        99.0069        12.8606        16.7570       161.5520         0.3659         3.6053         3.2420         3.3629     
11766.4999         0.1053         0.3045        99.3607        12.8579        17.8004       165.5390         0.3459         3.2403         3.2469         3.3877     
11766.9999         0.1101         0.3045        99.9296        12.8552        17.5979       171.1025         0.3617         3.4797         3.2285         3.3926     
11767.4999         0.1127         0.3065       100.3293        12.8526        17.8738       179.3059         0.3679         3.5521         3.2254         3.3829     
11767.9999         0.1115         0.3070       100.6909        12.8499        17.8565       185.3035         0.3632         3.4840         3.2514         3.3841     
11768.4999         0.1095         0.3075       101.0579        12.8472        16.9647       187.9189         0.3561         3.4430         3.2801         3.3980     
