~Version Information Section
VERS.          2.0                                     : CWLS LOG ASCII Standard
WRAP.          NO                                      : One line per depth step
CREA.          03/14/14                                : LAS Creation Date
~Well Information Section
STRT.ft        400.9999                                : Start Depth
STOP.ft        12974.4999                              : Stop Depth
STEP.ft        0.5000                                  : Step
NULL.          -999.2500                               : Null Value
COMP.          Mobil                                   : Company
WELL.          9/13a-39                                : Well
FLD .          Appraisal                               : Field
LOC .          Northern North Sea                      : Location
LOC1.          6 600 501Mn 412 180mE                   : Location (UTM
PROV.          UKCS                                    : Province
UWI .          5483                                    : UWI Number
API .                                                  : API Number
SECT.                                                  : Section
TOWN.                                                  : Township
RNGE.                                                  : Range
PDAT.          MSL                                     : Perm Datum
EPD .ft        0.00                                    : Elevation
LMF .          KB                                      : Log Measured From
DMF .          KB                                      : Drill Measured From
APD .ft        85.00                                   : Above Perm Datum
EKB .ft        85.00                                   : Elev-Kelly Bushing
EDF .ft        84.00                                   : Elev-Drill Floor
EGL .ft        -363.00                                 : Elev-Ground Level (Water Depth)
SRVC.          Atlas Wireline                          : Service Company
DATE.          Mar-Apr-1988                            : Logging Date
PROJ.          UKCS                                    : Project
SET .          COMP WIRE                               : Set
~Curve Information Section
DEPTH.ft                                               : Depth Curve
A2F.                                                   : 
A2N.                                                   : 
AC.us/ft                                               : Acoustic Travel Time
CALI.in                                                : Caliper
D2EC.                                                  : 
GR.gAPI                                                : Gamma Ray
R2AT.                                                  : 
R2SL.                                                  : 
RILD.ohmm                                              : Deep Induction Resistivity
RILM.ohmm                                              : Medium Induction Resistivity
~ASCII Log Data Section
# ...
11156.4999         0.1172         0.2825      -999.2500      -999.2500        16.9589        68.5089         0.4150         4.4190      -999.2500      -999.2500     
11156.9999         0.1270         0.2920      -999.2500      -999.2500        16.0889        66.7065         0.4349         4.9082      -999.2500      -999.2500     
11157.4999         0.1433         0.3000      -999.2500      -999.2500        14.7418        64.2425         0.4777         6.1190      -999.2500      -999.2500     
11157.9999         0.1536         0.2945      -999.2500      -999.2500        14.5943        63.6923         0.5216         7.4887      -999.2500      -999.2500     
11158.4999         0.1486         0.2960      -999.2500      -999.2500        14.6621        64.4429         0.5021         6.8369      -999.2500      -999.2500     
11158.9999         0.1277         0.2970      -999.2500      -999.2500        14.1385        63.0452         0.4301         5.0570      -999.2500      -999.2500     
11159.4999         0.1131         0.2955      -999.2500      -999.2500        16.1919        61.2051         0.3828         3.9239      -999.2500      -999.2500     
11159.9999         0.1032         0.2865      -999.2500      -999.2500        19.1736        63.4602         0.3604         3.3548      -999.2500      -999.2500     
11160.4999         0.1084         0.2625      -999.2500      -999.2500        16.5833        68.4365         0.4131         4.4211      -999.2500      -999.2500     
11160.9999         0.1152         0.2640      -999.2500      -999.2500        15.7867        72.7353         0.4363         4.9746      -999.2500      -999.2500     
11161.4999         0.1186         0.2670      -999.2500      -999.2500        15.9283        73.2372         0.4443         5.1287      -999.2500      -999.2500     
11161.9999         0.1199         0.2700      -999.2500      -999.2500        15.5872        73.4171         0.4442         5.1718      -999.2500      -999.2500     
11162.4999         0.1220         0.2795      -999.2500      -999.2500        16.0057        73.4093         0.4365         4.9511      -999.2500      -999.2500     
11162.9999         0.1262         0.2980        85.5227      -999.2500        16.2664        72.0682         0.4237         4.6583      -999.2500      -999.2500     
11163.4999         0.1260         0.2980        85.5066      -999.2500        16.8103        68.9553         0.4228         4.5822      -999.2500      -999.2500     
11163.9999         0.1315         0.3025        85.3888      -999.2500        15.6971        66.7545         0.4347         4.9517      -999.2500      -999.2500     
11164.4999         0.1091         0.3010        85.0689      -999.2500        14.0801        66.1196         0.3623         3.7721      -999.2500      -999.2500     
11164.9999         0.0921         0.2955        84.5613      -999.2500        16.7284        65.4845         0.3118         2.8523      -999.2500      -999.2500     
11165.4999         0.0935         0.2700        84.0493      -999.2500        16.9625        65.7534         0.3463         3.3014      -999.2500      -999.2500     
11165.9999         0.1032         0.2660        83.8514      -999.2500        16.9444        66.5046         0.3882         3.9468      -999.2500      -999.2500     
11166.4999         0.1050         0.2655        84.1698      -999.2500        17.0850        67.2077         0.3955         4.0579      -999.2500      -999.2500     
11166.9999         0.1093         0.2620        84.8517      -999.2500        17.2910        66.3604         0.4170         4.4216      -999.2500      -999.2500     
11167.4999         0.1249         0.2755        85.5390      -999.2500        16.8644        65.7789         0.4535         5.2119      -999.2500      -999.2500     
11167.9999         0.1493         0.2960        86.0300      -999.2500        17.0837        65.3820         0.5044         6.4671      -999.2500      -999.2500     
11168.4999         0.2006         0.2960        85.8178      -999.2500        13.0620        66.6335         0.6776        18.8858      -999.2500      -999.2500     
11168.9999         0.2070         0.2960        84.1212      -999.2500        13.6410        69.0763         0.6993        21.9142      -999.2500      -999.2500     
11169.4999         0.1834         0.3040        81.7577      -999.2500        13.2402        71.8634         0.6032        11.7594      -999.2500      -999.2500     
11169.9999         0.1301         0.2935        81.1279      -999.2500        19.1714        74.7460         0.4431         4.7317      -999.2500      -999.2500     
11170.4999         0.1118         0.2665        83.4391      -999.2500        16.3548        79.9806         0.4196         4.5684      -999.2500      -999.2500     
11170.9999         0.1147         0.2715        86.8583      -999.2500        16.3657        86.4342         0.4227         4.6274      -999.2500      -999.2500     
11171.4999         0.1061         0.2650        88.9539      -999.2500        17.0406        84.2337         0.4005         4.1482      -999.2500      -999.2500     
11171.9999         0.1051         0.2600        89.1878      -999.2500        16.2306        79.5136         0.4041         4.2909      -999.2500      -999.2500     
11172.4999         0.1109         0.2675        88.8010      -999.2500        16.8069        74.7955         0.4145         4.4241      -999.2500      -999.2500     
11172.9999         0.1143         0.2675        88.6917      -999.2500        16.7673        72.8184         0.4271         4.6706      -999.2500      -999.2500     
11173.4999         0.1320         0.2930        88.1284      -999.2500        16.8284        72.7776         0.4505         5.1506      -999.2500      -999.2500     
11173.9999         0.1228         0.2750        85.9522      -999.2500        16.4199        71.1472         0.4466         5.1162      -999.2500      -999.2500     
11174.4999         0.1256         0.2875        82.4290      -999.2500        17.0553        66.1777         0.4367         4.8318      -999.2500      -999.2500     
11174.9999         0.1812         0.2975        77.8405      -999.2500        13.0128        59.8680         0.6090        12.2436      -999.2500      -999.2500     
11175.4999         0.1628         0.2965        71.8932      -999.2500        15.9126        47.7595         0.5491         8.1988      -999.2500      -999.2500     
11175.9999         0.1909         0.2875        66.3451      -999.2500        11.9761        36.1397         0.6639        17.8695      -999.2500      -999.2500     
11176.4999         0.2029         0.2975        64.4813      -999.2500         9.6529        35.7564         0.6819        22.5754      -999.2500      -999.2500     
11176.9999         0.2400         0.2920        67.5922      -999.2500        13.1670        37.5991         0.8219       282.6821      -999.2500      -999.2500     
11177.4999         0.1339         0.2915        74.4819      -999.2500        21.2436        42.6423         0.4595         4.8503      -999.2500      -999.2500     
11177.9999         0.0989         0.2530        82.6439      -999.2500        16.3328        59.8627         0.3911         4.0507      -999.2500      -999.2500     
11178.4999         0.0979         0.2520        89.0524      -999.2500        16.8625        70.1845         0.3884         3.9578      -999.2500      -999.2500     
11178.9999         0.0944         0.2505        92.1326      -999.2500        17.2327        76.1578         0.3770         3.7415      -999.2500      -999.2500     
11179.4999         0.0943         0.2565        92.7835      -999.2500        17.4427        79.6640         0.3677         3.5812      -999.2500      -999.2500     
11179.9999         0.0974         0.2900        92.7677      -999.2500        16.4800        82.9806         0.3360         3.1885      -999.2500      -999.2500     
11180.4999         0.0763         0.3040        92.7947      -999.2500        10.5221        83.8299         0.2508         2.4077      -999.2500      -999.2500     
