~Version Information Section
VERS.          2.0                                     : CWLS LOG ASCII Standard
WRAP.          NO                                      : One line per depth step
CREA.          03/14/14                                : LAS Creation Date
~Well Information Section
STRT.ft        400.9999                                : Start Depth
STOP.ft        12974.4999                              : Stop Depth
STEP.ft        0.5000                                  : Step
NULL.          -999.2500                               : Null Value
COMP.          Mobil                                   : Company
WELL.          9/13a-39                                : Well
FLD .          Appraisal                               : Field
LOC .          Northern North Sea                      : Location
LOC1.          6 600 501Mn 412 180mE                   : Location (UTM
PROV.          UKCS                                    : Province
UWI .          5483                                    : UWI Number
API .                                                  : API Number
SECT.                                                  : Section
TOWN.                                                  : Township
RNGE.                                                  : Range
PDAT.          MSL                                     : Perm Datum
EPD .ft        0.00                                    : Elevation
LMF .          KB                                      : Log Measured From
DMF .          KB                                      : Drill Measured From
APD .ft        85.00                                   : Above Perm Datum
EKB .ft        85.00                                   : Elev-Kelly Bushing
EDF .ft        84.00                                   : Elev-Drill Floor
EGL .ft        -363.00                                 : Elev-Ground Level (Water Depth)
SRVC.          Atlas Wireline                          : Service Company
DATE.          Mar-Apr-1988                            : Logging Date
PROJ.          UKCS                                    : Project
SET .          COMP WIRE                               : Set
~Curve Information Section
DEPTH.ft                                               : Depth Curve
A2F.                                                   : 
A2N.                                                   : 
AC.us/ft                                               : Acoustic Travel Time
CALI.in                                                : Caliper
D2EC.                                                  : 
GR.gAPI                                                : Gamma Ray
R2AT.                                                  : 
R2SL.                                                  : 
RILD.ohmm                                              : Deep Induction Resistivity
RILM.ohmm                                              : Medium Induction Resistivity
~ASCII Log Data Section
# ...
12797.9999         0.1251         0.2640        84.2830        12.6089        14.0157        31.9560         0.4740         6.1451         0.7780         0.8590     
12798.4999         0.1585         0.3025        83.8653        12.5737        14.5958        31.1343         0.5240         7.5691         0.8600         0.9294     
12798.9999         0.1536         0.3065        83.4976        12.5346        13.6678        31.1422         0.5012         7.0153         0.9770         1.0239     
12799.4999         0.1386         0.2940        83.4863        12.5340        12.7145        30.7273         0.4715         6.3229         1.1284         1.1549     
12799.9999         0.1331         0.2990        83.9572        12.5334        11.9209        30.1277         0.4450         5.7610         1.3245         1.3428     
12800.4999         0.1204         0.2790        84.8346        12.5327        13.4934        30.5109         0.4317         5.1826         1.5392         1.5695     
12800.9999         0.1344         0.2740        85.5341        12.5321        13.7987        31.5956         0.4906         6.6618         1.7573         1.7693     
12801.4999         0.1739         0.3035        84.5225        12.5335        14.7142        31.6641         0.5731         9.5594         1.9832         1.9056     
12801.9999         0.1711         0.2990        80.1900        12.5405        13.9087        31.0678         0.5723         9.7693         2.1698         2.0086     
12802.4999         0.1817         0.2750        72.5434        12.5475         8.9228        30.8305         0.6609        20.1360         2.2376         2.0724     
12802.9999         0.2407         0.3030        64.0303        12.5545         6.4717        30.5722         0.7946       117.7755         2.1153         2.0120     
12803.4999         0.2273         0.2985        58.7759        12.5615         7.3992        30.2949         0.7615        58.1448         1.8532         1.7775     
12803.9999         0.2880         0.3080        59.3345        12.5673         6.5675        30.8187         0.9351     1000000.0000         1.5750         1.4946     
12804.4999         0.1577         0.2995        64.6124        12.5665        15.3906        31.7445         0.5265         7.4824         1.3463         1.2713     
12804.9999         0.1299         0.3020        71.7372        12.5657        13.1637        32.3575         0.4300         5.1943         1.1531         1.1144     
12805.4999         0.1304         0.3000        78.1443        12.5649        12.7439        33.0193         0.4346         5.3638         0.9944         1.0002     
12805.9999         0.1245         0.2950        82.0688        12.5641        12.2824        34.1512         0.4220         5.1449         0.8664         0.9158     
12806.4999         0.1262         0.3010        83.3521        12.5633        12.5148        35.3650         0.4194         5.0515         0.7831         0.8654     
12806.9999         0.1163         0.2780        83.2243        12.5625        14.7700        36.1484         0.4184         4.7275         0.7322         0.8427     
12807.4999         0.1269         0.2720        82.8122        12.5618        14.3548        36.5721         0.4665         5.8877         0.7016         0.8342     
12807.9999         0.1423         0.3030        82.6139        12.5610        14.6344        36.4833         0.4697         5.9247         0.6831         0.8259     
12808.4999         0.1266         0.3025        82.6812        12.5602        13.3632        35.4152         0.4184         4.9085         0.6750         0.8129     
12808.9999         0.1248         0.2985        82.8599        12.5594        12.5850        34.0371         0.4179         5.0077         0.6766         0.8005     
12809.4999         0.1279         0.3010        82.9774        12.5586        12.7713        33.1849         0.4250         5.1392         0.6783         0.7916     
12809.9999         0.1188         0.2710        82.8781        12.5578        13.3706        33.0902         0.4384         5.3563         0.6681         0.7802     
12810.4999         0.1331         0.2800        82.5876        12.5570        15.1360        33.3088         0.4754         5.9925         0.6472         0.7602     
12810.9999         0.1449         0.3050        82.2694        12.5562        14.8457        32.4314         0.4752         6.0344         0.6250         0.7356     
12811.4999         0.1327         0.3040        82.0715        12.5554        12.3695        30.7190         0.4365         5.4697         0.6086         0.7155     
12811.9999         0.1216         0.2945        82.1121        12.5546        11.9490        30.7544         0.4130         4.9919         0.6029         0.7052     
12812.4999         0.1262         0.3025        82.4214        12.5538        11.8521        32.4532         0.4171         5.1000         0.6038         0.7037     
12812.9999         0.1241         0.2975        82.8202        12.5530        12.7616        33.3508         0.4172         4.9671         0.6018         0.7061     
12813.4999         0.1159         0.2685        83.0698        12.5522        13.2893        32.8788         0.4316         5.2101         0.5947         0.7084     
12813.9999         0.1329         0.2810        83.1458        12.5514        15.3267        32.3170         0.4731         5.9003         0.5885         0.7088     
12814.4999         0.1483         0.3060        83.1647        12.5506        15.3852        31.9037         0.4847         6.1983         0.5876         0.7060     
12814.9999         0.1371         0.3020        83.2103        12.5498        11.8942        31.5504         0.4538         5.9977         0.5930         0.7028     
12815.4999         0.1371         0.2930        83.2492        12.5490        11.8027        31.1745         0.4680         6.4102         0.6022         0.7053     
12815.9999         0.1279         0.2990        83.1173        12.5469        12.1133        31.4818         0.4279         5.3068         0.6090         0.7146     
12816.4999         0.1126         0.2690        82.5004        12.5439        13.2840        32.5550         0.4184         4.9206         0.6099         0.7245     
12816.9999         0.1186         0.2645        80.8364        12.5409        14.2557        33.3859         0.4485         5.4587         0.6094         0.7294     
12817.4999         0.1507         0.2985        78.2123        12.5379        16.0112        32.8848         0.5050         6.6696         0.6153         0.7331     
12817.9999         0.1422         0.3010        76.6740        12.5349        13.9391        31.3775         0.4724         6.1161         0.6316         0.7441     
12818.4999         0.1290         0.2940        77.5116        12.5319        10.8461        30.3763         0.4388         5.8016         0.6566         0.7690     
12818.9999         0.1377         0.2990        78.6145        12.5289        11.7656        30.6899         0.4605         6.2048         0.6876         0.8084     
12819.4999         0.1181         0.2735        78.1484        12.5259        14.2669        31.3719         0.4317         5.0731         0.7255         0.8620     
12819.9999         0.1323         0.2700        76.1113        12.5229        14.5334        31.0523         0.4900         6.5013         0.7718         0.9258     
12820.4999         0.1624         0.3015        72.0107        12.5199        15.3111        30.0682         0.5386         7.9338         0.8168         0.9863     
12820.9999         0.1381         0.2905        66.0611        12.5169        15.2593        29.3898         0.4755         5.9731         0.8442         1.0240     
12821.4999         0.1371         0.2775        61.1026        12.5139         9.2949        28.5177         0.4939         7.9298         0.8536         1.0330     
12821.9999         0.2565         0.2995        58.8518        12.5109         9.5988        27.4748         0.8564     1000000.0000         0.8617         1.0230     
