~Version Information Section
VERS.          2.0                                     : CWLS LOG ASCII Standard
WRAP.          NO                                      : One line per depth step
CREA.          03/14/14                                : LAS Creation Date
~Well Information Section
STRT.ft        400.9999                                : Start Depth
STOP.ft        12974.4999                              : Stop Depth
STEP.ft        0.5000                                  : Step
NULL.          -999.2500                               : Null Value
COMP.          Mobil                                   : Company
WELL.          9/13a-39                                : Well
FLD .          Appraisal                               : Field
LOC .          Northern North Sea                      : Location
LOC1.          6 600 501Mn 412 180mE                   : Location (UTM
PROV.          UKCS                                    : Province
UWI .          5483                                    : UWI Number
API .                                                  : API Number
SECT.                                                  : Section
TOWN.                                                  : Township
RNGE.                                                  : Range
PDAT.          MSL                                     : Perm Datum
EPD .ft        0.00                                    : Elevation
LMF .          KB                                      : Log Measured From
DMF .          KB                                      : Drill Measured From
APD .ft        85.00                                   : Above Perm Datum
EKB .ft        85.00                                   : Elev-Kelly Bushing
EDF .ft        84.00                                   : Elev-Drill Floor
EGL .ft        -363.00                                 : Elev-Ground Level (Water Depth)
SRVC.          Atlas Wireline                          : Service Company
DATE.          Mar-Apr-1988                            : Logging Date
PROJ.          UKCS                                    : Project
SET .          COMP WIRE                               : Set
~Curve Information Section
DEPTH.ft                                               : Depth Curve
A2F.                                                   : 
A2N.                                                   : 
AC.us/ft                                               : Acoustic Travel Time
CALI.in                                                : Caliper
D2EC.                                                  : 
GR.gAPI                                                : Gamma Ray
R2AT.                                                  : 
R2SL.                                                  : 
RILD.ohmm                                              : Deep Induction Resistivity
RILM.ohmm                                              : Medium Induction Resistivity
~ASCII Log Data Section
# ...
11499.4999         0.0731         0.2705        91.4536        13.3557        19.9082        81.8000         0.2701         2.2403         1.7960         1.9079     
11499.9999         0.0842         0.2475        89.3034        13.3558        21.6807        77.1609         0.3404         2.9505         1.8241         1.9468     
11500.4999         0.1001         0.2505        86.6692        13.3638        18.5750        72.8274         0.3997         3.9997         1.8449         1.9829     
11500.9999         0.1131         0.2615        85.1453        13.3921        16.2286        72.1344         0.4324         4.8381         1.8531         1.9984     
11501.4999         0.1254         0.2790        85.4597        13.4203        16.8038        73.8225         0.4496         5.1336         1.8578         1.9989     
11501.9999         0.1267         0.3040        87.0878        13.5519        18.5172        75.4411         0.4169         4.3025         1.8652         1.9909     
11502.4999         0.1094         0.3060        88.7503        13.3772        17.2718        76.8225         0.3576         3.4438         1.8679         1.9727     
11502.9999         0.0966         0.3020        89.4302        13.4429        17.5049        77.8396         0.3197         2.9113         1.8536         1.9452     
11503.4999         0.0911         0.3000        89.2240        13.4491        17.7592        77.7529         0.3038         2.7006         1.8215         1.9167     
11503.9999         0.0873         0.2965        88.8088        13.6368        18.4608        77.7301         0.2945         2.5598         1.7854         1.8947     
11504.4999         0.0928         0.2720        88.4692        13.4343        19.5300        77.8765         0.3412         3.0747         1.7600         1.8811     
11504.9999         0.0998         0.2675        88.2114        13.4341        18.8144        77.4506         0.3731         3.5633         1.7486         1.8769     
11505.4999         0.1051         0.2630        88.0746        13.4340        18.5755        76.8938         0.3997         3.9999         1.7426         1.8814     
11505.9999         0.1131         0.2685        88.1069        13.4339        17.3410        76.8916         0.4213         4.4978         1.7358         1.8863     
11506.4999         0.1188         0.2770        88.1379        13.3613        17.8918        77.3775         0.4289         4.5861         1.7358         1.8840     
11506.9999         0.1199         0.2825        87.9820        13.2918        17.7122        76.7614         0.4246         4.5211         1.7457         1.8814     
11507.4999         0.1101         0.2705        87.8070        13.3521        18.1792        73.2052         0.4069         4.1560         1.7531         1.8851     
11507.9999         0.1151         0.2795        87.8136        13.3586        16.9805        71.1972         0.4117         4.3545         1.7465         1.8859     
11508.4999         0.1093         0.2880        88.0817        13.3453        15.2578        70.8736         0.3796         3.9534         1.7306         1.8759     
11508.9999         0.1012         0.2950        88.7059        13.2914        18.9362        70.6359         0.3432         3.1350         1.7189         1.8612     
11509.4999         0.0941         0.2635        89.4627        13.2775        18.0598        70.2647         0.3572         3.3831         1.7166         1.8487     
11509.9999         0.1076         0.2880        89.7820        13.2826        18.1241        69.9543         0.3737         3.6218         1.7152         1.8411     
11510.4999         0.0956         0.2900        89.6478        13.2878        14.4069        69.8742         0.3295         3.2373         1.7152         1.8407     
11510.9999         0.0944         0.2730        89.3381        13.2929        16.7907        70.1846         0.3457         3.3044         1.7317         1.8542     
11511.4999         0.0996         0.2745        88.6524        13.2980        16.8118        70.3802         0.3629         3.5564         1.7644         1.8874     
11511.9999         0.0978         0.2690        87.5716        13.3031        17.6860        70.5560         0.3636         3.5024         1.7899         1.9304     
11512.4999         0.1201         0.2800        86.6441        13.3083        16.1645        71.4369         0.4288         4.7728         1.7990         1.9578     
11512.9999         0.1410         0.2990        86.4050        13.3203        16.6722        73.2238         0.4716         5.6593         1.8125         1.9598     
11513.4999         0.1270         0.2980        87.0056        13.3894        16.2577        75.3623         0.4262         4.7093         1.8336         1.9527     
11513.9999         0.0839         0.2945        87.9627        13.3437        18.9660        75.7086         0.2848         2.4306         1.8323         1.9483     
11514.4999         0.0838         0.2645        88.3924        13.2582        18.7815        75.8844         0.3169         2.8085         1.8014         1.9414     
11514.9999         0.1072         0.2770        88.1300        13.3086        17.7713        75.9316         0.3870         3.8573         1.7728         1.9261     
11515.4999         0.1275         0.2970        87.8435        13.3547        16.7902        76.4019         0.4293         4.7115         1.7628         1.9058     
11515.9999         0.1170         0.2800        88.0380        13.3216        15.4330        77.3375         0.4179         4.6383         1.7589         1.8827     
11516.4999         0.0854         0.2985        88.6881        13.2874        16.1452        78.2287         0.2862         2.5691         1.7487         1.8558     
11516.9999         0.0711         0.2940        89.4283        13.3092        14.0965        78.4525         0.2417         2.1495         1.7316         1.8293     
11517.4999         0.0705         0.2605        89.8791        13.4238        18.7124        78.4671         0.2706         2.2885         1.7136         1.8139     
11517.9999         0.0799         0.2475        90.0034        13.3024        19.4955        78.3251         0.3230         2.8470         1.7034         1.8167     
11518.4999         0.0881         0.2505        90.0549        13.3535        18.5153        78.2455         0.3515         3.2736         1.7057         1.8345     
11518.9999         0.0917         0.2525        90.2255        13.4630        17.9007        78.3876         0.3631         3.4798         1.7143         1.8562     
11519.4999         0.0913         0.2465        90.4447        13.2651        17.4104        79.0885         0.3702         3.6217         1.7171         1.8689     
11519.9999         0.1002         0.2500        90.5229        13.3859        17.6416        80.7425         0.4007         4.0982         1.7135         1.8677     
11520.4999         0.1020         0.2585        90.5248        13.3540        15.1853        82.3054         0.3946         4.2243         1.7142         1.8597     
11520.9999         0.1171         0.2745        90.4867        13.2330        17.3231        82.8324         0.4265         4.5979         1.7258         1.8559     
11521.4999         0.1204         0.2915        90.3206        13.2311        16.4531        83.2067         0.4132         4.4359         1.7421         1.8638     
11521.9999         0.1054         0.2975        89.9735        13.2599        19.5344        83.4938         0.3544         3.2497         1.7490         1.8829     
11522.4999         0.0828         0.2985        89.3423        13.2706        17.3111        83.3725         0.2774         2.4167         1.7391         1.9023     
11522.9999         0.0809         0.2775        88.6351        13.2705        18.1610        82.8705         0.2917         2.5409         1.7193         1.9059     
11523.4999         0.0899         0.2610        88.4815        13.2704        18.3673        81.9503         0.3446         3.1875         1.7039         1.8904     
