~Version Information Section
VERS.          2.0                                     : CWLS LOG ASCII Standard
WRAP.          NO                                      : One line per depth step
CREA.          24/02/14                                : LAS Creation Date
~Well Information Section
STRT.ft        388.0000                                : Start Depth
STOP.ft        9511.5000                               : Stop Depth
STEP.ft        0.5000                                  : Step
NULL.          -999.2500                               : Null Value
COMP.          Mobil North Sea Ltd                     : Company
WELL.          9/17a-5                                 : Well
FLD .          Wildcat                                 : Field
LOC .          Northern North Sea                      : Location
PROV.          UKCS                                    : Province
UWI .          8400                                    : UWI Number
API .                                                  : API Number
SECT.                                                  : Section
TOWN.                                                  : Township
RNGE.                                                  : Range
PDAT.          MSL                                     : Perm Datum
EPD .ft        0.00                                    : Elevation
LMF .          RKB                                     : Log Measured From
DMF .          RKB                                     : Drill Measured From
APD .ft        87.00                                   : Above Perm Datum
EKB .ft        87.00                                   : Elev-Kelly Bushing
EDF .ft        86.00                                   : Elev-Drill Floor
EGL .ft        -339.00                                 : Elev-Ground Level (Water Depth)
TDD .ft        9514.00                                 : Total Depth (Driller)
LATI.          59 26 15.042 N                          : Latitude
LONG.          01 17 29.139 E                          : Longitude
SRVC.          Schlumberger                            : Service Company
DATE.          Jun-Jul-1989                            : Logging Date
PROJ.          UKCS                                    : Project
Set .          COMP WIRE                               : Set
~Curve Information Section
DEPTH.ft                                               : Depth Curve
CALI.in                                                : Caliper
DRHO.g/c3                                              : Delta Rho
DT.us/ft                                               : Delta-T
DTL.us/ft                                              : Delta T Long Spacing
GR.gAPI                                                : Gamma Ray
GRD.gAPI                                               : Gamma Ray
ILD.ohmm                                               : Deep Induction Standard Processed Resistivity
ILM.ohmm                                               : Medium Induction Standard Processed Resistivity
NPHI.LPU                                               : Neutron Porosity
PEF.B/E                                                : Photo-Electric Factor
RHOB.g/c3                                              : Bulk Density
~ASCII Log Data Section
# ...
 5675.5000        12.3214        -0.0096       130.3125       129.5625        50.6397        44.6144         0.7108         0.7070        48.9052         3.0486         2.1789     
 5676.0000        12.3684        -0.0086       131.8735       131.3733        53.8915        48.6054         0.7054         0.7044        50.1325         3.1069         2.1976     
 5676.5000        12.4547        -0.0053       134.3755       134.5004        52.8125        52.2971         0.6968         0.6988        48.1657         3.1427         2.2215     
 5677.0000        12.4779        -0.0032       136.2500       136.0000        51.5391        55.3566         0.6846         0.6875        47.2338         3.1602         2.2312     
 5677.5000        12.4875        -0.0028       136.4996       136.2496        49.9534        55.5550         0.6669         0.6735        45.4391         3.1295         2.2289     
 5678.0000        12.4565        -0.0007       137.4377       137.1877        47.9063        53.6646         0.6482         0.6577        43.4659         3.1669         2.2248     
 5678.5000        12.4495         0.0001       138.2500       137.8125        44.3438        50.4033         0.6311         0.6397        41.1839         3.2210         2.2142     
 5679.0000        12.4271        -0.0032       139.1873       138.6870        44.7500        47.9710         0.6138         0.6231        40.4325         3.3634         2.2009     
 5679.5000        12.4276        -0.0055       139.7500       140.3750        47.3121        49.2295         0.5956         0.6092        44.7738         3.5380         2.1967     
 5680.0000        12.4317        -0.0051       139.5002       138.8753        48.0469        49.7621         0.5789         0.5984        46.6316         3.6471         2.1984     
 5680.5000        12.4277        -0.0077       138.0000       137.1250        44.7898        47.8790         0.5664         0.5898        44.7737         3.4523         2.1871     
 5681.0000        12.4231        -0.0103       135.3753       134.5630        41.2656        43.2007         0.5587         0.5853        39.4060         3.0180         2.1683     
 5681.5000        12.3702        -0.0089       133.5625       131.8750        39.0549        41.2698         0.5575         0.5853        37.4521         2.7000         2.1574     
 5682.0000        12.3210        -0.0072       132.0625       130.3750        37.8674        42.3976         0.5599         0.5883        40.4105         2.7439         2.1632     
 5682.5000        12.3404        -0.0072       133.8731       132.2482        36.8985        43.7683         0.5660         0.5930        41.8193         2.9462         2.1830     
 5683.0000        12.3774        -0.0044       134.9380       135.1255        37.5859        47.5344         0.5753         0.6014        41.7086         3.2024         2.2079     
 5683.5000        12.4115        -0.0043       137.5000       137.6875        41.0391        52.5632         0.5852         0.6128        39.4570         3.2452         2.2265     
 5684.0000        12.4603        -0.0056       139.0000       139.7500        46.1709        56.6830         0.5940         0.6229        39.5535         3.2546         2.2348     
 5684.5000        12.4119        -0.0069       139.3130       139.6874        49.1245        57.8767         0.6003         0.6284        40.3915         3.2896         2.2360     
 5685.0000        12.3695        -0.0077       140.4377       139.6877        47.7270        57.4095         0.6057         0.6297        41.6847         3.3123         2.2268     
 5685.5000        12.4280        -0.0104       140.8751       140.0002        49.5859        56.1566         0.6136         0.6291        43.8589         3.2797         2.2097     
 5686.0000        12.3911        -0.0100       140.4375       139.4375        52.8513        53.4475         0.6215         0.6308        47.7657         3.0821         2.2060     
 5686.5000        12.3896        -0.0068       139.5630       139.7502        54.3438        51.3341         0.6244         0.6358        49.3386         2.9978         2.2156     
 5687.0000        12.4639        -0.0047       137.5000       138.7500        55.3210        51.1514         0.6225         0.6396        48.3153         3.1065         2.2272     
 5687.5000        12.4667        -0.0066       137.7498       138.3123        53.1797        52.5649         0.6201         0.6393        44.5465         3.3480         2.2273     
 5688.0000        12.4291        -0.0088       138.6875       138.5000        52.9156        54.1669         0.6177         0.6396        43.6436         3.3523         2.2242     
 5688.5000        12.3793        -0.0078       138.4994       136.1249        45.5859        56.0153         0.6193         0.6411        44.1944         3.2918         2.2252     
 5689.0000        12.3239        -0.0083       135.8125       135.3125        40.0320        56.5387         0.6243         0.6426        45.6532         3.2427         2.2216     
 5689.5000        12.3543        -0.0087       134.0621       133.3745        37.8750        54.5926         0.6298         0.6452        48.1398         3.2220         2.2097     
 5690.0000        12.4184        -0.0052       132.1250       131.0000        40.6094        50.8804         0.6343         0.6520        49.2262         3.1454         2.1955     
 5690.5000        12.4528        -0.0010       130.1252       129.4376        43.7025        47.8738         0.6380         0.6607        48.9817         3.0957         2.1827     
 5691.0000        12.4035        -0.0012       129.5625       129.0625        45.4135        46.7492         0.6398         0.6658        46.5044         3.1945         2.1729     
 5691.5000        12.3212        -0.0018       129.0626       128.3749        43.0307        45.8634         0.6423         0.6678        45.3250         3.3755         2.1660     
 5692.0000        12.3203        -0.0017       128.9377       127.6253        42.2656        44.0110         0.6464         0.6703        44.0782         3.3927         2.1650     
 5692.5000        12.3203        -0.0040       128.0000       126.5625        43.6636        41.9711         0.6495         0.6742        44.8650         3.3337         2.1656     
 5693.0000        12.3555        -0.0074       127.8751       126.3129        45.3281        41.1875         0.6510         0.6774        43.2619         3.1328         2.1706     
 5693.5000        12.4281        -0.0071       127.0625       125.1250        43.3138        42.5663         0.6510         0.6773        43.3354         2.9710         2.1765     
 5694.0000        12.4411        -0.0091       126.4370       126.1245        38.6719        44.1619         0.6501         0.6757        43.1057         2.8829         2.1798     
 5694.5000        12.4250        -0.0108       129.1875       128.4375        39.1016        45.5537         0.6481         0.6742        45.4596         2.8876         2.1804     
 5695.0000        12.4385        -0.0110       134.6902       130.8133        40.3984        46.2222         0.6458         0.6711        43.1207         3.0845         2.1826     
 5695.5000        12.4559        -0.0093       145.8125       135.6875        44.5078        48.0484         0.6445         0.6663        41.3320         3.2407         2.1866     
 5696.0000        12.4403        -0.0098       147.8747       140.8751        45.8135        50.1477         0.6427         0.6630        39.6426         3.2977         2.1831     
 5696.5000        12.4125        -0.0067       146.1250       140.1875        46.5703        49.6608         0.6391         0.6609        41.8889         3.2233         2.1816     
 5697.0000        12.4188        -0.0060       143.3764       135.8144        43.7587        47.9057         0.6341         0.6564        40.6848         3.0614         2.1714     
 5697.5000        12.4318        -0.0079       141.0000       131.5625        39.7183        46.6976         0.6294         0.6484        38.1998         2.8664         2.1552     
