~Version Information Section
VERS.          2.0                                     : CWLS LOG ASCII Standard
WRAP.          NO                                      : One line per depth step
CREA.          24/02/14                                : LAS Creation Date
~Well Information Section
STRT.ft        388.0000                                : Start Depth
STOP.ft        9511.5000                               : Stop Depth
STEP.ft        0.5000                                  : Step
NULL.          -999.2500                               : Null Value
COMP.          Mobil North Sea Ltd                     : Company
WELL.          9/17a-5                                 : Well
FLD .          Wildcat                                 : Field
LOC .          Northern North Sea                      : Location
PROV.          UKCS                                    : Province
UWI .          8400                                    : UWI Number
API .                                                  : API Number
SECT.                                                  : Section
TOWN.                                                  : Township
RNGE.                                                  : Range
PDAT.          MSL                                     : Perm Datum
EPD .ft        0.00                                    : Elevation
LMF .          RKB                                     : Log Measured From
DMF .          RKB                                     : Drill Measured From
APD .ft        87.00                                   : Above Perm Datum
EKB .ft        87.00                                   : Elev-Kelly Bushing
EDF .ft        86.00                                   : Elev-Drill Floor
EGL .ft        -339.00                                 : Elev-Ground Level (Water Depth)
TDD .ft        9514.00                                 : Total Depth (Driller)
LATI.          59 26 15.042 N                          : Latitude
LONG.          01 17 29.139 E                          : Longitude
SRVC.          Schlumberger                            : Service Company
DATE.          Jun-Jul-1989                            : Logging Date
PROJ.          UKCS                                    : Project
Set .          COMP WIRE                               : Set
~Curve Information Section
DEPTH.ft                                               : Depth Curve
CALI.in                                                : Caliper
DRHO.g/c3                                              : Delta Rho
DT.us/ft                                               : Delta-T
DTL.us/ft                                              : Delta T Long Spacing
GR.gAPI                                                : Gamma Ray
GRD.gAPI                                               : Gamma Ray
ILD.ohmm                                               : Deep Induction Standard Processed Resistivity
ILM.ohmm                                               : Medium Induction Standard Processed Resistivity
NPHI.LPU                                               : Neutron Porosity
PEF.B/E                                                : Photo-Electric Factor
RHOB.g/c3                                              : Bulk Density
~ASCII Log Data Section
# ...
 3155.5000      -999.2500      -999.2500      -999.2500      -999.2500        18.3205        15.2686      -999.2500      -999.2500      -999.2500      -999.2500      -999.2500     
 3156.0000      -999.2500      -999.2500      -999.2500      -999.2500        17.2343        13.9789      -999.2500      -999.2500      -999.2500      -999.2500      -999.2500     
 3156.5000      -999.2500      -999.2500      -999.2500      -999.2500        17.6914        12.6445      -999.2500      -999.2500      -999.2500      -999.2500      -999.2500     
 3157.0000      -999.2500      -999.2500      -999.2500      -999.2500        17.1076        12.3750      -999.2500      -999.2500      -999.2500      -999.2500      -999.2500     
 3157.5000      -999.2500      -999.2500      -999.2500      -999.2500        15.4727        14.4624      -999.2500      -999.2500      -999.2500      -999.2500      -999.2500     
 3158.0000      -999.2500      -999.2500      -999.2500      -999.2500        15.8182        15.6563      -999.2500      -999.2500      -999.2500      -999.2500      -999.2500     
 3158.5000      -999.2500      -999.2500      -999.2500      -999.2500        17.0429        14.7388      -999.2500      -999.2500      -999.2500      -999.2500      -999.2500     
 3159.0000      -999.2500      -999.2500      -999.2500      -999.2500        17.7891        14.2231      -999.2500      -999.2500      -999.2500      -999.2500      -999.2500     
 3159.5000      -999.2500      -999.2500      -999.2500      -999.2500        16.6758        11.4481      -999.2500      -999.2500      -999.2500      -999.2500      -999.2500     
 3160.0000      -999.2500      -999.2500      -999.2500      -999.2500        14.0952        10.4112      -999.2500      -999.2500      -999.2500      -999.2500      -999.2500     
 3160.5000        12.7489      -999.2500      -999.2500      -999.2500        12.7676        12.4206      -999.2500      -999.2500      -999.2500      -999.2500      -999.2500     
 3161.0000        12.8957      -999.2500      -999.2500      -999.2500        13.8199        16.0395      -999.2500      -999.2500      -999.2500         8.2495      -999.2500     
 3161.5000        13.2836      -999.2500      -999.2500      -999.2500        17.1641        19.6280      -999.2500      -999.2500        57.1628         6.2553      -999.2500     
 3162.0000        13.6049      -999.2500      -999.2500      -999.2500        17.5662        19.4396      -999.2500      -999.2500        55.2163         5.6977      -999.2500     
 3162.5000        13.6615      -999.2500      -999.2500      -999.2500        18.4259        19.5884      -999.2500      -999.2500        60.5615         5.9233         1.6226     
 3163.0000        13.7761      -999.2500      -999.2500      -999.2500        17.3163        19.1197      -999.2500      -999.2500        60.7898         5.5437         1.6665     
 3163.5000        13.7749        -0.0136      -999.2500      -999.2500        17.3244        19.9461      -999.2500      -999.2500        57.5798         5.5727         1.7038     
 3164.0000        13.7539        -0.0140      -999.2500      -999.2500        15.7599        19.9854      -999.2500      -999.2500        49.5192         5.3917         1.7294     
 3164.5000        13.9254        -0.0128      -999.2500      -999.2500        15.1737        22.5733      -999.2500      -999.2500        52.1474         5.3503         1.7265     
 3165.0000        13.8918        -0.0168      -999.2500      -999.2500        16.9801        21.2506      -999.2500      -999.2500        52.3958         5.3705         1.7078     
 3165.5000        14.0481        -0.0219      -999.2500      -999.2500        20.0585        21.5410      -999.2500         1.1887        58.0037         5.2860         1.6927     
 3166.0000        14.7575        -0.0204      -999.2500      -999.2500        20.4571        19.8967      -999.2500         1.2248        62.1268         5.4000         1.6962     
 3166.5000        16.8588        -0.0186       190.6842      -999.2500        19.8644        20.6121         1.3597         1.3742        64.4323         5.8337         1.6984     
 3167.0000        18.3483        -0.0126       196.3743      -999.2500        18.0474        21.8994         1.2320         1.5632        56.8527         6.5739         1.6993     
 3167.5000        17.9265        -0.0108       187.6977       137.5601        18.3337        22.0381         1.2240         1.3631        57.8296         8.6156         1.6927     
 3168.0000        19.9320        -0.0069       177.7543       130.6904        21.0381        22.8088         1.2377         1.3068        57.3723        10.5811         1.6977     
 3168.5000        20.1951        -0.0084       182.3125       136.3741        23.6051        21.0036         1.2321         1.3286        67.0531        13.2636         1.6964     
 3169.0000        19.9918        -0.0073       182.0627       142.9999        25.9337        20.0841         1.2275         1.3998        58.0173        13.7403         1.6954     
 3169.5000        17.5310        -0.0139       183.9987       142.3131        24.5276        18.0388         1.2353         1.5528        62.6568        16.3375         1.6835     
 3170.0000        16.2953        -0.0149       186.0031       146.6216        21.4652        18.2295         1.3149         1.4702        64.8151        15.7931         1.6772     
 3170.5000        18.5614        -0.0167       160.8133       176.4984        18.6015        16.9498         1.3789         1.4423        67.1254        14.5569         1.6641     
 3171.0000        20.6808        -0.0183       154.4377       184.4391        19.0195        18.1139         1.3583         1.4280        63.4503        12.2792         1.6517     
 3171.5000        21.4389        -0.0209       150.9368       171.0620        19.7655        18.3344         1.3350         1.4095        54.9798        11.3364         1.6419     
 3172.0000        18.3832        -0.0221       152.8750       165.3125        20.9766        20.2948         1.3121         1.3898        59.7741        10.3004         1.6482     
 3172.5000        17.7090        -0.0279       171.1772       155.4423        21.1052        22.3432         1.2882         1.3780        59.0531         9.2706         1.6612     
 3173.0000        20.0601        -0.0358       157.9472       158.7570        21.7026        23.2194         1.2961         1.3767        54.5955         8.2016         1.6583     
 3173.5000        21.2202        -0.0435       149.5089       154.8138        21.5723        23.9186         1.3068         1.3866        52.6581         7.1311         1.6264     
 3174.0000        22.5751        -0.0512       139.6933       150.7470        20.0309        23.1314         1.3214         1.4090        51.5778         6.3530         1.5821     
 3174.5000        22.8992        -0.0527       144.9969       149.7500        20.0041        21.9895         1.3439         1.4518        57.6286         6.2318         1.5717     
 3175.0000        22.8967        -0.0444       167.9376       148.9371        19.3396        21.2905         1.3724         1.5123        56.0224         6.4937         1.5949     
 3175.5000        22.9197        -0.0354       168.6244       156.4348        20.7071        20.5553         1.3987         1.5729        54.8854         6.9086         1.6168     
 3176.0000        22.7220        -0.0301       175.5617       176.3126        20.5935        21.2006         1.4111         1.6113        53.2161         6.4316         1.6244     
 3176.5000        20.5986        -0.0254       180.0632       170.0023        22.2150        20.8958         1.4116         1.6100        61.0016         6.1302         1.6250     
 3177.0000        15.1957        -0.0209       175.9371       154.1245        20.8868        20.8924         1.4012         1.5803        66.1124         5.7494         1.6261     
 3177.5000        14.8645        -0.0222       170.6843       162.2516        19.3520        21.2518         1.3820         1.5392        65.5796         6.1023         1.6263     
