~Version Information Section
VERS.          2.0                                     : CWLS LOG ASCII Standard
WRAP.          NO                                      : One line per depth step
CREA.          24/02/14                                : LAS Creation Date
~Well Information Section
STRT.ft        388.0000                                : Start Depth
STOP.ft        9511.5000                               : Stop Depth
STEP.ft        0.5000                                  : Step
NULL.          -999.2500                               : Null Value
COMP.          Mobil North Sea Ltd                     : Company
WELL.          9/17a-5                                 : Well
FLD .          Wildcat                                 : Field
LOC .          Northern North Sea                      : Location
PROV.          UKCS                                    : Province
UWI .          8400                                    : UWI Number
API .                                                  : API Number
SECT.                                                  : Section
TOWN.                                                  : Township
RNGE.                                                  : Range
PDAT.          MSL                                     : Perm Datum
EPD .ft        0.00                                    : Elevation
LMF .          RKB                                     : Log Measured From
DMF .          RKB                                     : Drill Measured From
APD .ft        87.00                                   : Above Perm Datum
EKB .ft        87.00                                   : Elev-Kelly Bushing
EDF .ft        86.00                                   : Elev-Drill Floor
EGL .ft        -339.00                                 : Elev-Ground Level (Water Depth)
TDD .ft        9514.00                                 : Total Depth (Driller)
LATI.          59 26 15.042 N                          : Latitude
LONG.          01 17 29.139 E                          : Longitude
SRVC.          Schlumberger                            : Service Company
DATE.          Jun-Jul-1989                            : Logging Date
PROJ.          UKCS                                    : Project
Set .          COMP WIRE                               : Set
~Curve Information Section
DEPTH.ft                                               : Depth Curve
CALI.in                                                : Caliper
DRHO.g/c3                                              : Delta Rho
DT.us/ft                                               : Delta-T
DTL.us/ft                                              : Delta T Long Spacing
GR.gAPI                                                : Gamma Ray
GRD.gAPI                                               : Gamma Ray
ILD.ohmm                                               : Deep Induction Standard Processed Resistivity
ILM.ohmm                                               : Medium Induction Standard Processed Resistivity
NPHI.LPU                                               : Neutron Porosity
PEF.B/E                                                : Photo-Electric Factor
RHOB.g/c3                                              : Bulk Density
~ASCII Log Data Section
# ...
 7363.0000        12.4496         0.0234        66.3742        67.6240        34.5774        35.6803         2.4546         2.3876        23.7557         3.4085         2.5613     
 7363.5000        12.4488         0.0125        67.8438        69.3754        35.3165        36.1250         2.5776         2.6593        24.9660         3.2430         2.5230     
 7364.0000        12.4539         0.0019        68.1563        69.0625        33.0610        33.9077         2.5437         2.7090        22.4491         3.1106         2.4966     
 7364.5000        12.4088        -0.0014        69.4688        69.3750        31.2070        29.9892         2.4698         2.6226        18.9140         3.0617         2.5024     
 7365.0000        12.3411         0.0024        68.7188        68.8125        29.0077        28.4993         2.2874         2.5529        17.1574         3.1744         2.5157     
 7365.5000        12.3203         0.0043        65.9058        66.0000        28.3813        29.1080         1.9831         2.4069        17.6141         3.3771         2.5100     
 7366.0000        12.3203         0.0036        67.9375        67.3125        27.1203        29.7716         1.5995         2.1003        18.3255         3.6069         2.4943     
 7366.5000        12.3247         0.0026        73.3183        73.8207        27.7695        29.0961         1.2569         1.6607        19.3339         3.6411         2.4653     
 7367.0000        12.3944        -0.0033        81.4688        87.1875        29.0313        32.2798         1.0146         1.2484        24.2151         3.4673         2.3940     
 7367.5000        12.4453        -0.0147        91.5282       105.9036        30.7960        35.0962         0.8440         0.9591        28.9040         3.1447         2.2967     
 7368.0000        12.3876        -0.0228        97.7188       110.8125        32.9817        36.2362         0.7241         0.8059        31.1677         2.8359         2.2267     
 7368.5000        12.3304        -0.0222        99.0004       110.4070        34.3442        33.0660         0.6358         0.7233        30.1492         2.6737         2.2007     
 7369.0000        12.3203        -0.0180        97.6563       109.3125        32.1406        30.4486         0.5710         0.6758        30.3965         2.6476         2.1895     
 7369.5000        12.3203        -0.0141        92.8780       103.5384        26.4011        30.2814         0.5342         0.6531        31.9992         2.7050         2.1835     
 7370.0000        12.3203        -0.0116        85.6302        88.4429        21.1579        30.4848         0.5271         0.6547        31.8128         2.7394         2.2054     
 7370.5000        12.3203        -0.0074        80.4063        82.1563        20.6624        28.4829         0.5438         0.6802        29.7270         2.7233         2.2642     
 7371.0000        12.3431        -0.0042        79.4375        78.7500        22.6875        24.8847         0.5752         0.7285        27.4895         2.7577         2.3243     
 7371.5000        12.4187        -0.0085        81.3438        80.8438        26.8327        21.9821         0.6160         0.7813        27.7799         2.6986         2.3366     
 7372.0000        12.4152        -0.0176        86.9368        85.7798        28.0235        22.9652         0.6605         0.8168        27.9249         2.5905         2.3015     
 7372.5000        12.3461        -0.0203        87.4063        87.8125        27.2396        24.5159         0.7035         0.8351        26.9793         2.4619         2.2705     
 7373.0000        12.3203        -0.0186        84.4361        85.1230        24.1602        24.8604         0.7447         0.8446        24.7846         2.5220         2.2643     
 7373.5000        12.3203        -0.0139        81.9375        82.1875        22.5859        23.1924         0.7764         0.8507        22.7443         2.7420         2.2841     
 7374.0000        12.3203        -0.0072        78.0942        78.5008        23.1726        21.7477         0.7900         0.8629        21.7794         2.9212         2.3201     
 7374.5000        12.3203        -0.0021        77.2813        77.3750        22.0034        21.5537         0.7923         0.8878        22.5851         3.0325         2.3488     
 7375.0000        12.3952        -0.0013        77.3438        78.8738        21.6885        21.7626         0.7926         0.9111        25.3237         3.1553         2.3596     
 7375.5000        12.4547        -0.0055        77.9375        80.0000        20.6953        23.1749         0.7919         0.9212        26.8887         3.1890         2.3529     
 7376.0000        12.4044        -0.0121        80.4368        81.2480        22.6337        23.7624         0.7906         0.9171        26.9968         2.9434         2.3389     
 7376.5000        12.3388        -0.0157        82.8714        85.5607        21.3410        24.0007         0.7807         0.9041        25.6712         2.7091         2.3261     
 7377.0000        12.3203        -0.0156        86.8438        87.5625        22.1630        23.9479         0.7498         0.8777        25.5456         2.7432         2.2991     
 7377.5000        12.3203        -0.0135        89.2813        89.0000        22.0742        23.8926         0.6973         0.8352        26.5514         2.9973         2.2572     
 7378.0000        12.3203        -0.0114        91.6250        90.8750        25.2960        23.0346         0.6348         0.7756        27.0330         3.2317         2.2191     
 7378.5000        12.3347        -0.0088        92.7188        92.3744        23.7661        22.0694         0.5767         0.7079        27.5609         3.2552         2.1992     
 7379.0000        12.3918        -0.0075        92.7188        93.2500        23.5319        22.7176         0.5279         0.6455        27.8742         3.2338         2.1950     
 7379.5000        12.4412        -0.0144        93.0627        92.6254        21.8320        23.1279         0.4883         0.5930        28.4342         3.0582         2.1869     
 7380.0000        12.4386        -0.0252        93.5625        93.1250        23.5156        22.3807         0.4594         0.5511        26.4874         2.7701         2.1771     
 7380.5000        12.4297        -0.0277        94.2816        93.3752        24.8709        21.5043         0.4430         0.5227        24.6596         2.5502         2.1764     
 7381.0000        12.3711        -0.0231        93.3125        92.6875        26.1132        23.1564         0.4384         0.5091        23.0671         2.5129         2.1878     
 7381.5000        12.3311        -0.0189        91.9389        91.1270        28.0634        25.6926         0.4478         0.5133        24.2564         2.6558         2.1994     
 7382.0000        12.3232        -0.0115        89.5625        88.5000        26.8164        27.3424         0.4710         0.5374        24.7037         2.8090         2.2208     
 7382.5000        12.3203        -0.0060        85.8134        85.8132        28.0236        28.0203         0.5093         0.5825        26.1635         2.9368         2.2418     
 7383.0000        12.3451        -0.0065        83.6577        83.5032        28.4326        28.2220         0.5634         0.6487        27.9178         3.0957         2.2612     
 7383.5000        12.4238        -0.0113        81.7500        80.4375        30.7577        28.5202         0.6350         0.7331        30.2562         3.1862         2.2782     
 7384.0000        12.4360        -0.0162        80.2188        80.5000        29.6914        27.7076         0.7213         0.8309        29.7069         3.1663         2.2943     
 7384.5000        12.3869        -0.0163        80.7500        82.1875        25.2640        26.7948         0.8152         0.9338        26.9529         3.0117         2.3118     
 7385.0000        12.3372        -0.0113        82.8125        84.9375        22.0186        25.4748         0.8965         1.0238        23.9060         2.9018         2.3111     
