~Version Information Section
VERS.          2.0                                     : CWLS LOG ASCII Standard
WRAP.          NO                                      : One line per depth step
CREA.          24/02/14                                : LAS Creation Date
~Well Information Section
STRT.ft        388.0000                                : Start Depth
STOP.ft        9511.5000                               : Stop Depth
STEP.ft        0.5000                                  : Step
NULL.          -999.2500                               : Null Value
COMP.          Mobil North Sea Ltd                     : Company
WELL.          9/17a-5                                 : Well
FLD .          Wildcat                                 : Field
LOC .          Northern North Sea                      : Location
PROV.          UKCS                                    : Province
UWI .          8400                                    : UWI Number
API .                                                  : API Number
SECT.                                                  : Section
TOWN.                                                  : Township
RNGE.                                                  : Range
PDAT.          MSL                                     : Perm Datum
EPD .ft        0.00                                    : Elevation
LMF .          RKB                                     : Log Measured From
DMF .          RKB                                     : Drill Measured From
APD .ft        87.00                                   : Above Perm Datum
EKB .ft        87.00                                   : Elev-Kelly Bushing
EDF .ft        86.00                                   : Elev-Drill Floor
EGL .ft        -339.00                                 : Elev-Ground Level (Water Depth)
TDD .ft        9514.00                                 : Total Depth (Driller)
LATI.          59 26 15.042 N                          : Latitude
LONG.          01 17 29.139 E                          : Longitude
SRVC.          Schlumberger                            : Service Company
DATE.          Jun-Jul-1989                            : Logging Date
PROJ.          UKCS                                    : Project
Set .          COMP WIRE                               : Set
~Curve Information Section
DEPTH.ft                                               : Depth Curve
CALI.in                                                : Caliper
DRHO.g/c3                                              : Delta Rho
DT.us/ft                                               : Delta-T
DTL.us/ft                                              : Delta T Long Spacing
GR.gAPI                                                : Gamma Ray
GRD.gAPI                                               : Gamma Ray
ILD.ohmm                                               : Deep Induction Standard Processed Resistivity
ILM.ohmm                                               : Medium Induction Standard Processed Resistivity
NPHI.LPU                                               : Neutron Porosity
PEF.B/E                                                : Photo-Electric Factor
RHOB.g/c3                                              : Bulk Density
~ASCII Log Data Section
# ...
 6530.5000        12.3469        -0.0216        94.2184        93.7498        25.1563        21.6685         0.5361         0.5902        25.2392         1.9854         2.2579     
 6531.0000        12.3864        -0.0175        92.7498        92.6872        23.8440        21.7291         0.5553         0.6021        23.4781         1.9631         2.2654     
 6531.5000        12.3832        -0.0140        92.6573        92.1882        24.2165        22.2078         0.5745         0.6139        23.3875         2.1419         2.2677     
 6532.0000        12.3862        -0.0076        94.8439        94.0004        22.4685        22.2448         0.5950         0.6317        23.7937         2.4754         2.2557     
 6532.5000        12.3808        -0.0070        96.2182        96.2494        21.4336        22.1551         0.6224         0.6572        25.2777         2.6606         2.2243     
 6533.0000        12.3391        -0.0079        98.5002        98.3748        22.5321        22.9904         0.6610         0.6880        27.0887         2.8216         2.1913     
 6533.5000        12.3840        -0.0092        97.9993        97.4370        26.4228        26.4647         0.7159         0.7222        28.8817         3.1386         2.1733     
 6534.0000        12.3639        -0.0098        95.1564        95.5002        29.2383        29.5199         0.7828         0.7703        30.8996         3.6233         2.2049     
 6534.5000        12.3228        -0.0080        94.2188        94.5625        34.1862        35.3014         0.8343         0.8367        32.1995         3.5649         2.2658     
 6535.0000        12.3203        -0.0058        93.6560        93.9375        40.9766        39.6927         0.8455         0.8976        30.9112         2.6597         2.3158     
 6535.5000        12.3203        -0.0081        94.6250        94.3750        46.8597        43.1125         0.8213         0.9122        30.2796         2.2460         2.2946     
 6536.0000        12.3203        -0.0119        95.5620        96.3125        43.2031        40.6012         0.7856         0.8681        30.1448         1.9982         2.2505     
 6536.5000        12.3203        -0.0120        97.3125        96.6875        33.7987        36.2873         0.7526         0.7993        31.5136         1.9711         2.2275     
 6537.0000        12.3203        -0.0129        97.7502        97.4377        26.0898        31.9554         0.7233         0.7418        30.4742         1.9261         2.2192     
 6537.5000        12.3203        -0.0135        98.8753        98.0625        23.7857        29.3105         0.6808         0.7051        28.7697         1.8686         2.2046     
 6538.0000        12.3203        -0.0184       100.1252        99.0638        25.4902        26.4400         0.6179         0.6825        26.9296         1.8558         2.1901     
 6538.5000        12.3203        -0.0219       100.4375       100.9996        24.2578        23.1935         0.5562         0.6631        27.8090         1.8785         2.1822     
 6539.0000        12.3203        -0.0257        99.9377        99.3127        23.4283        20.0653         0.5042         0.6365        27.2811         1.8654         2.1831     
 6539.5000        12.3203        -0.0263        98.8436        99.3129        20.4648        17.7391         0.4620         0.5955        28.0465         1.7877         2.1809     
 6540.0000        12.3203        -0.0254        99.0938       100.6250        19.1446        16.7473         0.4340         0.5451        28.7442         1.7932         2.1808     
 6540.5000        12.3203        -0.0235       100.8129        99.5000        18.7656        17.7606         0.4183         0.5012        29.9079         1.8556         2.1810     
 6541.0000        12.3203        -0.0260        99.5625       100.0000        18.5585        19.6094         0.4078         0.4739        30.1627         1.9898         2.1706     
 6541.5000        12.3203        -0.0253        99.7188       100.7506        19.2930        19.4500         0.3997         0.4612        28.7527         2.0648         2.1695     
 6542.0000        12.3220        -0.0251        99.3125        97.8750        20.5038        18.6312         0.3945         0.4588        28.2333         2.1013         2.1681     
 6542.5000        12.3469        -0.0264        98.0627        96.4684        20.9375        17.5335         0.3883         0.4665        26.6447         2.0511         2.1737     
 6543.0000        12.4102        -0.0277        97.0625        97.5313        21.4960        17.3227         0.3811         0.4786        25.9299         2.0073         2.1787     
 6543.5000        12.3948        -0.0241        97.2816        96.4062        22.4805        17.0780         0.3778         0.4812        25.5463         2.0642         2.1898     
 6544.0000        12.3302        -0.0192        97.8750        95.9688        24.0547        17.5533         0.3802         0.4725        25.3180         2.1832         2.2017     
 6544.5000        12.3207        -0.0190        96.1250        96.1875        22.7721        17.3251         0.3882         0.4645        26.4638         2.2824         2.1992     
 6545.0000        12.3203        -0.0192        96.4996        97.9668        19.8331        17.1932         0.4015         0.4610        27.2147         2.2812         2.1949     
 6545.5000        12.3379        -0.0166        96.5312        96.9690        19.2533        16.8500         0.4163         0.4610        28.5861         2.2456         2.1983     
 6546.0000        12.4091        -0.0169        96.1879        96.3439        21.4141        17.1930         0.4359         0.4702        28.0385         2.2157         2.2114     
 6546.5000        12.4582        -0.0207        94.9375        95.9688        21.3867        17.7709         0.4709         0.4989        25.0041         2.2129         2.2254     
 6547.0000        12.4609        -0.0217        95.0001        95.5006        20.5313        18.7810         0.5258         0.5549        19.6082         2.4361         2.2631     
 6547.5000        12.4609        -0.0165        92.0313        91.2188        18.0000        19.2449         0.6039         0.6431        14.9996         2.9038         2.3309     
 6548.0000        12.4415        -0.0095        82.5014        82.6895        17.7188        18.1065         0.7204         0.7738        14.0309         3.4622         2.4034     
 6548.5000        12.3823        -0.0054        74.6875        73.3438        17.1599        17.1905         0.8933         0.9625        16.7151         3.3244         2.4380     
 6549.0000        12.3900        -0.0080        64.6912        65.1596        17.6058        16.9062         1.1373         1.2404        18.8201         2.8586         2.4240     
 6549.5000        12.4066        -0.0085        57.8511        58.1323        16.9824        16.8059         1.4964         1.6478        16.2232         2.5573         2.4294     
 6550.0000        12.4579        -0.0080        57.1250        56.0313        18.4066        15.6929         2.0177         2.2230        11.7022         2.4862         2.4648     
 6550.5000        12.4860        -0.0073        53.9408        56.3746        17.4953        15.6355         2.7926         3.0205         6.9935         2.4314         2.5275     
 6551.0000        12.5406        -0.0055        53.5000        55.1250        18.2419        16.1158         3.9418         4.1370         4.9681         2.3103         2.5916     
 6551.5000        12.4548         0.0021        53.7809        52.6901        18.2565        15.9361         5.5362         5.6637         3.4496         2.4546         2.6469     
 6552.0000        12.3999         0.0090        53.2192        53.3124        19.8867        15.3219         7.5053         7.5551         2.7865         2.7262         2.6745     
 6552.5000        12.3629         0.0136        52.2813        52.1261        19.4961        15.0505         9.6161         9.5438         3.0203         3.0173         2.6812     
