~Version Information Section
VERS.          2.0                                     : CWLS LOG ASCII Standard
WRAP.          NO                                      : One line per depth step
CREA.          24/02/14                                : LAS Creation Date
~Well Information Section
STRT.ft        388.0000                                : Start Depth
STOP.ft        9511.5000                               : Stop Depth
STEP.ft        0.5000                                  : Step
NULL.          -999.2500                               : Null Value
COMP.          Mobil North Sea Ltd                     : Company
WELL.          9/17a-5                                 : Well
FLD .          Wildcat                                 : Field
LOC .          Northern North Sea                      : Location
PROV.          UKCS                                    : Province
UWI .          8400                                    : UWI Number
API .                                                  : API Number
SECT.                                                  : Section
TOWN.                                                  : Township
RNGE.                                                  : Range
PDAT.          MSL                                     : Perm Datum
EPD .ft        0.00                                    : Elevation
LMF .          RKB                                     : Log Measured From
DMF .          RKB                                     : Drill Measured From
APD .ft        87.00                                   : Above Perm Datum
EKB .ft        87.00                                   : Elev-Kelly Bushing
EDF .ft        86.00                                   : Elev-Drill Floor
EGL .ft        -339.00                                 : Elev-Ground Level (Water Depth)
TDD .ft        9514.00                                 : Total Depth (Driller)
LATI.          59 26 15.042 N                          : Latitude
LONG.          01 17 29.139 E                          : Longitude
SRVC.          Schlumberger                            : Service Company
DATE.          Jun-Jul-1989                            : Logging Date
PROJ.          UKCS                                    : Project
Set .          COMP WIRE                               : Set
~Curve Information Section
DEPTH.ft                                               : Depth Curve
CALI.in                                                : Caliper
DRHO.g/c3                                              : Delta Rho
DT.us/ft                                               : Delta-T
DTL.us/ft                                              : Delta T Long Spacing
GR.gAPI                                                : Gamma Ray
GRD.gAPI                                               : Gamma Ray
ILD.ohmm                                               : Deep Induction Standard Processed Resistivity
ILM.ohmm                                               : Medium Induction Standard Processed Resistivity
NPHI.LPU                                               : Neutron Porosity
PEF.B/E                                                : Photo-Electric Factor
RHOB.g/c3                                              : Bulk Density
~ASCII Log Data Section
# ...
 6103.0000        12.5406        -0.0199       101.3751       101.5623        29.4688        27.3892         0.3655         0.4067        30.3295         2.5473         2.1316     
 6103.5000        12.4422        -0.0173       102.0000       101.3750        28.9568        27.9703         0.3631         0.4065        30.2196         2.7765         2.1477     
 6104.0000        12.3427        -0.0110       102.7500       102.7502        29.8281        28.5047         0.3657         0.4075        30.0525         2.9072         2.1603     
 6104.5000        12.3976        -0.0073       104.1261       104.3132        30.1917        27.9752         0.3794         0.4127        31.9337         2.9753         2.1645     
 6105.0000        12.4932        -0.0049       109.4990       108.4986        32.1931        29.6191         0.4081         0.4280        34.8434         3.0660         2.1975     
 6105.5000        12.5870        -0.0030       114.2516       114.9394        36.5166        36.1573         0.4461         0.4604        37.1893         3.7635         2.2655     
 6106.0000        12.7165         0.0001       119.1265       119.8136        42.9891        45.8449         0.4853         0.5083        39.7565         4.1249         2.3535     
 6106.5000        12.6964         0.0011       125.1871       124.4370        52.3203        54.8526         0.5252         0.5617        42.7579         3.9111         2.3943     
 6107.0000        12.6200        -0.0004       126.4375       126.5625        55.3503        58.2746         0.5701         0.6114        45.3473         3.5721         2.3844     
 6107.5000        12.6016        -0.0039       126.1875       126.5627        59.1094        59.6270         0.6255         0.6568        45.4807         3.2714         2.3456     
 6108.0000        12.6016        -0.0049       126.6250       126.1875        57.7876        59.6402         0.6926         0.6971        44.0559         3.2389         2.3131     
 6108.5000        12.6493        -0.0026       128.4376       127.1247        63.4141        61.3844         0.7540         0.7296        42.8530         3.2425         2.3059     
 6109.0000        12.7776        -0.0006       127.8125       127.8125        64.6166        61.9961         0.7950         0.7542        43.4475         3.4703         2.3088     
 6109.5000        12.7706        -0.0022       126.5625       126.1873        65.5391        59.9353         0.8140         0.7757        43.9203         3.5784         2.3162     
 6110.0000        12.7518        -0.0071       126.3750       125.2500        61.0320        57.3269         0.8164         0.7935        42.3902         3.4731         2.3184     
 6110.5000        12.6541        -0.0091       124.8747       124.9373        58.9766        55.8533         0.8130         0.8039        40.0746         3.3581         2.3276     
 6111.0000        12.6250        -0.0110       124.1253       123.8749        60.5389        57.7699         0.8141         0.8112        40.4855         3.2590         2.3366     
 6111.5000        12.7089        -0.0128       125.3749       123.8747        59.5147        60.6860         0.8221         0.8190        41.3632         3.2813         2.3373     
 6112.0000        12.7824        -0.0071       125.2492       124.8122        57.6718        61.0857         0.8325         0.8286        43.4884         3.4390         2.3317     
 6112.5000        12.8689        -0.0014       123.5623       123.6870        56.6238        60.5999         0.8423         0.8389        45.8914         3.6040         2.3278     
 6113.0000        12.8305        -0.0015       122.7502       121.8127        56.4844        59.8970         0.8529         0.8480        49.7106         3.7443         2.3208     
 6113.5000        12.7524        -0.0009       121.9375       121.2500        61.2432        62.1998         0.8607         0.8566        49.9491         3.4689         2.3261     
 6114.0000        12.7224        -0.0038       122.3120       121.8120        58.5469        60.8623         0.8635         0.8628        48.7357         3.3168         2.3210     
 6114.5000        12.7248        -0.0119       124.8125       124.5000        60.0173        59.7290         0.8592         0.8650        48.9408         3.2958         2.3123     
 6115.0000        12.7446        -0.0156       127.4373       127.6873        53.6563        59.2939         0.8555         0.8617        48.2040         3.3145         2.3047     
 6115.5000        12.8464        -0.0136       128.0000       128.0000        53.2810        61.3371         0.8509         0.8557        45.7455         3.4122         2.3091     
 6116.0000        12.8328        -0.0150       127.7498       127.1874        54.3828        60.0379         0.8440         0.8483        42.8473         3.3792         2.3133     
 6116.5000        12.7660        -0.0133       127.0000       126.8125        55.0860        57.0497         0.8336         0.8384        40.7903         3.5936         2.3255     
 6117.0000        12.7500        -0.0110       126.6873       126.1874        55.7969        55.3861         0.8218         0.8267        40.0057         3.5956         2.3356     
 6117.5000        12.7500        -0.0134       125.3747       125.6247        57.9839        57.1401         0.8100         0.8165        38.6184         3.8179         2.3363     
 6118.0000        12.7500        -0.0132       123.9377       124.3751        55.6710        58.3136         0.8020         0.8085        39.5087         3.8191         2.3472     
 6118.5000        12.8165        -0.0078       123.0625       124.0000        52.3972        58.7480         0.7958         0.8018        38.7808         3.8064         2.3539     
 6119.0000        12.9448        -0.0054       123.6879       124.1251        49.0254        57.8198         0.7905         0.7995        40.1928         3.5032         2.3596     
 6119.5000        12.8190        -0.0043       125.1873       124.8122        54.0234        57.8904         0.7821         0.7991        42.8295         3.3520         2.3430     
 6120.0000        12.7432        -0.0029       126.2500       126.3750        58.2497        60.1739         0.7735         0.7939        45.6941         3.3597         2.3345     
 6120.5000        12.6677        -0.0024       127.9373       128.4373        59.1719        63.9341         0.7676         0.7833        45.8424         3.4218         2.3254     
 6121.0000        12.7091        -0.0041       128.5625       128.7500        58.8667        67.2032         0.7622         0.7743        43.8436         3.4951         2.3145     
 6121.5000        12.7448        -0.0052       128.6876       128.1249        64.0469        74.9088         0.7550         0.7680        41.8634         3.6544         2.3073     
 6122.0000        12.7864        -0.0103       128.2500       128.1875        76.9510        89.2090         0.7485         0.7612        41.8996         3.8395         2.2923     
 6122.5000        12.8455        -0.0111       127.0621       126.6245        84.8438        99.1243         0.7441         0.7556        42.0695         4.0740         2.3010     
 6123.0000        12.7378        -0.0098       125.6250       124.5625        81.6250        95.8709         0.7443         0.7574        44.0729         3.8872         2.3219     
 6123.5000        12.6239        -0.0089       125.1249       124.0000        69.9398        80.1662         0.7432         0.7650        45.0413         3.6523         2.3442     
 6124.0000        12.6016        -0.0081       125.0625       124.0625        63.3828        66.7203         0.7365         0.7695        44.7260         3.4335         2.3412     
 6124.5000        12.6503        -0.0065       126.7476       125.2468        64.6715        61.3408         0.7299         0.7633        41.4764         3.4609         2.3249     
 6125.0000        12.7494        -0.0052       129.1223       128.1844        64.7437        61.3696         0.7275         0.7532        38.2772         3.5586         2.3085     
