~Version Information Section
VERS.          2.0                                     : CWLS LOG ASCII Standard
WRAP.          NO                                      : One line per depth step
CREA.          24/02/14                                : LAS Creation Date
~Well Information Section
STRT.ft        388.0000                                : Start Depth
STOP.ft        9511.5000                               : Stop Depth
STEP.ft        0.5000                                  : Step
NULL.          -999.2500                               : Null Value
COMP.          Mobil North Sea Ltd                     : Company
WELL.          9/17a-5                                 : Well
FLD .          Wildcat                                 : Field
LOC .          Northern North Sea                      : Location
PROV.          UKCS                                    : Province
UWI .          8400                                    : UWI Number
API .                                                  : API Number
SECT.                                                  : Section
TOWN.                                                  : Township
RNGE.                                                  : Range
PDAT.          MSL                                     : Perm Datum
EPD .ft        0.00                                    : Elevation
LMF .          RKB                                     : Log Measured From
DMF .          RKB                                     : Drill Measured From
APD .ft        87.00                                   : Above Perm Datum
EKB .ft        87.00                                   : Elev-Kelly Bushing
EDF .ft        86.00                                   : Elev-Drill Floor
EGL .ft        -339.00                                 : Elev-Ground Level (Water Depth)
TDD .ft        9514.00                                 : Total Depth (Driller)
LATI.          59 26 15.042 N                          : Latitude
LONG.          01 17 29.139 E                          : Longitude
SRVC.          Schlumberger                            : Service Company
DATE.          Jun-Jul-1989                            : Logging Date
PROJ.          UKCS                                    : Project
Set .          COMP WIRE                               : Set
~Curve Information Section
DEPTH.ft                                               : Depth Curve
CALI.in                                                : Caliper
DRHO.g/c3                                              : Delta Rho
DT.us/ft                                               : Delta-T
DTL.us/ft                                              : Delta T Long Spacing
GR.gAPI                                                : Gamma Ray
GRD.gAPI                                               : Gamma Ray
ILD.ohmm                                               : Deep Induction Standard Processed Resistivity
ILM.ohmm                                               : Medium Induction Standard Processed Resistivity
NPHI.LPU                                               : Neutron Porosity
PEF.B/E                                                : Photo-Electric Factor
RHOB.g/c3                                              : Bulk Density
~ASCII Log Data Section
# ...
 4843.0000        12.4609        -0.0109        91.5625        92.3125        36.1945        39.2149         0.9172         0.9740        29.2952         3.3019         2.4395     
 4843.5000        12.4609        -0.0124        88.7488        88.5609        37.8906        36.5639         0.9644         1.0677        27.9608         3.0746         2.4064     
 4844.0000        12.4063        -0.0163        95.9375        97.7500        34.8432        36.8126         1.0161         1.1344        31.9181         2.8919         2.2938     
 4844.5000        12.2584        -0.0170       105.6237       107.4370        36.2266        38.2621         1.0889         1.1472        37.6438         2.9255         2.2349     
 4845.0000        12.2879        -0.0137       109.1875       107.9375        35.7724        38.3692         1.2056         1.1643        40.0314         3.1422         2.2734     
 4845.5000        12.4537        -0.0080       103.8136       102.1884        39.2813        38.9755         1.3386         1.2541        35.2496         3.1901         2.3621     
 4846.0000        12.4434        -0.0079        99.5000        99.0625        37.9142        38.3460         1.3880         1.3921        31.4560         2.8581         2.3814     
 4846.5000        12.3981        -0.0189       101.7518       101.3767        37.0547        39.1303         1.3297         1.4362        30.5240         2.5970         2.2911     
 4847.0000        12.3909        -0.0273       111.3750       110.3125        35.9609        41.2412         1.2404         1.3217        34.8555         2.5667         2.2016     
 4847.5000        12.3928        -0.0239       121.0633       119.5012        37.7141        44.4306         1.1738         1.1889        38.6759         2.7125         2.1688     
 4848.0000        12.3960        -0.0182       124.1250       124.0000        41.1797        45.3100         1.1348         1.1106        43.0724         2.8054         2.1650     
 4848.5000        12.3909        -0.0168       123.9372       124.0624        40.8664        43.0589         1.0914         1.0599        45.1639         2.8346         2.1574     
 4849.0000        12.3928        -0.0163       124.5625       124.4373        43.6406        41.1095         1.0125         1.0034        46.7016         2.8331         2.1489     
 4849.5000        12.3982        -0.0152       124.6875       125.0000        43.0466        38.9237         0.9271         0.9497        45.5372         2.8527         2.1482     
 4850.0000        12.3984        -0.0164       124.6873       125.0000        44.3516        40.9841         0.8638         0.9105        44.7199         2.7742         2.1485     
 4850.5000        12.4028        -0.0174       125.1875       125.0000        45.1722        40.9725         0.8267         0.8846        43.2405         2.6704         2.1478     
 4851.0000        12.4158        -0.0177       125.1873       124.9375        44.3672        41.9788         0.8066         0.8657        43.3458         2.6320         2.1487     
 4851.5000        12.4129        -0.0168       125.0625       124.7500        45.2504        40.8492         0.7988         0.8551        40.7747         2.6673         2.1527     
 4852.0000        12.3937        -0.0169       122.9375       124.6251        44.0781        45.0047         0.7925         0.8520        39.0249         2.7172         2.1560     
 4852.5000        12.3960        -0.0182       123.2500       124.3125        44.6488        46.1071         0.7862         0.8520        38.2302         2.7064         2.1527     
 4853.0000        12.3930        -0.0199       125.0002       124.8127        42.4531        45.8037         0.7819         0.8492        40.9689         2.6884         2.1489     
 4853.5000        12.3960        -0.0186       125.7500       126.0625        38.5547        40.1000         0.7796         0.8431        42.1181         2.7500         2.1476     
 4854.0000        12.3909        -0.0178       125.4998       125.9992        35.8056        39.4267         0.7813         0.8365        40.1304         2.8279         2.1461     
 4854.5000        12.3906        -0.0174       125.1250       123.2500        38.6797        38.8637         0.7859         0.8354        38.0639         2.8690         2.1437     
 4855.0000        12.3928        -0.0148       125.8132       123.8752        44.5542        41.6549         0.7917         0.8414        38.9429         2.8047         2.1506     
 4855.5000        12.3960        -0.0151       124.4375       123.3751        46.3906        43.8093         0.7992         0.8509        41.5778         2.7103         2.1549     
 4856.0000        12.3909        -0.0173       124.2500       122.8750        45.4777        44.7095         0.8062         0.8595        43.5925         2.6015         2.1586     
 4856.5000        12.3906        -0.0217       124.3125       122.5000        41.3359        44.0664         0.8123         0.8672        42.5142         2.5907         2.1561     
 4857.0000        12.3928        -0.0188       124.5000       122.9375        41.1880        43.0997         0.8197         0.8729        40.1983         2.6021         2.1638     
 4857.5000        12.3960        -0.0186       124.4375       124.2500        39.3828        43.0888         0.8254         0.8753        39.4388         2.6848         2.1632     
 4858.0000        12.3930        -0.0186       124.3750       124.2500        38.8910        42.6434         0.8281         0.8746        39.5203         2.7125         2.1611     
 4858.5000        12.3960        -0.0186       124.6875       124.1875        37.6016        41.6584         0.8313         0.8719        40.9982         2.7729         2.1563     
 4859.0000        12.3909        -0.0144       124.3750       124.0000        37.6562        40.5883         0.8330         0.8699        40.3644         2.8122         2.1615     
 4859.5000        12.3906        -0.0130       124.1251       124.0000        38.4609        41.5680         0.8353         0.8724        40.2028         2.8311         2.1663     
 4860.0000        12.3928        -0.0124       124.4375       123.8125        39.6250        42.4883         0.8352         0.8766        40.0437         2.8775         2.1677     
 4860.5000        12.4048        -0.0106       124.0006       123.1877        38.6801        44.3959         0.8369         0.8813        42.6689         2.8157         2.1709     
 4861.0000        12.4146        -0.0084       123.3750       123.0625        37.7344        43.7129         0.8379         0.8843        46.3449         2.7945         2.1698     
 4861.5000        12.3773        -0.0104       123.8124       123.2500        39.7736        43.3620         0.8385         0.8860        48.3564         2.8196         2.1715     
 4862.0000        12.3227        -0.0137       124.1249       123.4998        39.0625        41.7382         0.8370         0.8855        46.3263         2.8249         2.1644     
 4862.5000        12.3203        -0.0152       124.6250       124.3125        37.9229        43.4451         0.8332         0.8805        43.8689         2.7786         2.1577     
 4863.0000        12.3203        -0.0172       125.0000       124.5000        34.3359        42.7599         0.8284         0.8722        44.2987         2.7118         2.1472     
 4863.5000        12.3203        -0.0224       125.1875       124.6875        35.1722        43.4164         0.8235         0.8633        43.2166         2.7297         2.1384     
 4864.0000        12.3203        -0.0219       125.5627       125.1251        34.3750        41.9615         0.8207         0.8573        42.3299         2.8637         2.1407     
 4864.5000        12.3203        -0.0212       124.7500       124.4375        36.5224        42.9053         0.8191         0.8559        39.5597         2.9300         2.1488     
 4865.0000        12.3203        -0.0185       123.8749       123.3123        41.2969        42.7189         0.8207         0.8603        40.7768         3.0127         2.1560     
