~Version Information Section
VERS.          2.0                                     : CWLS LOG ASCII Standard
WRAP.          NO                                      : One line per depth step
CREA.          24/02/14                                : LAS Creation Date
~Well Information Section
STRT.ft        388.0000                                : Start Depth
STOP.ft        9511.5000                               : Stop Depth
STEP.ft        0.5000                                  : Step
NULL.          -999.2500                               : Null Value
COMP.          Mobil North Sea Ltd                     : Company
WELL.          9/17a-5                                 : Well
FLD .          Wildcat                                 : Field
LOC .          Northern North Sea                      : Location
PROV.          UKCS                                    : Province
UWI .          8400                                    : UWI Number
API .                                                  : API Number
SECT.                                                  : Section
TOWN.                                                  : Township
RNGE.                                                  : Range
PDAT.          MSL                                     : Perm Datum
EPD .ft        0.00                                    : Elevation
LMF .          RKB                                     : Log Measured From
DMF .          RKB                                     : Drill Measured From
APD .ft        87.00                                   : Above Perm Datum
EKB .ft        87.00                                   : Elev-Kelly Bushing
EDF .ft        86.00                                   : Elev-Drill Floor
EGL .ft        -339.00                                 : Elev-Ground Level (Water Depth)
TDD .ft        9514.00                                 : Total Depth (Driller)
LATI.          59 26 15.042 N                          : Latitude
LONG.          01 17 29.139 E                          : Longitude
SRVC.          Schlumberger                            : Service Company
DATE.          Jun-Jul-1989                            : Logging Date
PROJ.          UKCS                                    : Project
Set .          COMP WIRE                               : Set
~Curve Information Section
DEPTH.ft                                               : Depth Curve
CALI.in                                                : Caliper
DRHO.g/c3                                              : Delta Rho
DT.us/ft                                               : Delta-T
DTL.us/ft                                              : Delta T Long Spacing
GR.gAPI                                                : Gamma Ray
GRD.gAPI                                               : Gamma Ray
ILD.ohmm                                               : Deep Induction Standard Processed Resistivity
ILM.ohmm                                               : Medium Induction Standard Processed Resistivity
NPHI.LPU                                               : Neutron Porosity
PEF.B/E                                                : Photo-Electric Factor
RHOB.g/c3                                              : Bulk Density
~ASCII Log Data Section
# ...
 3583.0000        12.8232        -0.0084       141.8125       142.7500        38.2844        43.5332         0.9365         0.9022        52.1912         3.8898         2.1282     
 3583.5000        12.8006        -0.0076       141.7498       142.4998        34.9613        37.7144         0.9351         0.8990        52.3047         3.8177         2.1410     
 3584.0000        12.7969        -0.0063       141.2500       142.0625        35.1138        36.0860         0.9343         0.9007        52.2091         3.7093         2.1391     
 3584.5000        12.7969        -0.0056       142.0000       142.8128        39.7266        38.0039         0.9369         0.9041        54.9496         3.6483         2.1300     
 3585.0000        12.7929        -0.0067       141.7498       142.1249        41.2507        39.8392         0.9415         0.9106        53.7757         3.5570         2.1259     
 3585.5000        12.7732        -0.0075       141.1248       141.7500        41.3984        40.2805         0.9490         0.9203        54.0084         3.4331         2.1242     
 3586.0000        12.7539        -0.0094       141.5624       141.8124        39.1872        38.3642         0.9547         0.9306        50.6292         3.3734         2.1177     
 3586.5000        12.7500        -0.0145       141.6875       142.1250        38.8516        38.8837         0.9587         0.9355        48.9108         3.4571         2.1083     
 3587.0000        12.7500        -0.0191       141.5624       142.3751        39.2350        41.5764         0.9623         0.9346        44.3995         3.5787         2.0989     
 3587.5000        12.7500        -0.0219       141.8750       142.1875        39.4848        45.9801         0.9608         0.9308        45.0144         3.6033         2.0898     
 3588.0000        12.7500        -0.0246       142.3749       143.1871        37.1250        47.7634         0.9523         0.9253        45.0851         3.4676         2.0784     
 3588.5000        12.7500        -0.0251       143.0000       144.3125        34.7736        46.1938         0.9360         0.9152        47.9398         3.3419         2.0721     
 3589.0000        12.7500        -0.0232       143.9377       143.6249        34.0548        43.2046         0.9138         0.8989        51.9194         3.2839         2.0733     
 3589.5000        12.7500        -0.0222       145.0000       143.8125        34.8399        41.0948         0.8922         0.8775        52.8723         3.2571         2.0752     
 3590.0000        12.7500        -0.0205       146.8127       145.7502        38.7809        40.2320         0.8782         0.8564        51.7921         3.2426         2.0768     
 3590.5000        12.7721        -0.0194       147.3750       146.2500        40.6778        41.6717         0.8727         0.8425        49.0365         3.2169         2.0767     
 3591.0000        12.8408        -0.0196       145.6260       145.0008        42.7734        43.1603         0.8719         0.8413        45.7023         3.1735         2.0785     
 3591.5000        12.8906        -0.0209       142.8117       142.9996        42.0468        46.5791         0.8743         0.8548        45.6641         3.1129         2.0880     
 3592.0000        12.8906        -0.0214       139.9375       141.1875        41.9375        45.4953         0.8786         0.8729        48.4609         3.0751         2.1014     
 3592.5000        12.8906        -0.0203       139.9998       140.2500        41.7650        45.8713         0.8871         0.8865        54.6480         3.1101         2.1110     
 3593.0000        12.8906        -0.0224       140.5625       140.3125        41.5234        43.1029         0.9019         0.9002        57.9794         3.1928         2.1107     
 3593.5000        12.8906        -0.0237       139.8127       140.1253        42.6315        43.2610         0.9204         0.9145        52.5005         3.2626         2.1095     
 3594.0000        12.8906        -0.0210       139.2500       139.1875        41.2264        41.6440         0.9379         0.9264        46.0976         3.2973         2.1114     
 3594.5000        12.8906        -0.0209       139.1251       139.6251        40.4844        42.1548         0.9456         0.9328        40.4423         3.2451         2.1076     
 3595.0000        12.8906        -0.0236       138.5625       139.3125        35.9219        38.3667         0.9469         0.9355        40.4473         3.4011         2.1027     
 3595.5000        12.8906        -0.0211       138.4378       139.3749        35.7423        38.4429         0.9447         0.9348        44.2231         3.8443         2.1060     
 3596.0000        12.8906        -0.0167       139.4375       139.1875        36.3016        36.9827         0.9492         0.9369        47.8241         4.3855         2.1112     
 3596.5000        13.0612        -0.0149       138.6877       139.5623        38.7894        40.6667         0.9603         0.9579        47.8454         5.8792         2.0942     
 3597.0000        13.8656        -0.0097       138.2500       138.0625        37.3132        38.4195         0.9727         0.9914        51.4464         9.4820         2.0323     
 3597.5000        15.7044        -0.0092       135.6868       135.9988        35.5156        38.2518         0.9921         1.0268        54.4897        19.4502         1.9108     
 3598.0000        17.2279        -0.0113       139.0641       140.5644        32.8285        35.4391         1.0139         1.0665        60.5503        32.3472         1.7854     
 3598.5000        16.6149        -0.0075       148.1250       149.6250        32.2422        35.2651         1.0264         1.1133        58.1866        36.0223         1.7246     
 3599.0000        14.9165        -0.0006       158.4986       157.4988        29.2625        32.6042         1.0354         1.1426        57.2961        35.1530         1.7085     
 3599.5000        13.6823        -0.0019       162.4375       160.3125        29.9648        31.3513         1.0362         1.1312        54.7469        30.9312         1.7119     
 3600.0000        13.2260         0.0046       155.6273       153.4389        29.9002        32.4356         1.0251         1.0847        57.1779        21.6390         1.7514     
 3600.5000        13.0641         0.0150       144.6875       145.8125        32.8432        35.2343         1.0082         1.0249        53.1266        14.9772         1.8441     
 3601.0000        12.9756         0.0216       137.5627       143.6250        34.9688        36.0042         0.9887         0.9667        51.4577         7.8515         1.9746     
 3601.5000        12.8908         0.0254       136.8750       138.9377        36.4987        36.5527         0.9627         0.9293        48.9539         5.6526         2.0835     
 3602.0000        12.8937         0.0281       134.9362       138.6255        40.4773        37.1677         0.9365         0.9158        50.2305         4.8078         2.1538     
 3602.5000        12.9256         0.0170       132.1250       148.2500        38.5911        41.7841         0.9154         0.9109        49.8076         5.9365         2.1491     
 3603.0000        12.9925         0.0115       137.7500       147.7492        40.0321        43.5208         0.9023         0.9118        48.9482         8.5259         2.0898     
 3603.5000        13.0667         0.0074       142.6237       147.7500        37.5456        41.7373         0.8960         0.9192        49.4877        12.4147         1.9935     
 3604.0000        13.1068         0.0056       144.2500       146.3748        38.8203        38.7473         0.8948         0.9306        50.2772        12.3236         1.9440     
 3604.5000        13.0256         0.0086       140.0000       146.5623        38.1488        36.9053         0.8955         0.9328        50.9522         6.9852         1.9760     
 3605.0000        12.9210         0.0105       135.7500       144.1875        38.8672        38.4457         0.8951         0.9174        52.9720         4.6428         2.0589     
