~Version Information Section
VERS.          2.0                                     : CWLS LOG ASCII Standard
WRAP.          NO                                      : One line per depth step
CREA.          24/02/14                                : LAS Creation Date
~Well Information Section
STRT.ft        388.0000                                : Start Depth
STOP.ft        9511.5000                               : Stop Depth
STEP.ft        0.5000                                  : Step
NULL.          -999.2500                               : Null Value
COMP.          Mobil North Sea Ltd                     : Company
WELL.          9/17a-5                                 : Well
FLD .          Wildcat                                 : Field
LOC .          Northern North Sea                      : Location
PROV.          UKCS                                    : Province
UWI .          8400                                    : UWI Number
API .                                                  : API Number
SECT.                                                  : Section
TOWN.                                                  : Township
RNGE.                                                  : Range
PDAT.          MSL                                     : Perm Datum
EPD .ft        0.00                                    : Elevation
LMF .          RKB                                     : Log Measured From
DMF .          RKB                                     : Drill Measured From
APD .ft        87.00                                   : Above Perm Datum
EKB .ft        87.00                                   : Elev-Kelly Bushing
EDF .ft        86.00                                   : Elev-Drill Floor
EGL .ft        -339.00                                 : Elev-Ground Level (Water Depth)
TDD .ft        9514.00                                 : Total Depth (Driller)
LATI.          59 26 15.042 N                          : Latitude
LONG.          01 17 29.139 E                          : Longitude
SRVC.          Schlumberger                            : Service Company
DATE.          Jun-Jul-1989                            : Logging Date
PROJ.          UKCS                                    : Project
Set .          COMP WIRE                               : Set
~Curve Information Section
DEPTH.ft                                               : Depth Curve
CALI.in                                                : Caliper
DRHO.g/c3                                              : Delta Rho
DT.us/ft                                               : Delta-T
DTL.us/ft                                              : Delta T Long Spacing
GR.gAPI                                                : Gamma Ray
GRD.gAPI                                               : Gamma Ray
ILD.ohmm                                               : Deep Induction Standard Processed Resistivity
ILM.ohmm                                               : Medium Induction Standard Processed Resistivity
NPHI.LPU                                               : Neutron Porosity
PEF.B/E                                                : Photo-Electric Factor
RHOB.g/c3                                              : Bulk Density
~ASCII Log Data Section
# ...
 5270.5000        12.6016        -0.0079       121.2500       120.6875        50.6173        51.9835         0.8923         0.9050        36.5027         3.5485         2.1673     
 5271.0000        12.6016        -0.0085       121.1251       120.4375        49.6250        50.8378         0.8891         0.9086        36.7686         3.3844         2.1663     
 5271.5000        12.6016        -0.0063       120.5000       119.8750        46.8055        49.7777         0.8868         0.9040        38.4280         3.1216         2.1756     
 5272.0000        12.6016        -0.0050       119.9998       118.9373        42.9531        49.0897         0.8879         0.9002        38.4576         3.2138         2.1844     
 5272.5000        12.6016        -0.0076       121.0000       119.8750        41.0779        49.0612         0.8932         0.9052        40.6885         3.3336         2.1821     
 5273.0000        12.6016        -0.0039       121.8125       121.3122        42.9141        50.1620         0.8995         0.9135        41.1185         3.2601         2.1835     
 5273.5000        12.6016        -0.0006       122.4375       122.1875        45.3438        52.4034         0.9027         0.9160        41.5331         2.9364         2.1859     
 5274.0000        12.6016         0.0004       123.5623       122.0625        45.5547        52.5342         0.9074         0.9141        42.1334         2.7965         2.1952     
 5274.5000        12.6016         0.0002       123.0625       122.3750        47.0703        52.2869         0.9141         0.9160        43.4257         2.8474         2.2067     
 5275.0000        12.6016        -0.0023       123.3751       122.8125        46.5160        50.0112         0.9180         0.9210        41.2844         2.9001         2.2074     
 5275.5000        12.6016        -0.0065       123.8125       123.3125        46.0781        52.5308         0.9147         0.9221        40.7592         2.9095         2.2028     
 5276.0000        12.6016        -0.0098       124.0624       124.1252        44.3663        55.4105         0.9071         0.9162        38.4284         2.8289         2.2051     
 5276.5000        12.6016        -0.0086       124.5622       124.2496        48.6641        57.8544         0.8960         0.9042        38.4027         2.9343         2.2146     
 5277.0000        12.6016        -0.0098       126.0625       126.0625        51.5856        56.0549         0.8812         0.8871        37.1644         3.0384         2.2235     
 5277.5000        12.6016        -0.0118       127.8749       127.1873        51.8047        53.9773         0.8638         0.8673        40.1044         3.1776         2.2216     
 5278.0000        12.6016        -0.0154       128.6875       128.4375        48.5474        54.1219         0.8437         0.8455        40.7927         3.3353         2.2153     
 5278.5000        12.6016        -0.0159       130.0624       130.2502        47.8281        51.9862         0.8248         0.8240        40.4550         3.3222         2.2117     
 5279.0000        12.6016        -0.0195       130.2500       129.6875        51.4295        54.4325         0.8071         0.8087        40.9700         3.2935         2.2056     
 5279.5000        12.6016        -0.0214       129.9377       130.0627        52.1094        56.6449         0.7945         0.8005        46.1865         3.1234         2.2059     
 5280.0000        12.6016        -0.0200       128.6875       129.3125        51.7031        60.6148         0.7882         0.7970        48.3196         2.9567         2.2052     
 5280.5000        12.6016        -0.0144       127.6249       129.1878        52.5000        58.0355         0.7857         0.7980        47.3510         2.8897         2.2101     
 5281.0000        12.6016        -0.0129       127.3750       132.1875        54.8516        59.0351         0.7849         0.8041        41.3457         2.8183         2.2137     
 5281.5000        12.6016        -0.0089       128.0002       137.3125        54.8900        58.3950         0.7850         0.8102        41.2332         2.8910         2.2198     
 5282.0000        12.6016        -0.0033       129.3125       138.1875        53.5000        61.0345         0.7850         0.8092        44.3153         2.9043         2.2285     
 5282.5000        12.6016        -0.0012       131.1248       140.3748        51.3284        58.9601         0.7868         0.8014        45.3186         2.9817         2.2303     
 5283.0000        12.6016        -0.0024       131.5000       140.5002        49.5781        56.9963         0.7894         0.7932        44.4589         3.0291         2.2295     
 5283.5000        12.6016        -0.0029       131.4375       139.8125        48.8586        55.5727         0.7906         0.7901        43.8932         3.1122         2.2251     
 5284.0000        12.6016        -0.0046       131.0627       139.7502        52.2422        55.0245         0.7819         0.7912        43.4664         3.1872         2.2199     
 5284.5000        12.6016        -0.0073       130.1253       138.2506        54.2952        56.2678         0.7679         0.7865        44.0873         3.2288         2.2091     
 5285.0000        12.6016        -0.0100       128.9376       134.6272        56.7750        54.3382         0.7572         0.7742        39.5736         3.2173         2.1999     
 5285.5000        12.6016        -0.0100       128.6250       130.0625        55.0545        54.5591         0.7541         0.7639        42.1449         3.2041         2.1937     
 5286.0000        12.6016        -0.0089       128.3124       128.9373        55.4297        58.2673         0.7593         0.7643        44.3041         3.2412         2.1962     
 5286.5000        12.6016        -0.0095       129.0625       129.8125        53.8830        63.2165         0.7639         0.7738        48.3812         3.2648         2.2068     
 5287.0000        12.6016        -0.0099       130.8750       130.8125        55.5216        65.5324         0.7653         0.7827        46.6569         3.3392         2.2181     
 5287.5000        12.6016        -0.0074       130.2504       130.1880        62.1723        61.3869         0.7676         0.7868        45.1762         3.1894         2.2302     
 5288.0000        12.6016        -0.0049       126.5647       126.4417        61.6563        57.5158         0.7751         0.7917        45.8750         2.9426         2.2275     
 5288.5000        12.6016        -0.0027       123.5654       121.8797        59.6299        49.8581         0.7866         0.8015        44.8621         2.7943         2.2230     
 5289.0000        12.6016        -0.0009       120.3139       119.9377        53.5313        48.1635         0.7937         0.8140        42.7949         2.8592         2.2180     
 5289.5000        12.5797         0.0015       119.2508       119.8125        52.0972        44.5973         0.7884         0.8223        40.0062         3.1329         2.2174     
 5290.0000        12.5236         0.0014       121.0608       121.6224        47.8280        46.7231         0.7755         0.8147        40.5421         3.1832         2.2042     
 5290.5000        12.5202        -0.0034       124.7454       128.8641        48.1090        44.1007         0.7637         0.7912        42.8892         3.0877         2.1684     
 5291.0000        12.5505        -0.0084       126.6871       136.3747        49.4048        45.0097         0.7611         0.7668        44.7641         3.0054         2.1418     
 5291.5000        12.5995        -0.0088       128.2496       137.9368        51.5480        47.2968         0.7641         0.7582        49.9121         3.0051         2.1419     
 5292.0000        12.6016        -0.0070       129.1875       138.9375        50.6870        49.7225         0.7614         0.7655        48.7544         3.1426         2.1668     
 5292.5000        12.6016        -0.0070       129.8125       137.9375        51.7272        49.4351         0.7530         0.7720        48.6011         3.1900         2.1906     
