~Version Information Section
VERS.          2.0                                     : CWLS LOG ASCII Standard
WRAP.          NO                                      : One line per depth step
CREA.          24/02/14                                : LAS Creation Date
~Well Information Section
STRT.ft        388.0000                                : Start Depth
STOP.ft        9511.5000                               : Stop Depth
STEP.ft        0.5000                                  : Step
NULL.          -999.2500                               : Null Value
COMP.          Mobil North Sea Ltd                     : Company
WELL.          9/17a-5                                 : Well
FLD .          Wildcat                                 : Field
LOC .          Northern North Sea                      : Location
PROV.          UKCS                                    : Province
UWI .          8400                                    : UWI Number
API .                                                  : API Number
SECT.                                                  : Section
TOWN.                                                  : Township
RNGE.                                                  : Range
PDAT.          MSL                                     : Perm Datum
EPD .ft        0.00                                    : Elevation
LMF .          RKB                                     : Log Measured From
DMF .          RKB                                     : Drill Measured From
APD .ft        87.00                                   : Above Perm Datum
EKB .ft        87.00                                   : Elev-Kelly Bushing
EDF .ft        86.00                                   : Elev-Drill Floor
EGL .ft        -339.00                                 : Elev-Ground Level (Water Depth)
TDD .ft        9514.00                                 : Total Depth (Driller)
LATI.          59 26 15.042 N                          : Latitude
LONG.          01 17 29.139 E                          : Longitude
SRVC.          Schlumberger                            : Service Company
DATE.          Jun-Jul-1989                            : Logging Date
PROJ.          UKCS                                    : Project
Set .          COMP WIRE                               : Set
~Curve Information Section
DEPTH.ft                                               : Depth Curve
CALI.in                                                : Caliper
DRHO.g/c3                                              : Delta Rho
DT.us/ft                                               : Delta-T
DTL.us/ft                                              : Delta T Long Spacing
GR.gAPI                                                : Gamma Ray
GRD.gAPI                                               : Gamma Ray
ILD.ohmm                                               : Deep Induction Standard Processed Resistivity
ILM.ohmm                                               : Medium Induction Standard Processed Resistivity
NPHI.LPU                                               : Neutron Porosity
PEF.B/E                                                : Photo-Electric Factor
RHOB.g/c3                                              : Bulk Density
~ASCII Log Data Section
# ...
 9050.5000        12.0961         0.0136        80.7500        80.6865        64.6641        70.5172         1.3348         1.3696        23.2357         3.7449         2.3751     
 9051.0000        12.1412         0.0130        80.5938        79.6875        73.9844        77.8880         1.3187         1.3358        24.3335         3.9935         2.4041     
 9051.5000        12.1962         0.0070        80.0938        79.6872        87.4063        86.9724         1.2806         1.3014        25.2110         3.9793         2.4153     
 9052.0000        12.1863        -0.0010        80.0938        80.3125       106.4219       104.1195         1.2346         1.2760        24.4433         3.7573         2.4294     
 9052.5000        12.1219        -0.0012        80.2815        80.3131       123.4189       124.2213         1.1849         1.2710        25.2280         3.6105         2.4529     
 9053.0000        12.0843         0.0021        79.8438        79.6250       128.9688       131.5551         1.1325         1.2694        24.4205         3.4807         2.4642     
 9053.5000        12.0925         0.0015        79.5938        79.4063       124.4531       120.6357         1.0694         1.2430        22.8901         3.1832         2.4297     
 9054.0000        12.1016         0.0012        80.1876        79.9998       104.8438        98.3337         0.9849         1.1817        21.2387         2.8653         2.3655     
 9054.5000        12.0919         0.0019        80.7188        80.8438        80.8829        73.8722         0.8939         1.0832        20.9990         2.7343         2.3137     
 9055.0000        12.0810         0.0011        83.5313        83.3125        61.7734        54.7872         0.8051         0.9696        22.6438         2.8574         2.2880     
 9055.5000        12.0781         0.0016        85.8125        86.7500        47.5703        39.1604         0.7235         0.8591        24.0789         3.0968         2.2831     
 9056.0000        12.0781         0.0012        87.1861        87.5623        41.3976        32.5068         0.6601         0.7669        24.7610         3.1762         2.2802     
 9056.5000        12.0781        -0.0025        88.5312        87.7500        34.5042        33.7963         0.6207         0.7042        24.2766         3.0679         2.2803     
 9057.0000        12.0781        -0.0019        88.2802        87.4365        37.4141        42.2415         0.6037         0.6786        24.3251         3.1430         2.3041     
 9057.5000        12.0781         0.0035        86.7188        86.1875        53.4297        58.1196         0.6046         0.6903        22.3401         3.2463         2.3429     
 9058.0000        12.0781         0.0092        84.8754        84.8756        67.5938        71.5042         0.6176         0.7309        20.8614         3.3180         2.3539     
 9058.5000        12.0781         0.0114        84.0938        83.8125        73.3438        75.6014         0.6385         0.7853        20.5634         3.2022         2.3421     
 9059.0000        12.0781         0.0119        84.3115        84.1869        66.2690        67.7104         0.6692         0.8378        22.3874         3.2085         2.3215     
 9059.5000        12.1314         0.0120        85.1875        85.5000        56.9766        55.7187         0.7128         0.8821        23.5180         3.2741         2.3182     
 9060.0000        12.1831         0.0083        85.1250        87.0000        45.8281        47.7524         0.7607         0.9125        23.7967         3.3140         2.3100     
 9060.5000        12.1683         0.0004        85.5936        85.1244        37.5000        41.9886         0.7983         0.9253        24.5810         3.2249         2.2973     
 9061.0000        12.1345        -0.0043        85.9375        86.3125        34.3102        40.2147         0.8145         0.9219        25.1482         3.0123         2.2896     
 9061.5000        12.1140        -0.0076        86.2188        86.5625        39.9609        40.6561         0.8146         0.9080        25.9147         2.8748         2.2850     
 9062.0000        12.1205        -0.0065        86.4375        86.4375        46.8359        45.1633         0.8098         0.8949        24.9913         2.8893         2.2895     
 9062.5000        12.1194        -0.0028        86.1254        85.1262        55.0610        50.4447         0.8053         0.8912        23.1401         2.9887         2.3014     
 9063.0000        12.1116         0.0012        85.4692        84.0000        59.2110        56.5992         0.8060         0.8986        20.4624         3.1186         2.3240     
 9063.5000        12.0923         0.0010        84.5309        84.0000        68.5156        64.7651         0.8140         0.9134        19.6797         3.2075         2.3371     
 9064.0000        12.1147         0.0018        84.3746        84.1246        73.7930        73.9235         0.8291         0.9312        20.9030         3.4277         2.3416     
 9064.5000        12.1943         0.0021        84.8113        84.4992        81.8077        84.9531         0.8538         0.9502        22.9078         3.9218         2.3433     
 9065.0000        12.2188        -0.0003        85.3428        84.8744        88.1521       102.5410         0.8885         0.9743        22.7095         4.3057         2.3516     
 9065.5000        12.2188         0.0012        86.4684        86.0311       105.7104       128.7968         0.9210         1.0029        23.9255         4.1168         2.3729     
 9066.0000        12.1121         0.0032        86.6250        85.9688       121.3906       145.4891         0.9384         1.0329        25.7246         3.6096         2.3799     
 9066.5000        12.0781         0.0054        86.0320        85.3754       116.5235       134.1607         0.9337         1.0504        26.7825         3.3765         2.3807     
 9067.0000        12.0901         0.0070        85.0032        84.6898        94.3017       104.9098         0.9102         1.0466        24.7726         3.2947         2.3739     
 9067.5000        12.1058         0.0101        83.8438        83.5938        67.2261        74.8394         0.8730         1.0160        21.3947         3.0891         2.3685     
 9068.0000        12.1033         0.0070        83.9688        83.4063        49.8594        58.0929         0.8327         0.9584        21.1349         2.7476         2.3443     
 9068.5000        12.0831         0.0042        84.5316        84.0320        36.5042        44.0873         0.8042         0.8843        21.5284         2.5680         2.3164     
 9069.0000        12.0781         0.0001        82.5739        82.5381        27.6563        33.8952         0.7893         0.8206        21.9641         2.5859         2.2975     
 9069.5000        12.0781        -0.0028        78.2596        79.6310        24.9273        27.2834         0.7751         0.7980        22.3617         2.8436         2.2964     
 9070.0000        12.0781        -0.0062        79.5282        77.8730        25.4453        26.8197         0.7498         0.8073        23.9511         3.2763         2.3170     
 9070.5000        12.0781        -0.0040        76.9988        76.4361        25.4330        27.9102         0.7199         0.8108        23.8547         3.2606         2.3456     
 9071.0000        12.0781        -0.0017        79.0230        78.6787        26.4997        29.0577         0.6875         0.8007        21.9389         2.9657         2.3536     
 9071.5000        12.0781         0.0001        81.9002        81.5252        27.3870        28.0496         0.6637         0.7819        19.3346         2.6590         2.3343     
 9072.0000        12.0781        -0.0026        82.4061        81.4692        29.4534        28.3212         0.6598         0.7566        17.9469         2.5263         2.3099     
 9072.5000        12.0781        -0.0011        82.4375        81.3125        28.4102        29.5585         0.6610         0.7306        18.8950         2.5000         2.3039     
