~Version Information Section
VERS.          2.0                                     : CWLS LOG ASCII Standard
WRAP.          NO                                      : One line per depth step
CREA.          24/02/14                                : LAS Creation Date
~Well Information Section
STRT.ft        388.0000                                : Start Depth
STOP.ft        9511.5000                               : Stop Depth
STEP.ft        0.5000                                  : Step
NULL.          -999.2500                               : Null Value
COMP.          Mobil North Sea Ltd                     : Company
WELL.          9/17a-5                                 : Well
FLD .          Wildcat                                 : Field
LOC .          Northern North Sea                      : Location
PROV.          UKCS                                    : Province
UWI .          8400                                    : UWI Number
API .                                                  : API Number
SECT.                                                  : Section
TOWN.                                                  : Township
RNGE.                                                  : Range
PDAT.          MSL                                     : Perm Datum
EPD .ft        0.00                                    : Elevation
LMF .          RKB                                     : Log Measured From
DMF .          RKB                                     : Drill Measured From
APD .ft        87.00                                   : Above Perm Datum
EKB .ft        87.00                                   : Elev-Kelly Bushing
EDF .ft        86.00                                   : Elev-Drill Floor
EGL .ft        -339.00                                 : Elev-Ground Level (Water Depth)
TDD .ft        9514.00                                 : Total Depth (Driller)
LATI.          59 26 15.042 N                          : Latitude
LONG.          01 17 29.139 E                          : Longitude
SRVC.          Schlumberger                            : Service Company
DATE.          Jun-Jul-1989                            : Logging Date
PROJ.          UKCS                                    : Project
Set .          COMP WIRE                               : Set
~Curve Information Section
DEPTH.ft                                               : Depth Curve
CALI.in                                                : Caliper
DRHO.g/c3                                              : Delta Rho
DT.us/ft                                               : Delta-T
DTL.us/ft                                              : Delta T Long Spacing
GR.gAPI                                                : Gamma Ray
GRD.gAPI                                               : Gamma Ray
ILD.ohmm                                               : Deep Induction Standard Processed Resistivity
ILM.ohmm                                               : Medium Induction Standard Processed Resistivity
NPHI.LPU                                               : Neutron Porosity
PEF.B/E                                                : Photo-Electric Factor
RHOB.g/c3                                              : Bulk Density
~ASCII Log Data Section
# ...
 9478.0000        12.3672         0.0462      -999.2500      -999.2500        78.9230        79.1396         3.8149         3.5187        21.9686         4.8608         2.5747     
 9478.5000        12.3672         0.0272      -999.2500      -999.2500        82.1806        81.8237         4.0490         3.6993        22.5495         5.4626         2.5603     
 9479.0000        12.3672         0.0430      -999.2500      -999.2500        79.9129        79.7688         4.3374         3.8988        22.4986         5.1738         2.6045     
 9479.5000        12.2676         0.0613      -999.2500      -999.2500        75.4114        75.3254         4.6436         4.1892        21.7509         4.8818         2.6278     
 9480.0000        12.2578         0.0436      -999.2500      -999.2500        70.2804        70.6932         5.1210         4.6541        19.8513         5.2492         2.5949     
 9480.5000        12.3125         0.0308      -999.2500      -999.2500        71.9321        72.3503         5.7200         5.5271        19.3119         7.3086         2.5958     
 9481.0000        12.3575         0.0217      -999.2500      -999.2500        79.5168        79.3276         6.2387         6.6420        19.7534        14.5956         2.6644     
 9481.5000        12.4375         0.0243      -999.2500      -999.2500        83.4916        82.9397         6.4962         7.3683        19.1079        12.6404         2.7978     
 9482.0000        12.4317         0.0273      -999.2500      -999.2500        79.0925        78.9102         6.7169         7.4381        17.4275         7.8999         2.8814     
 9482.5000        12.3516         0.0133      -999.2500      -999.2500        72.3995        72.6463         6.7972         7.2354        17.1134         5.6367         2.8149     
 9483.0000        12.8438         0.0113      -999.2500      -999.2500        69.8763        70.1799         6.8061         7.0505        18.8421         5.2754         2.7004     
 9483.5000        12.4824         0.0405      -999.2500      -999.2500        72.3788        72.7151         6.8351         6.5784        21.9942         6.5322         2.6140     
 9484.0000        12.3516         0.0712      -999.2500      -999.2500        79.2354        78.8491         6.7021         5.8964        22.0883         7.6406         2.5754     
 9484.5000        12.4375         0.0727      -999.2500      -999.2500        80.3893        80.3665         6.2126         5.5221        23.2011         7.7363         2.5322     
 9485.0000        12.4434         0.0678      -999.2500      -999.2500        80.8772        80.6684         5.6346         5.3485        24.3865         5.7344         2.5281     
 9485.5000        12.3848         0.0522      -999.2500      -999.2500        78.8427        79.2326         5.2658         5.1077        25.8669         4.7803         2.5331     
 9486.0000        12.3906         0.0283      -999.2500      -999.2500        82.2107      -999.2500         5.4996         4.9866        26.3921         4.7939         2.5447     
 9486.5000        12.4803         0.0078      -999.2500      -999.2500        82.6524      -999.2500         6.2112         5.2171        25.8066         6.2887         2.5634     
 9487.0000        12.5078         0.0042      -999.2500      -999.2500      -999.2500      -999.2500         6.9597         5.8624        25.6855         7.7529         2.6058     
 9487.5000        12.5078         0.0101      -999.2500      -999.2500      -999.2500      -999.2500         7.9475         7.0877        23.5538         8.5887         2.6701     
 9488.0000        12.5078         0.0134      -999.2500      -999.2500      -999.2500      -999.2500         9.4289         9.4060        21.8900         7.6996         2.7322     
 9488.5000        12.4961         0.0122      -999.2500      -999.2500      -999.2500      -999.2500        11.7021        13.1612        19.2377         6.8709         2.8056     
 9489.0000        12.4043         0.0276      -999.2500      -999.2500      -999.2500      -999.2500        15.5018        17.2490        15.1196         5.8291         2.8978     
 9489.5000        12.3691         0.0361      -999.2500      -999.2500      -999.2500      -999.2500        21.9245        19.5101         8.5200         5.2188         2.9621     
 9490.0000        12.3906         0.0267      -999.2500      -999.2500      -999.2500      -999.2500        30.4912        21.3850         2.7503         5.1514         2.9721     
 9490.5000        12.3984         0.0204      -999.2500      -999.2500      -999.2500      -999.2500        37.3425        24.6090         0.9203         5.5625         2.9681     
 9491.0000        12.4102         0.0158      -999.2500      -999.2500      -999.2500      -999.2500        38.2409        26.7224         0.8462         5.7979         2.9775     
 9491.5000        12.3848         0.0136      -999.2500      -999.2500      -999.2500      -999.2500        34.6260        27.0931         1.2934         5.8262         2.9835     
 9492.0000        12.4629         0.0119      -999.2500      -999.2500      -999.2500      -999.2500        31.5847        26.0764         1.5978         5.7656         2.9638     
 9492.5000        12.4219         0.0046      -999.2500      -999.2500      -999.2500      -999.2500        29.9572        25.5953         1.5428         5.9395         2.9175     
 9493.0000        12.2873         0.0017      -999.2500      -999.2500      -999.2500      -999.2500        29.6662        26.3033         1.3842         5.9396         2.8978     
 9493.5000        12.2266         0.0103      -999.2500      -999.2500      -999.2500      -999.2500        29.7254        28.9526         1.6278         5.9736         2.9247     
 9494.0000        12.2188         0.0241      -999.2500      -999.2500      -999.2500      -999.2500        29.4919        31.6173         2.1027         5.8926         2.9665     
 9494.5000        12.1660         0.0273      -999.2500      -999.2500      -999.2500      -999.2500        28.5431        32.4623         2.2598         5.7598         2.9818     
 9495.0000        12.2011         0.0260      -999.2500      -999.2500      -999.2500      -999.2500        27.5106        32.4623         2.1011         5.9108         2.9845     
 9495.5000        12.2246         0.0292      -999.2500      -999.2500      -999.2500      -999.2500        27.8565        32.8175         1.8216         6.5293         2.9896     
 9496.0000        12.2207         0.0427      -999.2500      -999.2500      -999.2500      -999.2500        28.7480        34.2135      -999.2500         7.0225         2.9743     
 9496.5000        12.2949         0.0452      -999.2500      -999.2500      -999.2500      -999.2500        27.4599        35.2907      -999.2500         6.3398         2.9066     
 9497.0000        12.1563         0.0332      -999.2500      -999.2500      -999.2500      -999.2500        24.3050        34.5900      -999.2500         5.4219         2.7828     
 9497.5000        12.2716         0.0418      -999.2500      -999.2500      -999.2500      -999.2500        21.4254        29.8055      -999.2500         4.8572         2.7263     
 9498.0000        12.2637         0.0620      -999.2500      -999.2500      -999.2500      -999.2500        18.9731        22.9320      -999.2500         4.9473         2.7072     
 9498.5000        12.2656         0.0539      -999.2500      -999.2500      -999.2500      -999.2500        16.5664        18.5107      -999.2500         5.2529         2.7115     
 9499.0000        12.2559         0.0401      -999.2500      -999.2500      -999.2500      -999.2500        14.8792        15.6017      -999.2500         5.8916         2.7129     
 9499.5000        12.3202         0.0358      -999.2500      -999.2500      -999.2500      -999.2500        14.2956        14.0720      -999.2500         6.1600         2.7642     
 9500.0000        12.3320         0.0321      -999.2500      -999.2500      -999.2500      -999.2500        14.6801        14.4147      -999.2500         6.6914         2.8037     
