~Version Information Section
VERS.          2.0                                     : CWLS LOG ASCII Standard
WRAP.          NO                                      : One line per depth step
CREA.          24/02/14                                : LAS Creation Date
~Well Information Section
STRT.ft        388.0000                                : Start Depth
STOP.ft        9511.5000                               : Stop Depth
STEP.ft        0.5000                                  : Step
NULL.          -999.2500                               : Null Value
COMP.          Mobil North Sea Ltd                     : Company
WELL.          9/17a-5                                 : Well
FLD .          Wildcat                                 : Field
LOC .          Northern North Sea                      : Location
PROV.          UKCS                                    : Province
UWI .          8400                                    : UWI Number
API .                                                  : API Number
SECT.                                                  : Section
TOWN.                                                  : Township
RNGE.                                                  : Range
PDAT.          MSL                                     : Perm Datum
EPD .ft        0.00                                    : Elevation
LMF .          RKB                                     : Log Measured From
DMF .          RKB                                     : Drill Measured From
APD .ft        87.00                                   : Above Perm Datum
EKB .ft        87.00                                   : Elev-Kelly Bushing
EDF .ft        86.00                                   : Elev-Drill Floor
EGL .ft        -339.00                                 : Elev-Ground Level (Water Depth)
TDD .ft        9514.00                                 : Total Depth (Driller)
LATI.          59 26 15.042 N                          : Latitude
LONG.          01 17 29.139 E                          : Longitude
SRVC.          Schlumberger                            : Service Company
DATE.          Jun-Jul-1989                            : Logging Date
PROJ.          UKCS                                    : Project
Set .          COMP WIRE                               : Set
~Curve Information Section
DEPTH.ft                                               : Depth Curve
CALI.in                                                : Caliper
DRHO.g/c3                                              : Delta Rho
DT.us/ft                                               : Delta-T
DTL.us/ft                                              : Delta T Long Spacing
GR.gAPI                                                : Gamma Ray
GRD.gAPI                                               : Gamma Ray
ILD.ohmm                                               : Deep Induction Standard Processed Resistivity
ILM.ohmm                                               : Medium Induction Standard Processed Resistivity
NPHI.LPU                                               : Neutron Porosity
PEF.B/E                                                : Photo-Electric Factor
RHOB.g/c3                                              : Bulk Density
~ASCII Log Data Section
# ...
 8645.5000        12.1797        -0.0058        79.7500        78.9063        43.6328        45.5830         1.4400         1.6897        16.5191         2.4491         2.4384     
 8646.0000        12.1797        -0.0056        79.9060        79.6252        38.2500        44.5842         1.4438         1.6719        17.1316         2.4707         2.4332     
 8646.5000        12.1797        -0.0047        80.3438        79.5000        34.9063        45.5139         1.4411         1.6486        17.3462         2.4364         2.4332     
 8647.0000        12.1797        -0.0063        80.3438        79.9375        35.7266        44.5149         1.4108         1.6046        18.2734         2.3879         2.4176     
 8647.5000        12.1797        -0.0090        80.3750        79.1250        39.4141        41.9602         1.3670         1.5366        18.2293         2.4569         2.4039     
 8648.0000        12.1797        -0.0087        79.6562        79.4688        42.7266        40.6664         1.3264         1.4834        18.6527         2.6041         2.4125     
 8648.5000        12.1797        -0.0060        79.8750        79.5000        46.2741        46.3627         1.2684         1.4605        19.4865         2.6244         2.4360     
 8649.0000        12.1797        -0.0061        80.6262        79.9377        45.6797        49.6189         1.2059         1.4329        20.4634         2.4709         2.4398     
 8649.5000        12.1797        -0.0079        81.9375        80.7813        46.0547        48.6011         1.1588         1.3740        21.8204         2.3192         2.4154     
 8650.0000        12.1797        -0.0116        82.3128        82.2820        41.7422        41.2807         1.1404         1.3228        21.0704         2.2902         2.3867     
 8650.5000        12.1797        -0.0144        81.2188        80.4375        41.7578        34.5768         1.1510         1.2927        19.3706         2.4461         2.3893     
 8651.0000        12.1797        -0.0137        79.4381        78.9070        39.1313        35.4786         1.1721         1.3072        17.5391         2.5046         2.4138     
 8651.5000        12.1797        -0.0145        78.7500        78.3438        41.7578        39.8009         1.1727         1.3444        17.0413         2.5037         2.4235     
 8652.0000        12.1797        -0.0184        78.9063        78.7188        41.4141        42.7078         1.1754         1.3653        17.4421         2.5278         2.4055     
 8652.5000        12.1797        -0.0164        80.5000        79.4368        41.9609        40.9378         1.2103         1.3812        19.1290         2.7144         2.4008     
 8653.0000        12.1797        -0.0106        80.4688        80.6563        44.6935        42.9492         1.2931         1.4263        20.7375         2.8614         2.4212     
 8653.5000        12.1797        -0.0054        80.2500        80.0625        50.9844        48.4022         1.4229         1.5246        22.2000         2.8921         2.4471     
 8654.0000        12.1797        -0.0025        79.8125        79.0625        61.1875        54.9091         1.5816         1.6907        22.9283         2.8953         2.4626     
 8654.5000        12.1797         0.0000        79.8122        79.2494        66.9844        58.4398         1.7438         1.9175        23.8376         3.1098         2.4748     
 8655.0000        12.1797         0.0007        80.3438        80.2188        67.8441        63.3713         1.8798         2.1725        24.6169         3.2518         2.4955     
 8655.5000        12.1797        -0.0010        80.2186        79.4992        66.4375        68.7591         1.9584         2.3892        23.1476         3.2243         2.5024     
 8656.0000        12.1797        -0.0044        80.2188        79.0938        64.6563        67.6736         1.9565         2.4538        23.0114         2.8003         2.4890     
 8656.5000        12.1797        -0.0097        80.8432        80.3434        64.0078        62.5873         1.8470         2.2934        23.2590         2.4413         2.4360     
 8657.0000        12.1797        -0.0150        82.4063        81.5625        54.5547        54.9059         1.6626         1.9740        23.9266         2.2373         2.3728     
 8657.5000        12.1797        -0.0183        84.3738        83.5615        42.0433        46.7004         1.4765         1.6360        22.2786         2.2495         2.3373     
 8658.0000        12.1797        -0.0187        85.1250        84.3438        33.1641        40.7573         1.3245         1.3815        20.5603         2.3140         2.3449     
 8658.5000        12.1797        -0.0173        83.6250        83.2500        31.5391        37.8195         1.1971         1.2401        20.0224         2.3191         2.3864     
 8659.0000        12.1797        -0.0152        82.1256        81.3750        35.3047        39.8203         1.0772         1.1704        19.8608         2.2193         2.4126     
 8659.5000        12.1797        -0.0146        81.4688        81.5313        36.2654        38.8320         0.9712         1.1243        18.8877         2.1846         2.4057     
 8660.0000        12.1797        -0.0145        83.0625        82.4063        35.3984        36.4814         0.8902         1.0740        18.8189         2.1818         2.3767     
 8660.5000        12.1797        -0.0129        83.9688        83.8750        30.7422        32.4478         0.8460         1.0230        19.1779         2.2119         2.3516     
 8661.0000        12.1797        -0.0093        85.0936        84.8122        28.1094        30.7784         0.8362         0.9857        20.7297         2.1683         2.3426     
 8661.5000        12.1797        -0.0085        85.5313        85.1563        27.8312        30.5703         0.8397         0.9655        21.1950         2.1328         2.3407     
 8662.0000        12.1797        -0.0115        85.5925        84.6254        29.7813        30.6742         0.8455         0.9566        20.8828         2.1596         2.3456     
 8662.5000        12.1797        -0.0143        84.3750        84.7500        31.0977        30.9938         0.8512         0.9586        19.5199         2.1987         2.3549     
 8663.0000        12.1797        -0.0139        83.9694        83.5632        31.8281        30.7048         0.8602         0.9806        18.6499         2.2306         2.3706     
 8663.5000        12.1797        -0.0139        82.5313        81.9375        33.7031        32.2174         0.8786         1.0191        18.3279         2.2944         2.3860     
 8664.0000        12.1797        -0.0115        81.6570        80.8754        36.9370        33.7751         0.9045         1.0620        18.1417         2.3230         2.4041     
 8664.5000        12.1797        -0.0070        81.2813        80.6250        37.6250        33.0192         0.9336         1.1021        18.0136         2.3242         2.4097     
 8665.0000        12.1797        -0.0042        82.8414        81.8722        36.5713        34.0327         0.9598         1.1325        18.1804         2.2429         2.3980     
 8665.5000        12.1797        -0.0091        85.5552        84.9298        35.0457        33.8398         0.9762         1.1456        21.4138         2.1890         2.3596     
 8666.0000        12.1797        -0.0147        87.3438        86.4375        35.4770        37.5103         0.9755         1.1384        23.3076         2.1978         2.3246     
 8666.5000        12.1797        -0.0163        87.5938        86.8750        34.8984        37.9943         0.9525         1.1115        22.9597         2.3060         2.3159     
 8667.0000        12.1797        -0.0164        87.1875        86.3750        35.4922        38.3219         0.9089         1.0676        19.7452         2.3003         2.3264     
 8667.5000        12.1797        -0.0195        86.0631        85.8131        35.3741        35.4380         0.8516         1.0134        18.9001         2.2719         2.3257     
