~Version Information Section
VERS.          2.0                                     : CWLS LOG ASCII Standard
WRAP.          NO                                      : One line per depth step
CREA.          24/02/14                                : LAS Creation Date
~Well Information Section
STRT.ft        388.0000                                : Start Depth
STOP.ft        9511.5000                               : Stop Depth
STEP.ft        0.5000                                  : Step
NULL.          -999.2500                               : Null Value
COMP.          Mobil North Sea Ltd                     : Company
WELL.          9/17a-5                                 : Well
FLD .          Wildcat                                 : Field
LOC .          Northern North Sea                      : Location
PROV.          UKCS                                    : Province
UWI .          8400                                    : UWI Number
API .                                                  : API Number
SECT.                                                  : Section
TOWN.                                                  : Township
RNGE.                                                  : Range
PDAT.          MSL                                     : Perm Datum
EPD .ft        0.00                                    : Elevation
LMF .          RKB                                     : Log Measured From
DMF .          RKB                                     : Drill Measured From
APD .ft        87.00                                   : Above Perm Datum
EKB .ft        87.00                                   : Elev-Kelly Bushing
EDF .ft        86.00                                   : Elev-Drill Floor
EGL .ft        -339.00                                 : Elev-Ground Level (Water Depth)
TDD .ft        9514.00                                 : Total Depth (Driller)
LATI.          59 26 15.042 N                          : Latitude
LONG.          01 17 29.139 E                          : Longitude
SRVC.          Schlumberger                            : Service Company
DATE.          Jun-Jul-1989                            : Logging Date
PROJ.          UKCS                                    : Project
Set .          COMP WIRE                               : Set
~Curve Information Section
DEPTH.ft                                               : Depth Curve
CALI.in                                                : Caliper
DRHO.g/c3                                              : Delta Rho
DT.us/ft                                               : Delta-T
DTL.us/ft                                              : Delta T Long Spacing
GR.gAPI                                                : Gamma Ray
GRD.gAPI                                               : Gamma Ray
ILD.ohmm                                               : Deep Induction Standard Processed Resistivity
ILM.ohmm                                               : Medium Induction Standard Processed Resistivity
NPHI.LPU                                               : Neutron Porosity
PEF.B/E                                                : Photo-Electric Factor
RHOB.g/c3                                              : Bulk Density
~ASCII Log Data Section
# ...
 6958.0000        12.3203        -0.0206       103.0000       102.5000        19.8281        24.2881         0.3255         0.3615        30.9447         2.4220         2.1326     
 6958.5000        12.3203        -0.0224       102.8116       102.3116        19.8442        24.5164         0.3267         0.3623        30.0228         2.4619         2.1302     
 6959.0000        12.3203        -0.0212       102.1875       101.8750        18.5820        23.4312         0.3258         0.3621        30.0814         2.6921         2.1285     
 6959.5000        12.3203        -0.0167       102.1875       102.1250        21.6406        24.7408         0.3244         0.3617        30.3087         2.9692         2.1257     
 6960.0000        12.3225        -0.0164       102.6873       101.6246        24.1211        26.2828         0.3244         0.3606        33.4148         3.0857         2.1221     
 6960.5000        12.3279        -0.0196       102.6872       101.6244        29.1872        27.4414         0.3251         0.3617        30.9513         2.8825         2.1219     
 6961.0000        12.3259        -0.0211       103.3750       102.7500        30.3281        28.5508         0.3267         0.3653        29.8448         2.5581         2.1233     
 6961.5000        12.3206        -0.0206       103.6875       102.8750        31.9688        30.5092         0.3304         0.3695        28.5497         2.3956         2.1234     
 6962.0000        12.3203        -0.0211       103.3750       103.1875        30.2656        29.7810         0.3345         0.3736        29.0350         2.4416         2.1191     
 6962.5000        12.3203        -0.0182       103.0313       102.7496        29.2293        29.4766         0.3389         0.3778        28.6710         2.6639         2.1184     
 6963.0000        12.3203        -0.0143       102.8438       102.3125        31.5742        29.5762         0.3473         0.3838        29.2845         2.9668         2.1245     
 6963.5000        12.3203        -0.0131       102.2500       102.8750        33.1654        32.8697         0.3601         0.3959        32.0985         3.1896         2.1347     
 6964.0000        12.3203        -0.0148       103.4368       102.3740        35.4366        35.0605         0.3752         0.4163        32.6715         3.0839         2.1449     
 6964.5000        12.3203        -0.0144       105.5625       105.1250        35.6727        39.7733         0.3917         0.4401        32.5966         2.8447         2.1574     
 6965.0000        12.3203        -0.0099       107.8746       107.3738        40.1797        41.9087         0.4088         0.4629        32.3229         2.6845         2.1819     
 6965.5000        12.3203        -0.0056       106.9063       106.1250        44.0625        43.8413         0.4242         0.4821        31.9440         2.5950         2.2063     
 6966.0000        12.3203        -0.0019       104.5313       105.0000        43.4922        38.7897         0.4403         0.4943        31.3342         2.6327         2.2174     
 6966.5000        12.3203        -0.0002       102.4683       102.3118        39.1719        33.7985         0.4580         0.4998        30.6853         2.7289         2.2140     
 6967.0000        12.3203        -0.0042       102.1250       101.5000        35.1803        29.3978         0.4752         0.5065        31.1355         2.9410         2.1985     
 6967.5000        12.3203        -0.0120       103.6563       103.1250        33.3242        27.7421         0.4873         0.5219        30.3709         2.8486         2.1837     
 6968.0000        12.3203        -0.0196       103.4063       103.2500        30.7305        26.4399         0.4829         0.5424        27.1297         2.5929         2.1636     
 6968.5000        12.3203        -0.0240       101.7510       101.8136        28.6066        24.1016         0.4672         0.5494        24.1734         2.3825         2.1537     
 6969.0000        12.3203        -0.0230        99.2813        98.8750        25.3782        22.4405         0.4573         0.5352        25.0330         2.3757         2.1607     
 6969.5000        12.3203        -0.0188        96.9688        95.6250        21.3477        24.0873         0.4613         0.5129        28.7128         2.5358         2.1798     
 6970.0000        12.3203        -0.0142        94.9688        93.6250        19.4260        24.1455         0.4808         0.5042        32.8777         2.7142         2.2045     
 6970.5000        12.3203        -0.0109        93.2820        92.8756        21.3173        26.1441         0.5089         0.5198        31.7956         2.8328         2.2320     
 6971.0000        12.3203        -0.0101        92.0313        91.6875        26.9070        23.8418         0.5301         0.5563        28.0438         2.8525         2.2604     
 6971.5000        12.3203        -0.0099        92.1552        91.6254        30.0859        25.3218         0.5372         0.5976        25.3795         2.6653         2.2741     
 6972.0000        12.3203        -0.0107        91.6563        91.9375        28.8477        24.0758         0.5340         0.6247        22.9825         2.5843         2.2575     
 6972.5000        12.3203        -0.0121        92.8125        92.4375        25.2305        22.8732         0.5282         0.6245        23.3165         2.5377         2.2290     
 6973.0000        12.3203        -0.0082        90.5923        92.4342        21.6523        21.0514         0.5294         0.6057        24.8601         2.6899         2.2192     
 6973.5000        12.3203        -0.0040        86.9688        85.1250        20.5356        19.5327         0.5382         0.5861        27.2057         2.8606         2.2379     
 6974.0000        12.3203        -0.0016        82.4375        80.0625        19.6172        19.0995         0.5434         0.5763        25.6716         3.0599         2.2801     
 6974.5000        12.3203         0.0006        76.2188        74.2500        19.9063        17.1458         0.5272         0.5723        20.8897         3.0322         2.3464     
 6975.0000        12.3203         0.0046        74.2806        73.0608        21.9804        17.7257         0.4868         0.5659        17.6250         2.8777         2.4111     
 6975.5000        12.3203         0.0036        77.1563        78.1250        22.3067        17.5133         0.4413         0.5477        19.5166         2.6996         2.4201     
 6976.0000        12.3203        -0.0022        85.0625        85.9375        22.6758        19.9455         0.4050         0.5112        22.8468         2.7107         2.3446     
 6976.5000        12.3203        -0.0054        94.9688        93.4375        21.7197        21.8950         0.3837         0.4667        25.8646         2.8897         2.2485     
 6977.0000        12.3225        -0.0074        98.2812        96.6868        23.4492        23.4663         0.3739         0.4344        28.1653         3.0602         2.1880     
 6977.5000        12.3301        -0.0122        98.4375        97.9375        24.0818        22.8598         0.3692         0.4215        29.8530         2.9867         2.1657     
 6978.0000        12.3357        -0.0149        99.0325        98.1889        26.5391        22.5986         0.3704         0.4207        28.5701         2.6418         2.1776     
 6978.5000        12.3512        -0.0121       100.1875        99.6250        30.1172        26.4823         0.3863         0.4323        28.7184         2.5228         2.2083     
 6979.0000        12.3693        -0.0098        99.2188        98.7500        36.8438        33.4173         0.4192         0.4679        30.9542         2.5303         2.2468     
 6979.5000        12.3224        -0.0054        94.2145        92.3082        38.3828        39.7934         0.4681         0.5261        31.3417         2.8421         2.2753     
 6980.0000        12.3203         0.0029        84.4375        82.8125        36.0031        42.0197         0.5333         0.6008        25.7077         3.2633         2.3241     
