~Version Information Section
VERS.          2.0                                     : CWLS LOG ASCII Standard
WRAP.          NO                                      : One line per depth step
CREA.          24/02/14                                : LAS Creation Date
~Well Information Section
STRT.ft        388.0000                                : Start Depth
STOP.ft        9511.5000                               : Stop Depth
STEP.ft        0.5000                                  : Step
NULL.          -999.2500                               : Null Value
COMP.          Mobil North Sea Ltd                     : Company
WELL.          9/17a-5                                 : Well
FLD .          Wildcat                                 : Field
LOC .          Northern North Sea                      : Location
PROV.          UKCS                                    : Province
UWI .          8400                                    : UWI Number
API .                                                  : API Number
SECT.                                                  : Section
TOWN.                                                  : Township
RNGE.                                                  : Range
PDAT.          MSL                                     : Perm Datum
EPD .ft        0.00                                    : Elevation
LMF .          RKB                                     : Log Measured From
DMF .          RKB                                     : Drill Measured From
APD .ft        87.00                                   : Above Perm Datum
EKB .ft        87.00                                   : Elev-Kelly Bushing
EDF .ft        86.00                                   : Elev-Drill Floor
EGL .ft        -339.00                                 : Elev-Ground Level (Water Depth)
TDD .ft        9514.00                                 : Total Depth (Driller)
LATI.          59 26 15.042 N                          : Latitude
LONG.          01 17 29.139 E                          : Longitude
SRVC.          Schlumberger                            : Service Company
DATE.          Jun-Jul-1989                            : Logging Date
PROJ.          UKCS                                    : Project
Set .          COMP WIRE                               : Set
~Curve Information Section
DEPTH.ft                                               : Depth Curve
CALI.in                                                : Caliper
DRHO.g/c3                                              : Delta Rho
DT.us/ft                                               : Delta-T
DTL.us/ft                                              : Delta T Long Spacing
GR.gAPI                                                : Gamma Ray
GRD.gAPI                                               : Gamma Ray
ILD.ohmm                                               : Deep Induction Standard Processed Resistivity
ILM.ohmm                                               : Medium Induction Standard Processed Resistivity
NPHI.LPU                                               : Neutron Porosity
PEF.B/E                                                : Photo-Electric Factor
RHOB.g/c3                                              : Bulk Density
~ASCII Log Data Section
# ...
 3988.0000        12.2500        -0.0247       122.0625       122.1251        23.9852        25.2888         0.4264         0.4579        39.8434         2.9319         2.0308     
 3988.5000        12.2404        -0.0235       121.6884       121.5004        20.7539        23.6183         0.4261         0.4573        38.7720         3.0386         2.0307     
 3989.0000        12.2290        -0.0256       119.7502       120.1879        19.1764        21.5840         0.4293         0.4574        36.9104         3.1560         2.0315     
 3989.5000        12.2492        -0.0289       118.6256       118.1256        17.5469        20.3165         0.4358         0.4599        35.4235         3.2130         2.0328     
 3990.0000        12.2500        -0.0296       117.5000       117.1250        19.6170        20.4862         0.4431         0.4658        34.0795         3.1491         2.0388     
 3990.5000        12.2523        -0.0299       117.5625       117.3127        20.8473        21.6385         0.4474         0.4740        32.7337         3.1101         2.0439     
 3991.0000        12.2553        -0.0283       117.8125       116.8750        22.7254        22.9381         0.4468         0.4817        33.1137         3.1038         2.0465     
 3991.5000        12.2548        -0.0232       118.1251       117.5002        23.8359        23.2917         0.4452         0.4837        34.0396         3.0162         2.0484     
 3992.0000        12.2766        -0.0182       119.0000       118.6875        23.2281        24.0993         0.4457         0.4823        34.6217         2.8430         2.0474     
 3992.5000        12.2922        -0.0159       121.0629       120.6880        21.4533        24.3873         0.4513         0.4844        35.9898         2.6392         2.0399     
 3993.0000        12.2622        -0.0191       123.5625       123.3125        22.4477        25.9744         0.4608         0.4956        37.8436         2.7243         2.0242     
 3993.5000        12.2617        -0.0228       125.6259       124.8129        24.6911        25.0516         0.4746         0.5124        38.7796         2.9342         2.0201     
 3994.0000        12.2857        -0.0279       123.3144       123.1268        26.0859        23.5178         0.4997         0.5304        37.0413         3.3003         2.0360     
 3994.5000        12.2925        -0.0260       118.7508       118.5634        26.2388        23.3368         0.5440         0.5540        34.8898         3.5589         2.0748     
 3995.0000        12.3720        -0.0227       115.6252       114.8752        24.6133        26.2084         0.6039         0.6038        35.5434         3.4531         2.1095     
 3995.5000        12.4496        -0.0211       116.1868       115.3118        25.3554        28.4922         0.6722         0.6898        37.3926         3.2238         2.1093     
 3996.0000        12.3259        -0.0195       120.6224       119.8092        25.5781        28.3791         0.7209         0.7868        38.7819         2.8473         2.0780     
 3996.5000        12.3203        -0.0176       126.1250       126.7500        26.0078        27.0439         0.7235         0.8345        39.8150         2.7248         2.0361     
 3997.0000        12.3203        -0.0196       127.6253       128.3130        25.9142        25.8389         0.7063         0.7998        39.4534         2.7659         2.0129     
 3997.5000        12.3203        -0.0210       125.8125       125.5000        24.8188        24.7635         0.6852         0.7203        38.1941         2.8542         2.0166     
 3998.0000        12.3203        -0.0199       122.6866       122.5620        22.4727        24.4853         0.6512         0.6392        35.4717         2.9087         2.0308     
 3998.5000        12.3203        -0.0230       119.0625       119.8125        21.6497        25.0822         0.6036         0.5811        33.7252         2.8683         2.0401     
 3999.0000        12.3203        -0.0276       117.7500       117.8751        20.7314        26.5917         0.5475         0.5448        33.1517         2.8373         2.0404     
 3999.5000        12.3203        -0.0290       118.1250       118.5625        22.2624        25.8489         0.4947         0.5186        33.9574         2.8195         2.0464     
 4000.0000        12.3203        -0.0295       119.6864       119.6870        21.5116        24.6408         0.4564         0.4989        35.2410         2.8656         2.0458     
 4000.5000        12.3203        -0.0288       121.1248       120.4372        21.7070        22.6286         0.4353         0.4844        37.4018         2.9282         2.0440     
 4001.0000        12.3203        -0.0259       121.8122       121.0625        21.9604        23.1737         0.4290         0.4753        37.0227         2.8300         2.0418     
 4001.5000        12.3203        -0.0215       122.6252       121.1876        23.9453        22.4115         0.4310         0.4728        33.6261         2.6609         2.0459     
 4002.0000        12.3203        -0.0174       121.8753       120.6877        24.4726        21.8583         0.4349         0.4770        31.2581         2.6278         2.0537     
 4002.5000        12.3203        -0.0140       120.7500       119.7500        24.2344        20.8476         0.4398         0.4818        32.1827         2.7561         2.0634     
 4003.0000        12.3203        -0.0153       120.6875       120.0625        22.3672        21.6168         0.4440         0.4833        35.2903         2.9201         2.0614     
 4003.5000        12.3203        -0.0198       120.7498       121.1249        22.1330        23.0227         0.4474         0.4839        37.4001         2.9620         2.0540     
 4004.0000        12.3203        -0.0250       121.6250       121.3750        21.1258        23.2694         0.4515         0.4858        36.5492         2.9341         2.0470     
 4004.5000        12.3203        -0.0294       121.8122       121.0626        20.2890        22.6648         0.4560         0.4866        34.5097         2.9267         2.0463     
 4005.0000        12.3203        -0.0345       121.1875       120.8747        20.0159        21.0189         0.4579         0.4867        32.3525         3.0088         2.0444     
 4005.5000        12.3203        -0.0355       120.9376       120.0620        20.7734        20.1212         0.4577         0.4866        32.4896         3.1550         2.0471     
 4006.0000        12.3203        -0.0352       120.8751       121.2502        22.7833        19.5261         0.4584         0.4852        34.5993         3.2281         2.0481     
 4006.5000        12.3203        -0.0363       121.1252       121.5632        24.9844        19.4807         0.4576         0.4831        35.2117         3.2094         2.0451     
 4007.0000        12.3203        -0.0365       120.9373       120.3749        23.7302        21.1149         0.4554         0.4817        34.7386         3.1408         2.0335     
 4007.5000        12.3203        -0.0335       121.0000       120.5625        22.5000        22.0499         0.4547         0.4806        34.3425         3.3306         2.0338     
 4008.0000        12.3203        -0.0291       119.3751       119.7502        19.9922        23.9652         0.4539         0.4804        35.8229         3.5669         2.0463     
 4008.5000        12.3203        -0.0246       118.7500       118.8750        20.5699        24.3521         0.4526         0.4801        37.7128         3.5480         2.0635     
 4009.0000        12.3203        -0.0203       117.8751       118.4375        23.0664        24.4074         0.4521         0.4794        37.2880         3.3249         2.0749     
 4009.5000        12.3203        -0.0206       117.6875       118.1875        25.9688        22.9755         0.4526         0.4788        35.5256         3.0523         2.0714     
 4010.0000        12.3203        -0.0220       118.3125       118.0625        25.1803        22.9652         0.4535         0.4786        32.8565         3.0025         2.0641     
