~Version Information Section
VERS.          2.0                                     : CWLS LOG ASCII Standard
WRAP.          NO                                      : One line per depth step
CREA.          24/02/14                                : LAS Creation Date
~Well Information Section
STRT.ft        388.0000                                : Start Depth
STOP.ft        9511.5000                               : Stop Depth
STEP.ft        0.5000                                  : Step
NULL.          -999.2500                               : Null Value
COMP.          Mobil North Sea Ltd                     : Company
WELL.          9/17a-5                                 : Well
FLD .          Wildcat                                 : Field
LOC .          Northern North Sea                      : Location
PROV.          UKCS                                    : Province
UWI .          8400                                    : UWI Number
API .                                                  : API Number
SECT.                                                  : Section
TOWN.                                                  : Township
RNGE.                                                  : Range
PDAT.          MSL                                     : Perm Datum
EPD .ft        0.00                                    : Elevation
LMF .          RKB                                     : Log Measured From
DMF .          RKB                                     : Drill Measured From
APD .ft        87.00                                   : Above Perm Datum
EKB .ft        87.00                                   : Elev-Kelly Bushing
EDF .ft        86.00                                   : Elev-Drill Floor
EGL .ft        -339.00                                 : Elev-Ground Level (Water Depth)
TDD .ft        9514.00                                 : Total Depth (Driller)
LATI.          59 26 15.042 N                          : Latitude
LONG.          01 17 29.139 E                          : Longitude
SRVC.          Schlumberger                            : Service Company
DATE.          Jun-Jul-1989                            : Logging Date
PROJ.          UKCS                                    : Project
Set .          COMP WIRE                               : Set
~Curve Information Section
DEPTH.ft                                               : Depth Curve
CALI.in                                                : Caliper
DRHO.g/c3                                              : Delta Rho
DT.us/ft                                               : Delta-T
DTL.us/ft                                              : Delta T Long Spacing
GR.gAPI                                                : Gamma Ray
GRD.gAPI                                               : Gamma Ray
ILD.ohmm                                               : Deep Induction Standard Processed Resistivity
ILM.ohmm                                               : Medium Induction Standard Processed Resistivity
NPHI.LPU                                               : Neutron Porosity
PEF.B/E                                                : Photo-Electric Factor
RHOB.g/c3                                              : Bulk Density
~ASCII Log Data Section
# ...
 8218.0000        12.1797        -0.0120        79.9063        82.7500         8.2998        11.9265         0.7393         0.8364        16.7313         2.0870         2.3830     
 8218.5000        12.1797        -0.0120        80.2190        81.8770         7.2529        13.1647         0.7229         0.8199        18.2798         2.0441         2.3846     
 8219.0000        12.1797        -0.0128        79.6563        80.2188         8.0599        14.4723         0.7143         0.8083        19.0073         1.9808         2.3865     
 8219.5000        12.1797        -0.0142        79.3750        86.9063         9.6230        14.8578         0.7102         0.8001        18.8254         2.0571         2.3873     
 8220.0000        12.1797        -0.0152        79.2813        88.0938        10.6602        14.0967         0.7101         0.7950        17.6657         2.1298         2.3836     
 8220.5000        12.1797        -0.0164        78.9377        86.0064        10.6100        12.6701         0.7125         0.7940        16.5178         2.1343         2.3673     
 8221.0000        12.1797        -0.0166        78.7504        79.8256        11.8282        11.7426         0.7160         0.7978        17.6500         2.1003         2.3544     
 8221.5000        12.1797        -0.0152        78.8127        79.1873        12.2051        11.8170         0.7184         0.8055        18.0715         2.0919         2.3602     
 8222.0000        12.1797        -0.0111        79.0938        79.1250        12.9961        12.0525         0.7202         0.8132        18.1074         2.0617         2.3822     
 8222.5000        12.1797        -0.0092        79.3127        79.5311        11.9060        12.5551         0.7237         0.8159        16.5590         2.0224         2.3965     
 8223.0000        12.1797        -0.0114        79.3750        79.5936        12.7344        13.1085         0.7256         0.8143        16.7466         2.0406         2.3921     
 8223.5000        12.1797        -0.0143        80.0627        79.5934        14.0955        13.1502         0.7238         0.8105        18.7832         2.1689         2.3796     
 8224.0000        12.1797        -0.0151        80.0310        79.6254        14.4942        12.6913         0.7193         0.8020        19.9040         2.2185         2.3740     
 8224.5000        12.1797        -0.0141        80.2823        79.0616        14.3388        11.4559         0.7107         0.7880        19.3224         2.1287         2.3745     
 8225.0000        12.1797        -0.0136        79.5331        79.3128        13.7936        10.6690         0.6976         0.7734        17.8899         2.0200         2.3732     
 8225.5000        12.1797        -0.0125        79.0625        78.4375        13.4063        11.2224         0.6834         0.7590        17.6874         2.0191         2.3703     
 8226.0000        12.1797        -0.0140        78.2813        78.0313        12.7383        11.9723         0.6690         0.7422        18.2719         2.0161         2.3592     
 8226.5000        12.1797        -0.0161        77.5938        76.0631        10.4672        12.7738         0.6555         0.7246        19.2471         1.9916         2.3475     
 8227.0000        12.1797        -0.0204        77.7796        75.5012         9.4102        12.3216         0.6439         0.7089        19.3164         1.9426         2.3370     
 8227.5000        12.1797        -0.0225        78.9976        75.6872         9.2103        11.5946         0.6337         0.6978        19.8548         1.9935         2.3377     
 8228.0000        12.1797        -0.0237        79.8428        76.3127        11.0859        11.1195         0.6253         0.6900        19.2151         2.0715         2.3475     
 8228.5000        12.1797        -0.0216        78.6880        76.4688        12.0324        10.8607         0.6163         0.6835        19.6470         2.0892         2.3555     
 8229.0000        12.1797        -0.0206        77.8433        76.5305        13.0388        11.1993         0.6080         0.6769        19.7104         2.0626         2.3530     
 8229.5000        12.1797        -0.0189        78.2180        77.0614        11.3106        10.7761         0.6016         0.6692        20.5779         2.0113         2.3466     
 8230.0000        12.1797        -0.0160        78.5000        77.2811        11.0414        10.2087         0.6007         0.6638        22.6786         2.0175         2.3447     
 8230.5000        12.1797        -0.0119        78.7184        77.6558        11.0534        10.0839         0.6084         0.6645        23.2093         1.9781         2.3480     
 8231.0000        12.1797        -0.0096        79.7482        78.8421        13.8608        11.3980         0.6281         0.6754        21.8437         2.0235         2.3478     
 8231.5000        12.1797        -0.0103        81.6501        80.6503        15.8477        13.6608         0.6619         0.7033        19.7165         2.1343         2.3427     
 8232.0000        12.1797        -0.0093        84.5625        84.0000        19.7164        17.8262         0.7070         0.7551        20.5584         2.3075         2.3430     
 8232.5000        12.1797        -0.0074        87.2188        87.4063        26.1133        26.1671         0.7577         0.8263        23.1073         2.4387         2.3447     
 8233.0000        12.1797        -0.0078        90.6546        89.5284        35.0033        36.5059         0.8073         0.9060        26.4099         2.6139         2.3461     
 8233.5000        12.1797        -0.0071        92.7744        92.0890        45.2272        47.6464         0.8421         0.9752        29.3880         2.6770         2.3503     
 8234.0000        12.1797        -0.0041        93.7476        91.5948        51.7553        53.1773         0.8560         1.0122        31.5163         2.5053         2.3597     
 8234.5000        12.1797        -0.0048        91.4048        90.7476        52.6797        54.3948         0.8481         0.9975        29.3154         2.1490         2.3663     
 8235.0000        12.1797        -0.0088        89.6568        88.6872        43.9270        49.0106         0.8208         0.9321        25.3613         1.9943         2.3635     
 8235.5000        12.1797        -0.0113        88.5317        88.6280        30.9824        40.1311         0.7823         0.8407        21.9134         1.9813         2.3523     
 8236.0000        12.1797        -0.0143        88.0010        86.3484        19.3046        27.8672         0.7384         0.7591        21.0266         2.1192         2.3353     
 8236.5000        12.1797        -0.0163        87.0631        84.8447        13.5464        16.9515         0.6893         0.7088        20.7178         2.1250         2.3261     
 8237.0000        12.1797        -0.0158        86.0632        83.1264        10.6584         9.7771         0.6402         0.6805        21.0498         2.0547         2.3265     
 8237.5000        12.1797        -0.0142        83.5371        79.8780         9.7847         7.6504         0.5984         0.6604        20.9034         1.9683         2.3335     
 8238.0000        12.1797        -0.0135        79.6029        77.9418         7.9125         7.8543         0.5732         0.6450        20.4683         1.9466         2.3336     
 8238.5000        12.1797        -0.0145        78.7500        77.7813         6.7954         8.8936         0.5643         0.6356        19.8892         2.0225         2.3330     
 8239.0000        12.1797        -0.0169        78.7813        77.9688         6.7354        10.2024         0.5641         0.6315        20.5928         2.0255         2.3294     
 8239.5000        12.1797        -0.0185        78.9684        78.3434        10.0747        11.2444         0.5684         0.6300        21.4163         2.0180         2.3266     
 8240.0000        12.1797        -0.0180        79.3115        78.7486        13.0126        11.5696         0.5730         0.6307        21.5706         1.9264         2.3298     
