~Version Information Section
VERS.          2.0                                     : CWLS LOG ASCII Standard
WRAP.          NO                                      : One line per depth step
CREA.          24/02/14                                : LAS Creation Date
~Well Information Section
STRT.ft        388.0000                                : Start Depth
STOP.ft        9511.5000                               : Stop Depth
STEP.ft        0.5000                                  : Step
NULL.          -999.2500                               : Null Value
COMP.          Mobil North Sea Ltd                     : Company
WELL.          9/17a-5                                 : Well
FLD .          Wildcat                                 : Field
LOC .          Northern North Sea                      : Location
PROV.          UKCS                                    : Province
UWI .          8400                                    : UWI Number
API .                                                  : API Number
SECT.                                                  : Section
TOWN.                                                  : Township
RNGE.                                                  : Range
PDAT.          MSL                                     : Perm Datum
EPD .ft        0.00                                    : Elevation
LMF .          RKB                                     : Log Measured From
DMF .          RKB                                     : Drill Measured From
APD .ft        87.00                                   : Above Perm Datum
EKB .ft        87.00                                   : Elev-Kelly Bushing
EDF .ft        86.00                                   : Elev-Drill Floor
EGL .ft        -339.00                                 : Elev-Ground Level (Water Depth)
TDD .ft        9514.00                                 : Total Depth (Driller)
LATI.          59 26 15.042 N                          : Latitude
LONG.          01 17 29.139 E                          : Longitude
SRVC.          Schlumberger                            : Service Company
DATE.          Jun-Jul-1989                            : Logging Date
PROJ.          UKCS                                    : Project
Set .          COMP WIRE                               : Set
~Curve Information Section
DEPTH.ft                                               : Depth Curve
CALI.in                                                : Caliper
DRHO.g/c3                                              : Delta Rho
DT.us/ft                                               : Delta-T
DTL.us/ft                                              : Delta T Long Spacing
GR.gAPI                                                : Gamma Ray
GRD.gAPI                                               : Gamma Ray
ILD.ohmm                                               : Deep Induction Standard Processed Resistivity
ILM.ohmm                                               : Medium Induction Standard Processed Resistivity
NPHI.LPU                                               : Neutron Porosity
PEF.B/E                                                : Photo-Electric Factor
RHOB.g/c3                                              : Bulk Density
~ASCII Log Data Section
# ...
 7790.5000        12.1797        -0.0064        80.9375        80.2500        35.7734        27.4046         0.7240         0.8093        21.3323         2.5683         2.4010     
 7791.0000        12.1797        -0.0075        80.0938        79.1250        43.6641        36.6589         0.8767         1.0078        20.3357         2.4370         2.4377     
 7791.5000        12.1797        -0.0072        78.9678        77.8119        50.9922        46.7844         1.0983         1.2984        19.6711         2.4281         2.4625     
 7792.0000        12.1797        -0.0027        78.1250        77.3752        58.1207        56.5536         1.4439         1.7192        19.6786         2.5048         2.4853     
 7792.5000        12.1797        -0.0018        77.8750        77.5625        67.7541        61.9643         1.9285         2.2417        20.3339         2.4551         2.5010     
 7793.0000        12.1797        -0.0027        77.3125        77.0313        73.9774        62.3467         2.4670         2.7819        20.9156         2.4158         2.5018     
 7793.5000        12.1797        -0.0005        77.9063        77.4072        68.3594        60.4288         2.7941         3.1197        21.1661         2.4118         2.5057     
 7794.0000        12.1797        -0.0048        78.4710        78.5640        61.7993        57.7293         2.7166         3.0410        21.8529         2.3858         2.4827     
 7794.5000        12.1797        -0.0083        80.2188        80.0938        52.4922        54.1593         2.3839         2.6125        22.8869         2.3932         2.4314     
 7795.0000        12.1797        -0.0084        81.7500        82.0625        47.9141        51.2177         2.0640         2.1501        22.7525         2.3735         2.3798     
 7795.5000        12.1797        -0.0121        83.1246        82.5936        42.9063        47.2106         1.8515         1.8437        21.6232         2.3874         2.3467     
 7796.0000        12.1797        -0.0132        82.7188        82.5312        41.0065        46.8070         1.7287         1.6991        21.2763         2.4377         2.3525     
 7796.5000        12.1797        -0.0070        82.5625        82.5000        44.1719        46.1829         1.6463         1.6541        21.1998         2.4173         2.3793     
 7797.0000        12.1797        -0.0051        82.1563        81.9375        47.2188        48.0473         1.5813         1.6757        20.7765         2.4736         2.3872     
 7797.5000        12.1797        -0.0076        81.1250        81.0000        50.8203        50.6305         1.5493         1.7258        20.7277         2.4498         2.3843     
 7798.0000        12.1797        -0.0051        79.7492        79.7182        53.8203        54.1468         1.5039         1.7508        21.8158         2.6243         2.4011     
 7798.5000        12.1797         0.0002        79.0626        79.0935        56.0014        58.1221         1.3921         1.6940        23.2049         2.5718         2.4412     
 7799.0000        12.1797        -0.0035        79.1250        78.7500        53.3538        58.1891         1.2755         1.5053        22.7198         2.4702         2.4295     
 7799.5000        12.1797        -0.0101        79.2188        79.2188        40.3628        49.0648         1.2411         1.2538        21.4610         2.2464         2.3828     
 7800.0000        12.1797        -0.0179        80.5623        79.4059        30.8867        35.6455         1.2199         1.1339        20.7473         2.2189         2.3405     
 7800.5000        12.1797        -0.0143        80.5006        79.2820        26.1569        26.4762         1.1339         1.1521        20.9944         2.1203         2.3575     
 7801.0000        12.1797        -0.0092        81.2500        80.1875        29.0430        24.3943         1.0230         1.1384        20.9637         2.1551         2.3730     
 7801.5000        12.1797        -0.0064        82.7500        81.8750        29.0703        26.1376         0.9038         1.0329        20.9873         2.1372         2.3734     
 7802.0000        12.1797        -0.0091        84.1258        83.2508        28.0977        25.1845         0.7932         0.9206        21.3453         2.0996         2.3457     
 7802.5000        12.1797        -0.0076        84.8750        83.9064        24.8419        24.9062         0.7325         0.8345        21.7244         2.1203         2.3284     
 7803.0000        12.1797        -0.0109        84.4375        83.4688        19.7090        21.8411         0.7014         0.7706        21.7607         2.1494         2.3127     
 7803.5000        12.1797        -0.0112        82.6250        82.4688        14.9141        17.9972         0.6752         0.7211        20.4788         2.2279         2.3078     
 7804.0000        12.1797        -0.0111        80.9690        80.8750        13.2689        13.8005         0.6496         0.6925        19.5765         2.1731         2.3225     
 7804.5000        12.1797        -0.0052        80.5625        80.5625        15.0532        12.9254         0.6230         0.6841        19.0638         2.1520         2.3428     
 7805.0000        12.1797        -0.0019        81.0313        80.1250        17.1797        14.7464         0.5955         0.6859        18.8600         2.2065         2.3552     
 7805.5000        12.1797        -0.0016        82.4063        82.1563        18.6052        15.7510         0.5838         0.6809        18.8353         2.3021         2.3403     
 7806.0000        12.1797        -0.0028        84.4063        83.9375        17.8971        15.2701         0.5952         0.6696        18.9706         2.3965         2.3224     
 7806.5000        12.1797        -0.0053        85.4998        84.5939        17.6241        14.9513         0.6309         0.6784        19.7067         2.4045         2.3202     
 7807.0000        12.1797        -0.0062        85.2190        84.8750        20.8789        18.8977         0.6857         0.7222        20.4267         2.2381         2.3409     
 7807.5000        12.1797        -0.0058        85.0938        84.5313        26.6602        25.6854         0.7460         0.7907        20.3922         2.0668         2.3677     
 7808.0000        12.1797        -0.0078        83.6563        83.3750        29.8945        29.9514         0.8023         0.8685        19.0034         2.0034         2.3756     
 7808.5000        12.1797        -0.0106        82.8122        82.8748        31.6641        29.9116         0.8553         0.9449        17.2694         2.0538         2.3758     
 7809.0000        12.1797        -0.0062        82.2500        82.1262        32.9029        26.8330         0.9199         1.0182        16.1482         2.0536         2.3865     
 7809.5000        12.1797        -0.0049        82.1250        81.0000        31.2266        24.6236         1.0045         1.0778        16.4537         1.9900         2.3870     
 7810.0000        12.1797        -0.0071        81.8438        81.0000        28.3008        21.9536         1.1021         1.1188        17.4419         2.0225         2.3810     
 7810.5000        12.1797        -0.0065        82.1250        81.1248        25.5957        21.8652         1.1847         1.1739        18.4830         2.1453         2.3795     
 7811.0000        12.1797        -0.0044        82.3750        81.6250        30.9074        25.0307         1.2152         1.2411        19.5625         2.1792         2.3999     
 7811.5000        12.1797        -0.0057        83.4063        82.3750        36.2656        28.9074         1.1920         1.2750        21.1017         2.1504         2.4067     
 7812.0000        12.1797        -0.0090        84.5000        83.7500        35.5204        29.8509         1.1198         1.2343        21.9481         2.1621         2.4010     
 7812.5000        12.1797        -0.0102        85.4063        84.6875        27.6971        27.8617         1.0480         1.1392        21.4865         2.1433         2.3824     
