~Version Information Section
VERS.          2.0                                     : CWLS LOG ASCII Standard
WRAP.          NO                                      : One line per depth step
CREA.          24/02/14                                : LAS Creation Date
~Well Information Section
STRT.ft        388.0000                                : Start Depth
STOP.ft        9511.5000                               : Stop Depth
STEP.ft        0.5000                                  : Step
NULL.          -999.2500                               : Null Value
COMP.          Mobil North Sea Ltd                     : Company
WELL.          9/17a-5                                 : Well
FLD .          Wildcat                                 : Field
LOC .          Northern North Sea                      : Location
PROV.          UKCS                                    : Province
UWI .          8400                                    : UWI Number
API .                                                  : API Number
SECT.                                                  : Section
TOWN.                                                  : Township
RNGE.                                                  : Range
PDAT.          MSL                                     : Perm Datum
EPD .ft        0.00                                    : Elevation
LMF .          RKB                                     : Log Measured From
DMF .          RKB                                     : Drill Measured From
APD .ft        87.00                                   : Above Perm Datum
EKB .ft        87.00                                   : Elev-Kelly Bushing
EDF .ft        86.00                                   : Elev-Drill Floor
EGL .ft        -339.00                                 : Elev-Ground Level (Water Depth)
TDD .ft        9514.00                                 : Total Depth (Driller)
LATI.          59 26 15.042 N                          : Latitude
LONG.          01 17 29.139 E                          : Longitude
SRVC.          Schlumberger                            : Service Company
DATE.          Jun-Jul-1989                            : Logging Date
PROJ.          UKCS                                    : Project
Set .          COMP WIRE                               : Set
~Curve Information Section
DEPTH.ft                                               : Depth Curve
CALI.in                                                : Caliper
DRHO.g/c3                                              : Delta Rho
DT.us/ft                                               : Delta-T
DTL.us/ft                                              : Delta T Long Spacing
GR.gAPI                                                : Gamma Ray
GRD.gAPI                                               : Gamma Ray
ILD.ohmm                                               : Deep Induction Standard Processed Resistivity
ILM.ohmm                                               : Medium Induction Standard Processed Resistivity
NPHI.LPU                                               : Neutron Porosity
PEF.B/E                                                : Photo-Electric Factor
RHOB.g/c3                                              : Bulk Density
~ASCII Log Data Section
# ...
 4415.5000        12.7700         0.0056       133.5576       145.3740        69.7193        64.9123         1.4790         1.4884        46.5930         4.3597         2.3070     
 4416.0000        12.7950         0.0065       141.1815       153.1712        67.4171        65.1995         1.5028         1.5272        45.6503         3.8762         2.3240     
 4416.5000        12.6974         0.0026       140.5000       171.3125        64.8506        68.0779         1.4871         1.5352        45.9813         3.9591         2.3382     
 4417.0000        12.6784         0.0014       151.8130       168.0659        69.9531        73.7959         1.4457         1.4796        43.7363         4.5008         2.3467     
 4417.5000        12.7434         0.0025       153.1250       152.8750        75.3426        80.8343         1.3960         1.3852        47.6402         4.9983         2.3501     
 4418.0000        12.7500         0.0019       162.5006       141.0656        79.3125        84.5849         1.3326         1.2926        47.6133         5.3017         2.3501     
 4418.5000        12.7136         0.0030       160.5000       134.1250        79.1089        84.0979         1.2684         1.2231        48.8014         4.8530         2.3612     
 4419.0000        12.6373         0.0026       158.6875       149.1250        81.2028        83.7813         1.2086         1.1813        47.1178         4.1919         2.3701     
 4419.5000        12.6518        -0.0022       154.4429       146.6891        81.1752        84.1149         1.1549         1.1471        47.6840         3.9075         2.3705     
 4420.0000        12.7241        -0.0045       169.0625       137.1250        78.5024        87.4150         1.1154         1.1141        47.1990         4.0387         2.3619     
 4420.5000        12.7500         0.0008       177.9269       146.3042        81.8621        85.8520         1.1022         1.0939        43.6758         5.3283         2.3622     
 4421.0000        12.7776         0.0114       168.1174       165.8682        77.8915        80.9222         1.1152         1.0987        39.6045         7.3459         2.3560     
 4421.5000        12.7830         0.0158       174.0577       174.4878        72.1115        71.3376         1.1379         1.1289        39.5804         7.5262         2.3249     
 4422.0000        12.8428         0.0186       165.1336       176.8820        59.2429        61.6344         1.1474         1.1662        39.1900         5.6893         2.2880     
 4422.5000        12.8906         0.0226       146.8973       156.5938        57.5791        56.8314         1.1540         1.1746        41.8428         4.0021         2.2785     
 4423.0000        12.8906         0.0180       142.0625       135.1875        56.8355        56.8548         1.1583         1.1656        42.4287         3.5159         2.2868     
 4423.5000        12.8906         0.0075       138.5066       133.5018        58.2266        60.5987         1.1613         1.1587        47.3088         3.3194         2.2964     
 4424.0000        12.8813         0.0015       118.3125       132.1875        59.3424        62.4851         1.1801         1.1459        49.0758         3.2221         2.2969     
 4424.5000        12.8563        -0.0038       131.8751       148.3127        65.5313        63.1848         1.1956         1.1296        50.8165         3.3397         2.3026     
 4425.0000        12.8203        -0.0067       130.6250       148.9375        69.4841        64.1976         1.1794         1.1200        50.9471         3.9800         2.3160     
 4425.5000        12.8376        -0.0027       128.1877       156.7534        69.3594        65.3192         1.1630         1.1138        48.8169         4.4730         2.3377     
 4426.0000        12.8688         0.0017       128.8750       165.9375        65.7656        64.9908         1.1410         1.1082        44.1658         4.4416         2.3227     
 4426.5000        12.8845         0.0028       131.1265       157.5643        64.3913        61.8982         1.1086         1.0935        44.9855         4.2119         2.2786     
 4427.0000        12.8906         0.0075       139.8125       159.5000        64.6875        58.2760         1.0852         1.0717        46.7525         4.0403         2.2388     
 4427.5000        12.8906         0.0148       148.5008       144.8120        63.6246        59.2278         1.0713         1.0454        49.1911         4.1749         2.2208     
 4428.0000        12.8906         0.0219       146.2506       149.3096        63.1641        61.3365         1.0476         1.0271        47.2273         4.6226         2.2109     
 4428.5000        12.8906         0.0167       143.8125       160.3125        57.3832        60.7684         1.0148         1.0132        48.0514         4.5998         2.1914     
 4429.0000        12.7710         0.0066       149.5574       158.8769        54.8984        56.9698         0.9631         0.9856        47.1605         4.2339         2.1822     
 4429.5000        12.6378         0.0034       165.6875       148.8125        51.5157        50.1462         0.9055         0.9372        42.0775         3.7729         2.2042     
 4430.0000        12.6064         0.0040       152.3789       144.4964        50.6953        43.1105         0.8653         0.8864        37.4217         3.7930         2.2454     
 4430.5000        12.6961        -0.0009       138.1250       158.2500        47.4777        38.9532         0.8410         0.8446        38.4317         3.8565         2.2548     
 4431.0000        12.8225        -0.0033       135.3156       155.6902        44.1094        42.2363         0.8166         0.8097        43.9721         3.9366         2.2236     
 4431.5000        12.8817         0.0016       126.1875       147.1250        48.8502        50.4100         0.7958         0.7834        46.8118         4.5336         2.1733     
 4432.0000        12.8955         0.0019       135.3133       148.1851        54.8516        57.7415         0.7861         0.7730        51.1098         4.9970         2.1375     
 4432.5000        12.8936        -0.0010       139.1250       141.2500        57.3984        61.1964         0.7854         0.7756        57.6749         4.8285         2.1278     
 4433.0000        12.8906        -0.0026       141.1247       146.8153        56.3988        62.3444         0.7804         0.7819        60.3808         4.1593         2.1415     
 4433.5000        12.8906        -0.0050       141.8125       143.4375        55.4531        63.2006         0.7708         0.7832        55.8384         3.7898         2.1552     
 4434.0000        12.8906        -0.0107       142.7500       144.1872        56.6794        62.1995         0.7545         0.7772        50.9873         3.8897         2.1578     
 4434.5000        12.8906        -0.0112       142.1255       144.2504        57.1719        61.8573         0.7312         0.7641        51.0812         4.3180         2.1646     
 4435.0000        12.7923        -0.0093       137.9375       141.7500        55.4923        60.6907         0.7082         0.7455        50.4415         4.3613         2.1945     
 4435.5000        12.6457        -0.0051       130.6877       137.7508        53.8672        58.8323         0.6879         0.7259        42.7157         3.8926         2.2270     
 4436.0000        12.4852        -0.0039       130.5625       134.3125        48.8448        52.6397         0.6666         0.7095        37.0869         3.3654         2.2301     
 4436.5000        12.4466        -0.0116       135.9352       132.2506        44.2656        44.9689         0.6518         0.6949        37.9061         3.1150         2.1930     
 4437.0000        12.4609        -0.0221       143.8125       131.5625        40.6422        40.2745         0.6444         0.6865        41.6513         2.9242         2.1485     
 4437.5000        12.4609        -0.0278       140.1257       136.1876        34.3750        40.3240         0.6404         0.6954        43.9127         2.6414         2.1111     
